<?xml version='1.0' encoding='UTF-8'?><gpx name="Route-1" version="1.1" creator="org.metavrp.gpx"><desc/><rte><name>vehicle-0 2024-01-19</name><rtept lat="51.4649062" lon="4.4748122"/><rtept lat="50.9231188" lon="3.2560534"/><rtept lat="50.9791944" lon="3.1934903"/><rtept lat="51.2151931" lon="3.2713446"/><rtept lat="51.3333232" lon="3.2090629"/><rtept lat="51.1079248" lon="3.0220028"/><rtept lat="51.1079248" lon="3.0220028"/><rtept lat="50.8124503" lon="3.0746"/><rtept lat="50.8124503" lon="3.0746"/><rtept lat="50.8124503" lon="3.0746"/><rtept lat="50.8124503" lon="3.0746"/><rtept lat="50.925769" lon="3.2230884"/><rtept lat="50.925769" lon="3.2230884"/><rtept lat="50.925769" lon="3.2230884"/><rtept lat="51.2151931" lon="3.2713446"/><rtept lat="51.4649062" lon="4.4748122"/></rte><rte><name>vehicle-1 2024-01-19</name><rtept lat="51.0356233" lon="2.8706415"/><rtept lat="51.3437803" lon="3.2568809"/><rtept lat="50.9176367" lon="3.6903361"/><rtept lat="50.9888982" lon="5.0558233"/><rtept lat="51.1703217" lon="4.3852832"/><rtept lat="50.8609403" lon="3.0422496"/><rtept lat="51.3409648" lon="3.2395394"/><rtept lat="51.0356233" lon="2.8706415"/></rte><wpt lat="51.3582887" lon="3.31402"><name>xXgiNYmlLzS31VRh</name><type>Unvisited</type><desc>Route engine has not provided an explanation</desc></wpt><wpt lat="51.1703217" lon="4.3852832"><name>79H2TCL635UMCrFj</name><type>Pickup</type><desc>Part of shipment Shipment-6</desc></wpt><wpt lat="51.3162966" lon="3.1415551"><name>tm9hB3WE70JWdLoX</name><type>Unvisited</type><desc>Route engine has not provided an explanation</desc></wpt><wpt lat="50.925769" lon="3.2230884"><name>lpVLznOJkb8uBEVU</name><type>Visit</type><desc>Arrival time: 2024-01-19T14:53:00,Part of shipment Shipment-34</desc></wpt><wpt lat="50.8179324" lon="4.885969"><name>i4sm3qLbYYeq2FkD</name><type>Unvisited</type><desc>Route engine has not provided an explanation</desc></wpt><wpt lat="50.8116243" lon="4.6502116"><name>dsgXQmGh2uF6uG6e</name><type>Pickup</type><desc>Part of shipment Shipment-45</desc></wpt><wpt lat="50.8179324" lon="4.885969"><name>eqXRqlgBgU1FmVXf</name><type>Unvisited</type><desc>Route engine has not provided an explanation</desc></wpt><wpt lat="51.3333232" lon="3.2090629"><name>V2FmCnrqRH7eAMVw</name><type>Visit</type><desc>Arrival time: 2024-01-19T11:39:00,Part of shipment Shipment-48</desc></wpt><wpt lat="50.925769" lon="3.2230884"><name>lpVLznOJkb8uBEVU</name><type>Delivery</type><desc>Part of shipment Shipment-34</desc></wpt><wpt lat="51.0324242" lon="4.0935989"><name>T2Z2wiMNCP2kHWMa</name><type>Unvisited</type><desc>Route engine has not provided an explanation</desc></wpt><wpt lat="50.8730891" lon="4.52055"><name>jCETEXfZy0oZQJVS</name><type>Delivery</type><desc>Part of shipment Shipment-17</desc></wpt><wpt lat="51.2202107" lon="4.2822063"><name>fnR9MheAHtaaeeMq</name><type>Unvisited</type><desc>Route engine has not provided an explanation</desc></wpt><wpt lat="51.3437803" lon="3.2568809"><name>NhbiQugcoHVPpdTZ</name><type>Visit</type><desc>Part of shipment Shipment-8,Arrival time: 2024-01-19T09:00:00</desc></wpt><wpt lat="51.3437803" lon="3.2568809"><name>Z83zQ1qx8xFtrzzw</name><type>Unvisited</type><desc>Route engine has not provided an explanation</desc></wpt><wpt lat="51.0324242" lon="4.0935989"><name>BHASWi4hDY8qeWRT</name><type>Pickup</type><desc>Part of shipment Shipment-42</desc></wpt><wpt lat="51.2202107" lon="4.2822063"><name>ke4LSK0iHERQzMcV</name><type>Unvisited</type><desc>Route engine has not provided an explanation</desc></wpt><wpt lat="51.3162966" lon="3.1415551"><name>tm9hB3WE70JWdLoX</name><type>Delivery</type><desc>Part of shipment Shipment-15</desc></wpt><wpt lat="51.3437803" lon="3.2568809"><name>Z83zQ1qx8xFtrzzw</name><type>Pickup</type><desc>Part of shipment Shipment-32</desc></wpt><wpt lat="51.2021577" lon="4.4328424"><name>HIuL09ZCmCuKbzhb</name><type>Delivery</type><desc>Part of shipment Shipment-11</desc></wpt><wpt lat="50.9300177" lon="3.1113707"><name>JJrHWOLiPC5JgQT1</name><type>Pickup</type><desc>Part of shipment Shipment-28</desc></wpt><wpt lat="50.9176367" lon="3.6903361"><name>PaCpWejz4MvF2ycD</name><type>Pickup</type><desc>Part of shipment Shipment-17</desc></wpt><wpt lat="50.8116243" lon="4.6502116"><name>mO0Y6Auh1wnmaIhQ</name><type>Unvisited</type><desc>Route engine has not provided an explanation</desc></wpt><wpt lat="50.9300177" lon="3.1113707"><name>MPAQCYoyTlcEH1cv</name><type>Pickup</type><desc>Part of shipment Shipment-43</desc></wpt><wpt lat="51.2202107" lon="4.2822063"><name>fnR9MheAHtaaeeMq</name><type>Delivery</type><desc>Part of shipment Shipment-28</desc></wpt><wpt lat="50.8791388" lon="4.2251633"><name>bKW66KaZmLZDFD7t</name><type>Delivery</type><desc>Part of shipment Shipment-2</desc></wpt><wpt lat="50.853391" lon="5.4951183"><name>fcT4vvp7wxxcD59e</name><type>Unvisited</type><desc>Route engine has not provided an explanation</desc></wpt><wpt lat="50.925769" lon="3.2230884"><name>a71Q6vn048mWf4Fy</name><type>Unvisited</type><desc>Route engine has not provided an explanation</desc></wpt><wpt lat="51.1402749" lon="4.3793497"><name>9RTVd7iMyjgvF4fX</name><type>Pickup</type><desc>Part of shipment Shipment-13</desc></wpt><wpt lat="51.0356233" lon="2.8706415"><name>End location for vehicle-1</name><type>Vehicle Start</type></wpt><wpt lat="50.853391" lon="5.4951183"><name>RQj9AiCZqU9luBvG</name><type>Delivery</type><desc>Part of shipment Shipment-46</desc></wpt><wpt lat="50.9176367" lon="3.6903361"><name>JaxlUTquOnDtqf3x</name><type>Visit</type><desc>Arrival time: 2024-01-19T10:20:00,Part of shipment Shipment-9</desc></wpt><wpt lat="51.2320971" lon="4.4133189"><name>ijezRxZKvlPCh7QN</name><type>Unvisited</type><desc>Route engine has not provided an explanation</desc></wpt><wpt lat="51.3409648" lon="3.2395394"><name>9WWwUNAO3veXpRdP</name><type>Pickup</type><desc>Part of shipment Shipment-37</desc></wpt><wpt lat="50.8116243" lon="4.6502116"><name>XOm0ePT81UFVHctT</name><type>Unvisited</type><desc>Route engine has not provided an explanation</desc></wpt><wpt lat="50.9237637" lon="4.7128564"><name>leMSxEhqIVqs6PWg</name><type>Unvisited</type><desc>Route engine has not provided an explanation</desc></wpt><wpt lat="51.088907" lon="2.7338362"><name>qilHnP3G3ZfcwZgR</name><type>Delivery</type><desc>Part of shipment Shipment-38</desc></wpt><wpt lat="50.925769" lon="3.2230884"><name>LTHpAXD9LdGU9fuD</name><type>Delivery</type><desc>Part of shipment Shipment-47</desc></wpt><wpt lat="51.1079248" lon="3.0220028"><name>wJyrM7ok9OieRiQU</name><type>Unvisited</type><desc>Route engine has not provided an explanation</desc></wpt><wpt lat="50.9888982" lon="5.0558233"><name>rocB4824PPMolTym</name><type>Pickup</type><desc>Part of shipment Shipment-14</desc></wpt><wpt lat="50.9231188" lon="3.2560534"><name>ZhG6bMVGkMM9sK3f</name><type>Delivery</type><desc>Part of shipment Shipment-29</desc></wpt><wpt lat="50.8124503" lon="3.0746"><name>LzzcmDi50zln2zLA</name><type>Visit</type><desc>Part of shipment Shipment-7,Arrival time: 2024-01-19T13:50:00</desc></wpt><wpt lat="51.3409648" lon="3.2395394"><name>l2W4Qh1qHfxfaqXo</name><type>Delivery</type><desc>Part of shipment Shipment-49</desc></wpt><wpt lat="50.9888982" lon="5.0558233"><name>gup2DZyj7A8Llne9</name><type>Delivery</type><desc>Part of shipment Shipment-8</desc></wpt><wpt lat="51.3107436" lon="4.4168626"><name>x11Z4UNiam951Kwb</name><type>Delivery</type><desc>Part of shipment Shipment-30</desc></wpt><wpt lat="50.9176367" lon="3.6903361"><name>PbVBPqbrZFj7cnQY</name><type>Unvisited</type><desc>Route engine has not provided an explanation</desc></wpt><wpt lat="51.3582887" lon="3.31402"><name>TDwmay9KoDskTcqK</name><type>Pickup</type><desc>Part of shipment Shipment-49</desc></wpt><wpt lat="51.3162966" lon="3.1415551"><name>9tSw4rbIyobAdiwu</name><type>Unvisited</type><desc>Route engine has not provided an explanation</desc></wpt><wpt lat="50.8611091" lon="4.7676503"><name>zQ75ie8G0d776h8m</name><type>Delivery</type><desc>Part of shipment Shipment-44</desc></wpt><wpt lat="50.9888982" lon="5.0558233"><name>Gxr788LNIQNhdnAt</name><type>Pickup</type><desc>Part of shipment Shipment-33</desc></wpt><wpt lat="51.3409648" lon="3.2395394"><name>1RShsEA5qzky773r</name><type>Visit</type><desc>Arrival time: 2024-01-19T16:11:00,Part of shipment Shipment-9</desc></wpt><wpt lat="50.925769" lon="3.2230884"><name>jwjTPZn0a3gcbF9Z</name><type>Delivery</type><desc>Part of shipment Shipment-0</desc></wpt><wpt lat="50.9791944" lon="3.1934903"><name>qtNfZHPaHuxMIgwy</name><type>Visit</type><desc>Part of shipment Shipment-23,Arrival time: 2024-01-19T10:15:00</desc></wpt><wpt lat="50.8730891" lon="4.52055"><name>9DHeQUhQH6pOeAS4</name><type>Pickup</type><desc>Part of shipment Shipment-20</desc></wpt><wpt lat="51.2151931" lon="3.2713446"><name>6C1qBnyJ2TEts0dW</name><type>Unvisited</type><desc>Route engine has not provided an explanation</desc></wpt><wpt lat="51.3409648" lon="3.2395394"><name>hxZk4NMPvLDLiesz</name><type>Unvisited</type><desc>Route engine has not provided an explanation</desc></wpt><wpt lat="50.9112361" lon="3.6510909"><name>GjJNElpfcuJpLVzB</name><type>Pickup</type><desc>Part of shipment Shipment-12</desc></wpt><wpt lat="50.9231188" lon="3.2560534"><name>d0IoRPjRs6nTu0vR</name><type>Unvisited</type><desc>Route engine has not provided an explanation</desc></wpt><wpt lat="50.9231188" lon="3.2560534"><name>zEtAw7QHN2Qlsm1L</name><type>Pickup</type><desc>Part of shipment Shipment-7</desc></wpt><wpt lat="51.1079248" lon="3.0220028"><name>23KThYq5xqqIWCls</name><type>Delivery</type><desc>Part of shipment Shipment-48</desc></wpt><wpt lat="51.0324242" lon="4.0935989"><name>T2Z2wiMNCP2kHWMa</name><type>Delivery</type><desc>Part of shipment Shipment-19</desc></wpt><wpt lat="51.3162966" lon="3.1415551"><name>9tSw4rbIyobAdiwu</name><type>Pickup</type><desc>Part of shipment Shipment-21</desc></wpt><wpt lat="51.3437803" lon="3.2568809"><name>TqaFOBmXtg5rQo9o</name><type>Pickup</type><desc>Part of shipment Shipment-27</desc></wpt><wpt lat="50.8116243" lon="4.6502116"><name>5g5O3Aqv6IORqFJb</name><type>Unvisited</type><desc>Route engine has not provided an explanation</desc></wpt><wpt lat="51.3333232" lon="3.2090629"><name>yDdp6GcNhHfMIkzT</name><type>Pickup</type><desc>Part of shipment Shipment-1</desc></wpt><wpt lat="50.8611091" lon="4.7676503"><name>CoHczcsKxxsftMcf</name><type>Pickup</type><desc>Part of shipment Shipment-35</desc></wpt><wpt lat="50.9237637" lon="4.7128564"><name>PrMTcaBaFiaqROgR</name><type>Delivery</type><desc>Part of shipment Shipment-26</desc></wpt><wpt lat="50.925769" lon="3.2230884"><name>a71Q6vn048mWf4Fy</name><type>Delivery</type><desc>Part of shipment Shipment-4</desc></wpt><wpt lat="50.9231188" lon="3.2560534"><name>ZhG6bMVGkMM9sK3f</name><type>Unvisited</type><desc>Route engine has not provided an explanation</desc></wpt><wpt lat="51.2018469" lon="4.4444536"><name>dlg0YQiXpEJlrrFj</name><type>Unvisited</type><desc>Route engine has not provided an explanation</desc></wpt><wpt lat="50.9888982" lon="5.0558233"><name>gup2DZyj7A8Llne9</name><type>Visit</type><desc>Part of shipment Shipment-8,Arrival time: 2024-01-19T12:06:00</desc></wpt><wpt lat="50.8154585" lon="2.8710636"><name>NIFbptxivdgEWSP9</name><type>Pickup</type><desc>Part of shipment Shipment-25</desc></wpt><wpt lat="50.8116243" lon="4.6502116"><name>mO0Y6Auh1wnmaIhQ</name><type>Delivery</type><desc>Part of shipment Shipment-41</desc></wpt><wpt lat="51.0836997" lon="3.1170635"><name>LsTYg34KIku0grKw</name><type>Delivery</type><desc>Part of shipment Shipment-35</desc></wpt><wpt lat="51.054885" lon="3.7163659"><name>UobUsUeWLdloo200</name><type>Pickup</type><desc>Part of shipment Shipment-16</desc></wpt><wpt lat="50.8730891" lon="4.52055"><name>9DHeQUhQH6pOeAS4</name><type>Unvisited</type><desc>Route engine has not provided an explanation</desc></wpt><wpt lat="50.887536" lon="4.8343112"><name>2ZxcEBgGhVK1UeiD</name><type>Unvisited</type><desc>Route engine has not provided an explanation</desc></wpt><wpt lat="51.0202312" lon="2.713698"><name>hbtSctWbVmztXP0i</name><type>Delivery</type><desc>Part of shipment Shipment-45</desc></wpt><wpt lat="51.2202107" lon="4.2822063"><name>ke4LSK0iHERQzMcV</name><type>Delivery</type><desc>Part of shipment Shipment-12</desc></wpt><wpt lat="51.3409648" lon="3.2395394"><name>dR2ZBq3fuOpxJf1e</name><type>Delivery</type><desc>Part of shipment Shipment-20</desc></wpt><wpt lat="51.0202312" lon="2.713698"><name>hbtSctWbVmztXP0i</name><type>Unvisited</type><desc>Route engine has not provided an explanation</desc></wpt><wpt lat="50.8124503" lon="3.0746"><name>AmO8eSc5XA8pGECN</name><type>Visit</type><desc>Part of shipment Shipment-34,Arrival time: 2024-01-19T14:00:00</desc></wpt><wpt lat="50.925769" lon="3.2230884"><name>2Yl3sB5q8lODY37m</name><type>Unvisited</type><desc>Route engine has not provided an explanation</desc></wpt><wpt lat="51.2021577" lon="4.4328424"><name>tRUqw6FsEZIBVWGJ</name><type>Unvisited</type><desc>Route engine has not provided an explanation</desc></wpt><wpt lat="51.2018469" lon="4.4444536"><name>dlg0YQiXpEJlrrFj</name><type>Pickup</type><desc>Part of shipment Shipment-30</desc></wpt><wpt lat="51.3582887" lon="3.31402"><name>TDwmay9KoDskTcqK</name><type>Unvisited</type><desc>Route engine has not provided an explanation</desc></wpt><wpt lat="51.1079248" lon="3.0220028"><name>iYhEoLDL6F1zKoWM</name><type>Pickup</type><desc>Part of shipment Shipment-0</desc></wpt><wpt lat="51.2018469" lon="4.4444536"><name>dAvXmVAurufZoxYh</name><type>Unvisited</type><desc>Route engine has not provided an explanation</desc></wpt><wpt lat="51.0958841" lon="4.2409728"><name>pU7s7YlIMzUTdTqP</name><type>Delivery</type><desc>Part of shipment Shipment-1</desc></wpt><wpt lat="50.9791944" lon="3.1934903"><name>ZQEIuRVaRC5eh9ea</name><type>Unvisited</type><desc>Route engine has not provided an explanation</desc></wpt><wpt lat="51.1079248" lon="3.0220028"><name>iYhEoLDL6F1zKoWM</name><type>Visit</type><desc>Part of shipment Shipment-0,Arrival time: 2024-01-19T12:40:00</desc></wpt><wpt lat="51.3409648" lon="3.2395394"><name>hxZk4NMPvLDLiesz</name><type>Delivery</type><desc>Part of shipment Shipment-3</desc></wpt><wpt lat="51.3409648" lon="3.2395394"><name>9WWwUNAO3veXpRdP</name><type>Unvisited</type><desc>Route engine has not provided an explanation</desc></wpt><wpt lat="50.8791388" lon="4.2251633"><name>bKW66KaZmLZDFD7t</name><type>Unvisited</type><desc>Route engine has not provided an explanation</desc></wpt><wpt lat="50.8124503" lon="3.0746"><name>LzzcmDi50zln2zLA</name><type>Delivery</type><desc>Part of shipment Shipment-7</desc></wpt><wpt lat="50.8116243" lon="4.6502116"><name>dsgXQmGh2uF6uG6e</name><type>Unvisited</type><desc>Route engine has not provided an explanation</desc></wpt><wpt lat="51.054885" lon="3.7163659"><name>hMcV1oO9Ov0xAllY</name><type>Unvisited</type><desc>Route engine has not provided an explanation</desc></wpt><wpt lat="50.8730891" lon="4.52055"><name>jCETEXfZy0oZQJVS</name><type>Unvisited</type><desc>Route engine has not provided an explanation</desc></wpt><wpt lat="50.9237637" lon="4.7128564"><name>PrMTcaBaFiaqROgR</name><type>Unvisited</type><desc>Route engine has not provided an explanation</desc></wpt><wpt lat="50.853391" lon="5.4951183"><name>fcT4vvp7wxxcD59e</name><type>Pickup</type><desc>Part of shipment Shipment-11</desc></wpt><wpt lat="51.1402749" lon="4.3793497"><name>9RTVd7iMyjgvF4fX</name><type>Unvisited</type><desc>Route engine has not provided an explanation</desc></wpt><wpt lat="50.8116243" lon="4.6502116"><name>5g5O3Aqv6IORqFJb</name><type>Pickup</type><desc>Part of shipment Shipment-3</desc></wpt><wpt lat="51.4649062" lon="4.4748122"><name>End location for vehicle-0</name><type>Vehicle Start</type></wpt><wpt lat="50.8124503" lon="3.0746"><name>KeO1MWEMaTdpJyTn</name><type>Visit</type><desc>Arrival time: 2024-01-19T13:30:00,Part of shipment Shipment-23</desc></wpt><wpt lat="51.0030197" lon="4.2932856"><name>q90IoR8xHo2QYXTK</name><type>Delivery</type><desc>Part of shipment Shipment-36</desc></wpt><wpt lat="51.2010444" lon="3.1913716"><name>MxyDeRYrbxRJbHpr</name><type>Unvisited</type><desc>Route engine has not provided an explanation</desc></wpt><wpt lat="51.0958841" lon="4.2409728"><name>N6HeY4u3rBlSpuQG</name><type>Unvisited</type><desc>Route engine has not provided an explanation</desc></wpt><wpt lat="50.9176367" lon="3.6903361"><name>PbVBPqbrZFj7cnQY</name><type>Pickup</type><desc>Part of shipment Shipment-29</desc></wpt><wpt lat="50.8116243" lon="4.6502116"><name>XOm0ePT81UFVHctT</name><type>Pickup</type><desc>Part of shipment Shipment-18</desc></wpt><wpt lat="51.2021577" lon="4.4328424"><name>HIuL09ZCmCuKbzhb</name><type>Unvisited</type><desc>Route engine has not provided an explanation</desc></wpt><wpt lat="51.088907" lon="2.7338362"><name>qilHnP3G3ZfcwZgR</name><type>Unvisited</type><desc>Route engine has not provided an explanation</desc></wpt><wpt lat="50.853391" lon="5.4951183"><name>UkHXxykRnQsvi0wW</name><type>Unvisited</type><desc>Route engine has not provided an explanation</desc></wpt><wpt lat="50.8154585" lon="2.8710636"><name>NIFbptxivdgEWSP9</name><type>Unvisited</type><desc>Route engine has not provided an explanation</desc></wpt><wpt lat="51.054885" lon="3.7163659"><name>UobUsUeWLdloo200</name><type>Unvisited</type><desc>Route engine has not provided an explanation</desc></wpt><wpt lat="51.2151931" lon="3.2713446"><name>3vGfNlPt63cx1PAV</name><type>Delivery</type><desc>Part of shipment Shipment-5</desc></wpt><wpt lat="51.3437803" lon="3.2568809"><name>CgumWT65YvDlGtYw</name><type>Unvisited</type><desc>Route engine has not provided an explanation</desc></wpt><wpt lat="51.2010444" lon="3.1913716"><name>MxyDeRYrbxRJbHpr</name><type>Delivery</type><desc>Part of shipment Shipment-31</desc></wpt><wpt lat="51.3409648" lon="3.2395394"><name>dR2ZBq3fuOpxJf1e</name><type>Unvisited</type><desc>Route engine has not provided an explanation</desc></wpt><wpt lat="51.3437803" lon="3.2568809"><name>NhbiQugcoHVPpdTZ</name><type>Pickup</type><desc>Part of shipment Shipment-8</desc></wpt><wpt lat="50.8179324" lon="4.885969"><name>9PaFqWPN7oyx8S6N</name><type>Unvisited</type><desc>Route engine has not provided an explanation</desc></wpt><wpt lat="51.3107436" lon="4.4168626"><name>x11Z4UNiam951Kwb</name><type>Unvisited</type><desc>Route engine has not provided an explanation</desc></wpt><wpt lat="51.2021577" lon="4.4328424"><name>tRUqw6FsEZIBVWGJ</name><type>Delivery</type><desc>Part of shipment Shipment-22</desc></wpt><wpt lat="50.9176367" lon="3.6903361"><name>PaCpWejz4MvF2ycD</name><type>Unvisited</type><desc>Route engine has not provided an explanation</desc></wpt><wpt lat="50.8179324" lon="4.885969"><name>i4sm3qLbYYeq2FkD</name><type>Delivery</type><desc>Part of shipment Shipment-21</desc></wpt><wpt lat="50.853391" lon="5.4951183"><name>UkHXxykRnQsvi0wW</name><type>Delivery</type><desc>Part of shipment Shipment-18</desc></wpt><wpt lat="51.054885" lon="3.7163659"><name>hMcV1oO9Ov0xAllY</name><type>Delivery</type><desc>Part of shipment Shipment-25</desc></wpt><wpt lat="50.9888982" lon="5.0558233"><name>rocB4824PPMolTym</name><type>Unvisited</type><desc>Route engine has not provided an explanation</desc></wpt><wpt lat="51.1079248" lon="3.0220028"><name>23KThYq5xqqIWCls</name><type>Visit</type><desc>Arrival time: 2024-01-19T12:30:00,Part of shipment Shipment-48</desc></wpt><wpt lat="51.1703217" lon="4.3852832"><name>ckT1ro4mwognn5XG</name><type>Unvisited</type><desc>Route engine has not provided an explanation</desc></wpt><wpt lat="50.8730891" lon="4.52055"><name>w6toeWzeQ9xb7wNv</name><type>Unvisited</type><desc>Route engine has not provided an explanation</desc></wpt><wpt lat="50.8179324" lon="4.885969"><name>eqXRqlgBgU1FmVXf</name><type>Pickup</type><desc>Part of shipment Shipment-40</desc></wpt><wpt lat="50.9400835" lon="3.1524869"><name>cP2qczzIMPbn3v5n</name><type>Delivery</type><desc>Part of shipment Shipment-13</desc></wpt><wpt lat="50.9231188" lon="3.2560534"><name>zEtAw7QHN2Qlsm1L</name><type>Visit</type><desc>Part of shipment Shipment-7,Arrival time: 2024-01-19T09:52:00</desc></wpt><wpt lat="51.2010444" lon="3.1913716"><name>Ke2p8DJxG30HxsQa</name><type>Delivery</type><desc>Part of shipment Shipment-10</desc></wpt><wpt lat="51.0030197" lon="4.2932856"><name>q90IoR8xHo2QYXTK</name><type>Unvisited</type><desc>Route engine has not provided an explanation</desc></wpt><wpt lat="50.9231188" lon="3.2560534"><name>wtas2rCNKEYp5GEq</name><type>Delivery</type><desc>Part of shipment Shipment-32</desc></wpt><wpt lat="50.8730891" lon="4.52055"><name>w6toeWzeQ9xb7wNv</name><type>Pickup</type><desc>Part of shipment Shipment-24</desc></wpt><wpt lat="50.9791944" lon="3.1934903"><name>uAGZjPvRQ6NF43WF</name><type>Unvisited</type><desc>Route engine has not provided an explanation</desc></wpt><wpt lat="50.9888982" lon="5.0558233"><name>Gxr788LNIQNhdnAt</name><type>Unvisited</type><desc>Route engine has not provided an explanation</desc></wpt><wpt lat="51.1742491" lon="4.3782606"><name>hiFvN2Rn1tNNfzvd</name><type>Unvisited</type><desc>Route engine has not provided an explanation</desc></wpt><wpt lat="50.8154585" lon="2.8710636"><name>O9B7fWwQldo3Otyl</name><type>Unvisited</type><desc>Route engine has not provided an explanation</desc></wpt><wpt lat="51.2151931" lon="3.2713446"><name>6C1qBnyJ2TEts0dW</name><type>Delivery</type><desc>Part of shipment Shipment-37</desc></wpt><wpt lat="50.9791944" lon="3.1934903"><name>ZQEIuRVaRC5eh9ea</name><type>Delivery</type><desc>Part of shipment Shipment-27</desc></wpt><wpt lat="50.9176367" lon="3.6903361"><name>JaxlUTquOnDtqf3x</name><type>Pickup</type><desc>Part of shipment Shipment-9</desc></wpt><wpt lat="51.0356233" lon="2.8706415"><name>Start location for vehicle-1</name><type>Vehicle Start</type></wpt><wpt lat="50.9300177" lon="3.1113707"><name>JJrHWOLiPC5JgQT1</name><type>Unvisited</type><desc>Route engine has not provided an explanation</desc></wpt><wpt lat="50.8124503" lon="3.0746"><name>8Th0Yw0QIsYGRQTQ</name><type>Pickup</type><desc>Part of shipment Shipment-5</desc></wpt><wpt lat="51.2151931" lon="3.2713446"><name>FLQdY0KsAJJeYZo0</name><type>Pickup</type><desc>Part of shipment Shipment-47</desc></wpt><wpt lat="51.1079248" lon="3.0220028"><name>K2UwhTnm7787qYc2</name><type>Delivery</type><desc>Part of shipment Shipment-14</desc></wpt><wpt lat="51.4649062" lon="4.4748122"><name>Start location for vehicle-0</name><type>Vehicle Start</type></wpt><wpt lat="50.925769" lon="3.2230884"><name>jwjTPZn0a3gcbF9Z</name><type>Visit</type><desc>Arrival time: 2024-01-19T14:33:00,Part of shipment Shipment-0</desc></wpt><wpt lat="51.2151931" lon="3.2713446"><name>3vGfNlPt63cx1PAV</name><type>Visit</type><desc>Arrival time: 2024-01-19T15:42:00,Part of shipment Shipment-5</desc></wpt><wpt lat="50.8609403" lon="3.0422496"><name>w55lQPdFHAHPa2EX</name><type>Visit</type><desc>Part of shipment Shipment-6,Arrival time: 2024-01-19T14:56:00</desc></wpt><wpt lat="50.925769" lon="3.2230884"><name>LTHpAXD9LdGU9fuD</name><type>Visit</type><desc>Arrival time: 2024-01-19T14:43:00,Part of shipment Shipment-47</desc></wpt><wpt lat="51.3409648" lon="3.2395394"><name>l2W4Qh1qHfxfaqXo</name><type>Unvisited</type><desc>Route engine has not provided an explanation</desc></wpt><wpt lat="50.9791944" lon="3.1934903"><name>uAGZjPvRQ6NF43WF</name><type>Delivery</type><desc>Part of shipment Shipment-40</desc></wpt><wpt lat="50.8938775" lon="5.6352643"><name>7V58QPkx1i5Nq9Bc</name><type>Pickup</type><desc>Part of shipment Shipment-10</desc></wpt><wpt lat="51.3333232" lon="3.2090629"><name>yDdp6GcNhHfMIkzT</name><type>Unvisited</type><desc>Route engine has not provided an explanation</desc></wpt><wpt lat="51.1703217" lon="4.3852832"><name>79H2TCL635UMCrFj</name><type>Visit</type><desc>Arrival time: 2024-01-19T13:13:00,Part of shipment Shipment-6</desc></wpt><wpt lat="50.8179324" lon="4.885969"><name>9PaFqWPN7oyx8S6N</name><type>Pickup</type><desc>Part of shipment Shipment-44</desc></wpt><wpt lat="50.887536" lon="4.8343112"><name>2ZxcEBgGhVK1UeiD</name><type>Delivery</type><desc>Part of shipment Shipment-24</desc></wpt><wpt lat="50.8938775" lon="5.6352643"><name>7V58QPkx1i5Nq9Bc</name><type>Unvisited</type><desc>Route engine has not provided an explanation</desc></wpt><wpt lat="50.9400835" lon="3.1524869"><name>cP2qczzIMPbn3v5n</name><type>Unvisited</type><desc>Route engine has not provided an explanation</desc></wpt><wpt lat="51.3409648" lon="3.2395394"><name>1RShsEA5qzky773r</name><type>Delivery</type><desc>Part of shipment Shipment-9</desc></wpt><wpt lat="51.2320971" lon="4.4133189"><name>euOUUaK5n5l6UoXG</name><type>Unvisited</type><desc>Route engine has not provided an explanation</desc></wpt><wpt lat="51.1742491" lon="4.3782606"><name>hiFvN2Rn1tNNfzvd</name><type>Pickup</type><desc>Part of shipment Shipment-36</desc></wpt><wpt lat="51.2151931" lon="3.2713446"><name>FLQdY0KsAJJeYZo0</name><type>Visit</type><desc>Arrival time: 2024-01-19T10:59:00,Part of shipment Shipment-47</desc></wpt><wpt lat="50.8124503" lon="3.0746"><name>8Th0Yw0QIsYGRQTQ</name><type>Visit</type><desc>Arrival time: 2024-01-19T13:40:00,Part of shipment Shipment-5</desc></wpt><wpt lat="51.0202312" lon="2.713698"><name>nAQX3pBghcVbBCBj</name><type>Pickup</type><desc>Part of shipment Shipment-19</desc></wpt><wpt lat="50.853391" lon="5.4951183"><name>RQj9AiCZqU9luBvG</name><type>Unvisited</type><desc>Route engine has not provided an explanation</desc></wpt><wpt lat="50.9231188" lon="3.2560534"><name>d0IoRPjRs6nTu0vR</name><type>Pickup</type><desc>Part of shipment Shipment-31</desc></wpt><wpt lat="50.8154585" lon="2.8710636"><name>O9B7fWwQldo3Otyl</name><type>Pickup</type><desc>Part of shipment Shipment-39</desc></wpt><wpt lat="50.8124503" lon="3.0746"><name>KeO1MWEMaTdpJyTn</name><type>Delivery</type><desc>Part of shipment Shipment-23</desc></wpt><wpt lat="51.0202312" lon="2.713698"><name>nAQX3pBghcVbBCBj</name><type>Unvisited</type><desc>Route engine has not provided an explanation</desc></wpt><wpt lat="50.9791944" lon="3.1934903"><name>jVl5lBpkdxM3pR5E</name><type>Unvisited</type><desc>Route engine has not provided an explanation</desc></wpt><wpt lat="51.2320971" lon="4.4133189"><name>ijezRxZKvlPCh7QN</name><type>Pickup</type><desc>Part of shipment Shipment-4</desc></wpt><wpt lat="51.2018469" lon="4.4444536"><name>dAvXmVAurufZoxYh</name><type>Pickup</type><desc>Part of shipment Shipment-15</desc></wpt><wpt lat="51.3437803" lon="3.2568809"><name>TqaFOBmXtg5rQo9o</name><type>Unvisited</type><desc>Route engine has not provided an explanation</desc></wpt><wpt lat="51.3333232" lon="3.2090629"><name>V2FmCnrqRH7eAMVw</name><type>Pickup</type><desc>Part of shipment Shipment-48</desc></wpt><wpt lat="51.0958841" lon="4.2409728"><name>pU7s7YlIMzUTdTqP</name><type>Unvisited</type><desc>Route engine has not provided an explanation</desc></wpt><wpt lat="51.0324242" lon="4.0935989"><name>BHASWi4hDY8qeWRT</name><type>Unvisited</type><desc>Route engine has not provided an explanation</desc></wpt><wpt lat="50.8609403" lon="3.0422496"><name>w55lQPdFHAHPa2EX</name><type>Delivery</type><desc>Part of shipment Shipment-6</desc></wpt><wpt lat="51.0836997" lon="3.1170635"><name>LsTYg34KIku0grKw</name><type>Unvisited</type><desc>Route engine has not provided an explanation</desc></wpt><wpt lat="50.7629641" lon="4.4677891"><name>BphJMvMWmE4Mmx9M</name><type>Unvisited</type><desc>Route engine has not provided an explanation</desc></wpt><wpt lat="50.9112361" lon="3.6510909"><name>GjJNElpfcuJpLVzB</name><type>Unvisited</type><desc>Route engine has not provided an explanation</desc></wpt><wpt lat="50.9791944" lon="3.1934903"><name>qtNfZHPaHuxMIgwy</name><type>Pickup</type><desc>Part of shipment Shipment-23</desc></wpt><wpt lat="50.9300177" lon="3.1113707"><name>MPAQCYoyTlcEH1cv</name><type>Unvisited</type><desc>Route engine has not provided an explanation</desc></wpt><wpt lat="50.8611091" lon="4.7676503"><name>CoHczcsKxxsftMcf</name><type>Unvisited</type><desc>Route engine has not provided an explanation</desc></wpt><wpt lat="50.9231188" lon="3.2560534"><name>upddxoPVVifves5C</name><type>Unvisited</type><desc>Route engine has not provided an explanation</desc></wpt><wpt lat="51.1703217" lon="4.3852832"><name>ckT1ro4mwognn5XG</name><type>Pickup</type><desc>Part of shipment Shipment-22</desc></wpt><wpt lat="51.3582887" lon="3.31402"><name>xXgiNYmlLzS31VRh</name><type>Pickup</type><desc>Part of shipment Shipment-38</desc></wpt><wpt lat="51.1079248" lon="3.0220028"><name>K2UwhTnm7787qYc2</name><type>Unvisited</type><desc>Route engine has not provided an explanation</desc></wpt><wpt lat="50.8611091" lon="4.7676503"><name>zQ75ie8G0d776h8m</name><type>Unvisited</type><desc>Route engine has not provided an explanation</desc></wpt><wpt lat="50.9237637" lon="4.7128564"><name>leMSxEhqIVqs6PWg</name><type>Pickup</type><desc>Part of shipment Shipment-46</desc></wpt><wpt lat="51.0958841" lon="4.2409728"><name>N6HeY4u3rBlSpuQG</name><type>Pickup</type><desc>Part of shipment Shipment-26</desc></wpt><wpt lat="50.9231188" lon="3.2560534"><name>upddxoPVVifves5C</name><type>Delivery</type><desc>Part of shipment Shipment-43</desc></wpt><wpt lat="51.2010444" lon="3.1913716"><name>Ke2p8DJxG30HxsQa</name><type>Unvisited</type><desc>Route engine has not provided an explanation</desc></wpt><wpt lat="51.2320971" lon="4.4133189"><name>euOUUaK5n5l6UoXG</name><type>Pickup</type><desc>Part of shipment Shipment-41</desc></wpt><wpt lat="51.3437803" lon="3.2568809"><name>CgumWT65YvDlGtYw</name><type>Pickup</type><desc>Part of shipment Shipment-2</desc></wpt><wpt lat="51.1079248" lon="3.0220028"><name>wJyrM7ok9OieRiQU</name><type>Delivery</type><desc>Part of shipment Shipment-39</desc></wpt><wpt lat="50.9231188" lon="3.2560534"><name>wtas2rCNKEYp5GEq</name><type>Unvisited</type><desc>Route engine has not provided an explanation</desc></wpt><wpt lat="50.925769" lon="3.2230884"><name>2Yl3sB5q8lODY37m</name><type>Delivery</type><desc>Part of shipment Shipment-42</desc></wpt><wpt lat="50.7629641" lon="4.4677891"><name>BphJMvMWmE4Mmx9M</name><type>Delivery</type><desc>Part of shipment Shipment-16</desc></wpt><wpt lat="50.9791944" lon="3.1934903"><name>jVl5lBpkdxM3pR5E</name><type>Delivery</type><desc>Part of shipment Shipment-33</desc></wpt><wpt lat="50.8124503" lon="3.0746"><name>AmO8eSc5XA8pGECN</name><type>Pickup</type><desc>Part of shipment Shipment-34</desc></wpt></gpx>