<?xml version='1.0' encoding='UTF-8'?><gpx name="Route-1" version="1.1" creator="org.metavrp.gpx"><desc/><rte><name>vehicle-0 2024-01-19</name><rtept lat="51.0637377" lon="4.2376702"/><rtept lat="51.0443183" lon="3.8854516"/><rtept lat="50.8871118" lon="4.0665406"/><rtept lat="50.8741355" lon="4.7892579"/><rtept lat="50.8415303" lon="5.218583"/><rtept lat="50.8415303" lon="5.218583"/><rtept lat="50.9550599" lon="4.3674483"/><rtept lat="50.9673677" lon="4.795306"/><rtept lat="50.9673677" lon="4.795306"/><rtept lat="50.9673677" lon="4.795306"/><rtept lat="50.9107846" lon="4.6767435"/><rtept lat="50.8815507" lon="4.7109445"/><rtept lat="50.9159001" lon="3.6572949"/><rtept lat="51.0637377" lon="4.2376702"/></rte><rte><name>vehicle-2 2024-01-19</name><rtept lat="51.1841546" lon="4.4376476"/><rtept lat="51.0491467" lon="4.3503154"/><rtept lat="51.0491467" lon="4.3503154"/><rtept lat="50.8059433" lon="4.1528904"/><rtept lat="51.0529565" lon="3.7180312"/><rtept lat="51.0529565" lon="3.7180312"/><rtept lat="51.0612315" lon="3.7121333"/><rtept lat="51.1867872" lon="3.6143201"/><rtept lat="51.1867872" lon="3.6143201"/><rtept lat="51.1867872" lon="3.6143201"/><rtept lat="50.9382408" lon="4.4403408"/><rtept lat="50.8770983" lon="4.4768611"/><rtept lat="51.1853179" lon="3.2064216"/><rtept lat="51.2213144" lon="3.2161966"/><rtept lat="51.341011" lon="3.2377873"/><rtept lat="51.341011" lon="3.2377873"/><rtept lat="51.341011" lon="3.2377873"/><rtept lat="51.1841546" lon="4.4376476"/></rte><rte><name>vehicle-1 2024-01-19</name><rtept lat="51.3268005" lon="3.1935656"/><rtept lat="51.177896" lon="3.2234552"/><rtept lat="50.8317175" lon="5.5942949"/><rtept lat="50.8317175" lon="5.5942949"/><rtept lat="50.7795412" lon="5.4686889"/><rtept lat="50.7795412" lon="5.4686889"/><rtept lat="50.8825512" lon="4.68623"/><rtept lat="50.8770983" lon="4.4768611"/><rtept lat="51.0166644" lon="4.5691067"/><rtept lat="51.0443183" lon="3.8854516"/><rtept lat="51.0898436" lon="3.704507"/><rtept lat="51.0898436" lon="3.704507"/><rtept lat="51.1867872" lon="3.6143201"/><rtept lat="51.3268005" lon="3.1935656"/></rte><rte><name>vehicle-3 2024-01-19</name><rtept lat="51.1784336" lon="4.4502912"/><rtept lat="51.3148569" lon="3.2982361"/><rtept lat="51.3148569" lon="3.2982361"/><rtept lat="51.1853179" lon="3.2064216"/><rtept lat="51.1878652" lon="2.8147416"/><rtept lat="51.0612315" lon="3.7121333"/><rtept lat="50.9159001" lon="3.6572949"/><rtept lat="50.9550599" lon="4.3674483"/><rtept lat="50.8770983" lon="4.4768611"/><rtept lat="50.8770983" lon="4.4768611"/><rtept lat="50.9107846" lon="4.6767435"/><rtept lat="50.9107846" lon="4.6767435"/><rtept lat="50.9107846" lon="4.6767435"/><rtept lat="50.8825512" lon="4.68623"/><rtept lat="50.8825512" lon="4.68623"/><rtept lat="50.8825512" lon="4.68623"/><rtept lat="50.8825512" lon="4.68623"/><rtept lat="51.0133144" lon="4.7245951"/><rtept lat="51.1383051" lon="4.7544625"/><rtept lat="51.1784336" lon="4.4502912"/></rte><wpt lat="51.0887219" lon="5.5189085"><name>TvnaNpw6hYRLxvEC</name><type>Unvisited</type><desc>Route engine has not provided an explanation</desc></wpt><wpt lat="51.0898436" lon="3.704507"><name>ty6Tj2gK8w13Fl4f</name><type>Visit</type><desc>Part of shipment Shipment-17,Arrival time: 2024-01-19T15:53:00</desc></wpt><wpt lat="51.0166644" lon="4.5691067"><name>pPHw6xENMhtVntSw</name><type>Unvisited</type><desc>Route engine has not provided an explanation</desc></wpt><wpt lat="51.1867872" lon="3.6143201"><name>yYsNJGRg6T1AZZjn</name><type>Delivery</type><desc>Part of shipment Shipment-32</desc></wpt><wpt lat="50.8825512" lon="4.68623"><name>Eon5kS0FE7OJuxTx</name><type>Visit</type><desc>Part of shipment Shipment-6,Arrival time: 2024-01-19T15:19:00</desc></wpt><wpt lat="51.0631035" lon="3.6910833"><name>r8272A51IThhaUl7</name><type>Unvisited</type><desc>Route engine has not provided an explanation</desc></wpt><wpt lat="50.9382408" lon="4.4403408"><name>cvqvsyVZptlEFONj</name><type>Unvisited</type><desc>Route engine has not provided an explanation</desc></wpt><wpt lat="50.8692014" lon="5.3786019"><name>V1pNmPAOcfZz342X</name><type>Unvisited</type><desc>Route engine has not provided an explanation</desc></wpt><wpt lat="51.0898436" lon="3.704507"><name>hZKvukC6JB7BZXOC</name><type>Delivery</type><desc>Part of shipment Shipment-28</desc></wpt><wpt lat="50.9159001" lon="3.6572949"><name>tlv9AHL0zurpIdBo</name><type>Unvisited</type><desc>Route engine has not provided an explanation</desc></wpt><wpt lat="51.0612315" lon="3.7121333"><name>sxS1VOwn6sGWHukb</name><type>Visit</type><desc>Arrival time: 2024-01-19T11:45:00,Part of shipment Shipment-12</desc></wpt><wpt lat="50.8059433" lon="4.1528904"><name>joLx8V4SDwkS5BYE</name><type>Delivery</type><desc>Part of shipment Shipment-15</desc></wpt><wpt lat="50.8436208" lon="3.6062484"><name>sK6gAWLsjYTm1NWB</name><type>Unvisited</type><desc>Route engine has not provided an explanation</desc></wpt><wpt lat="51.1819303" lon="2.9928509"><name>GrWbfKfcTP902tJ0</name><type>Pickup</type><desc>Part of shipment Shipment-29</desc></wpt><wpt lat="50.8436208" lon="3.6062484"><name>kJgb5SQWh5ezQvr1</name><type>Pickup</type><desc>Part of shipment Shipment-13</desc></wpt><wpt lat="51.1735903" lon="5.7343027"><name>vbsj0HfWNGuMS9yO</name><type>Pickup</type><desc>Part of shipment Shipment-20</desc></wpt><wpt lat="51.341011" lon="3.2377873"><name>SLPY8D8X22sYDg9b</name><type>Visit</type><desc>Part of shipment Shipment-42,Arrival time: 2024-01-19T15:54:00</desc></wpt><wpt lat="50.8770983" lon="4.4768611"><name>XqsuZRJSfBCTr9Y1</name><type>Delivery</type><desc>Part of shipment Shipment-16</desc></wpt><wpt lat="50.9550599" lon="4.3674483"><name>rsuCarnZYexTZtB1</name><type>Visit</type><desc>Arrival time: 2024-01-19T13:30:00,Part of shipment Shipment-47</desc></wpt><wpt lat="51.3268005" lon="3.1935656"><name>Start location for vehicle-1</name><type>Vehicle Start</type></wpt><wpt lat="50.9107846" lon="4.6767435"><name>PUkD44hlEpst9ZVH</name><type>Visit</type><desc>Arrival time: 2024-01-19T14:35:00,Part of shipment Shipment-23</desc></wpt><wpt lat="51.1867872" lon="3.6143201"><name>p9OG8cXM9XZwNtIz</name><type>Visit</type><desc>Arrival time: 2024-01-19T11:44:00,Part of shipment Shipment-2</desc></wpt><wpt lat="50.8770983" lon="4.4768611"><name>MM8YFNnFOOPN6xaA</name><type>Delivery</type><desc>Part of shipment Shipment-49</desc></wpt><wpt lat="50.9673677" lon="4.795306"><name>hgJyvm9cWDGSGR0S</name><type>Unvisited</type><desc>Route engine has not provided an explanation</desc></wpt><wpt lat="51.0887219" lon="5.5189085"><name>TvnaNpw6hYRLxvEC</name><type>Delivery</type><desc>Part of shipment Shipment-35</desc></wpt><wpt lat="51.0166644" lon="4.5691067"><name>OXptAYZRPUkS505K</name><type>Pickup</type><desc>Part of shipment Shipment-27</desc></wpt><wpt lat="51.0529565" lon="3.7180312"><name>w0xYAL0Vb8DbmYhY</name><type>Delivery</type><desc>Part of shipment Shipment-37</desc></wpt><wpt lat="51.0166644" lon="4.5691067"><name>mAEX1UPHHyEcuODc</name><type>Unvisited</type><desc>Route engine has not provided an explanation</desc></wpt><wpt lat="50.9159001" lon="3.6572949"><name>Py1H7vQVK7b9ZIf1</name><type>Visit</type><desc>Arrival time: 2024-01-19T16:23:00,Part of shipment Shipment-41</desc></wpt><wpt lat="51.1867872" lon="3.6143201"><name>k2J3AOqNlHoeDrDj</name><type>Visit</type><desc>Arrival time: 2024-01-19T16:28:00,Part of shipment Shipment-46</desc></wpt><wpt lat="51.1819303" lon="2.9928509"><name>GrWbfKfcTP902tJ0</name><type>Unvisited</type><desc>Route engine has not provided an explanation</desc></wpt><wpt lat="51.1383051" lon="4.7544625"><name>kswusBBALIoRVRP1</name><type>Visit</type><desc>Arrival time: 2024-01-19T16:59:00,Part of shipment Shipment-12</desc></wpt><wpt lat="50.9159001" lon="3.6572949"><name>Py1H7vQVK7b9ZIf1</name><type>Delivery</type><desc>Part of shipment Shipment-41</desc></wpt><wpt lat="50.9107846" lon="4.6767435"><name>PUkD44hlEpst9ZVH</name><type>Delivery</type><desc>Part of shipment Shipment-23</desc></wpt><wpt lat="51.3148569" lon="3.2982361"><name>qvRo7odYP6QaRmFk</name><type>Pickup</type><desc>Part of shipment Shipment-6</desc></wpt><wpt lat="50.9550599" lon="4.3674483"><name>wqT7M0WqMGBn36Pe</name><type>Delivery</type><desc>Part of shipment Shipment-8</desc></wpt><wpt lat="50.9382408" lon="4.4403408"><name>dHeb2UnmmlKgjJZD</name><type>Visit</type><desc>Part of shipment Shipment-0,Arrival time: 2024-01-19T13:09:00</desc></wpt><wpt lat="51.177896" lon="3.2234552"><name>i2eNH5MypH25y45F</name><type>Pickup</type><desc>Part of shipment Shipment-45</desc></wpt><wpt lat="51.2213144" lon="3.2161966"><name>i4A0drUWidERDEDK</name><type>Unvisited</type><desc>Route engine has not provided an explanation</desc></wpt><wpt lat="50.8770983" lon="4.4768611"><name>XqsuZRJSfBCTr9Y1</name><type>Unvisited</type><desc>Route engine has not provided an explanation</desc></wpt><wpt lat="50.9107846" lon="4.6767435"><name>jo7CquGf7Notzptd</name><type>Pickup</type><desc>Part of shipment Shipment-18</desc></wpt><wpt lat="51.1383051" lon="4.7544625"><name>kswusBBALIoRVRP1</name><type>Delivery</type><desc>Part of shipment Shipment-12</desc></wpt><wpt lat="51.0631035" lon="3.6910833"><name>TEPb28I5Bo1HBoVO</name><type>Pickup</type><desc>Part of shipment Shipment-3</desc></wpt><wpt lat="51.0491467" lon="4.3503154"><name>fSVb2Z9PMl7ZT5tq</name><type>Visit</type><desc>Part of shipment Shipment-40,Arrival time: 2024-01-19T08:36:00</desc></wpt><wpt lat="51.1735903" lon="5.7343027"><name>5d6GNhhSjWsOMjsW</name><type>Delivery</type><desc>Part of shipment Shipment-1</desc></wpt><wpt lat="51.0529565" lon="3.7180312"><name>w0xYAL0Vb8DbmYhY</name><type>Visit</type><desc>Arrival time: 2024-01-19T10:19:00,Part of shipment Shipment-37</desc></wpt><wpt lat="51.1784336" lon="4.4502912"><name>End location for vehicle-3</name><type>Vehicle Start</type></wpt><wpt lat="51.3242521" lon="4.8596741"><name>vwxtoHoUQ8yo6A3E</name><type>Unvisited</type><desc>Route engine has not provided an explanation</desc></wpt><wpt lat="51.341011" lon="3.2377873"><name>EEmues8xZeHiQIj6</name><type>Delivery</type><desc>Part of shipment Shipment-4</desc></wpt><wpt lat="51.0166644" lon="4.5691067"><name>pPHw6xENMhtVntSw</name><type>Pickup</type><desc>Part of shipment Shipment-38</desc></wpt><wpt lat="51.1878652" lon="2.8147416"><name>8kyYXcmm61qH8xWI</name><type>Pickup</type><desc>Part of shipment Shipment-49</desc></wpt><wpt lat="50.7795412" lon="5.4686889"><name>Uj8vJoEeC8YvsAQC</name><type>Delivery</type><desc>Part of shipment Shipment-44</desc></wpt><wpt lat="50.8825512" lon="4.68623"><name>fmgm1NPg5AbzmwaC</name><type>Pickup</type><desc>Part of shipment Shipment-46</desc></wpt><wpt lat="50.8825512" lon="4.68623"><name>SDixbt2V9T8vAxWV</name><type>Unvisited</type><desc>Route engine has not provided an explanation</desc></wpt><wpt lat="50.9673677" lon="4.795306"><name>17ZikSbL3EXFagv2</name><type>Visit</type><desc>Arrival time: 2024-01-19T14:09:00,Part of shipment Shipment-48</desc></wpt><wpt lat="51.0898436" lon="3.704507"><name>hZKvukC6JB7BZXOC</name><type>Visit</type><desc>Arrival time: 2024-01-19T15:43:00,Part of shipment Shipment-28</desc></wpt><wpt lat="50.8436208" lon="3.6062484"><name>kJgb5SQWh5ezQvr1</name><type>Unvisited</type><desc>Route engine has not provided an explanation</desc></wpt><wpt lat="50.8415303" lon="5.218583"><name>kttucPdSAdSthL1s</name><type>Visit</type><desc>Arrival time: 2024-01-19T11:30:00,Part of shipment Shipment-9</desc></wpt><wpt lat="50.9550599" lon="4.3674483"><name>rsuCarnZYexTZtB1</name><type>Delivery</type><desc>Part of shipment Shipment-47</desc></wpt><wpt lat="50.8317175" lon="5.5942949"><name>b9OkZhCPPbU8xzQo</name><type>Pickup</type><desc>Part of shipment Shipment-44</desc></wpt><wpt lat="50.9673677" lon="4.795306"><name>17ZikSbL3EXFagv2</name><type>Delivery</type><desc>Part of shipment Shipment-48</desc></wpt><wpt lat="50.9673677" lon="4.795306"><name>9NBBKmRixm2ulvf2</name><type>Visit</type><desc>Part of shipment Shipment-10,Arrival time: 2024-01-19T13:49:00</desc></wpt><wpt lat="50.8825512" lon="4.68623"><name>Gcze6ESa4L4qo61d</name><type>Delivery</type><desc>Part of shipment Shipment-36</desc></wpt><wpt lat="51.1867872" lon="3.6143201"><name>p9OG8cXM9XZwNtIz</name><type>Delivery</type><desc>Part of shipment Shipment-2</desc></wpt><wpt lat="51.1841546" lon="4.4376476"><name>Start location for vehicle-2</name><type>Vehicle Start</type></wpt><wpt lat="51.0811031" lon="5.1595447"><name>zIujxgmOPgPjnWpu</name><type>Unvisited</type><desc>Route engine has not provided an explanation</desc></wpt><wpt lat="51.0719003" lon="3.756811"><name>TqfDp7IbUyKr0JYs</name><type>Unvisited</type><desc>Route engine has not provided an explanation</desc></wpt><wpt lat="50.7795412" lon="5.4686889"><name>Uj8vJoEeC8YvsAQC</name><type>Visit</type><desc>Arrival time: 2024-01-19T11:36:00,Part of shipment Shipment-44</desc></wpt><wpt lat="51.3242521" lon="4.8596741"><name>vwxtoHoUQ8yo6A3E</name><type>Delivery</type><desc>Part of shipment Shipment-3</desc></wpt><wpt lat="51.1878652" lon="2.8147416"><name>8kyYXcmm61qH8xWI</name><type>Visit</type><desc>Arrival time: 2024-01-19T10:36:00,Part of shipment Shipment-49</desc></wpt><wpt lat="51.3559358" lon="4.7788028"><name>9dM18W836PNdYddX</name><type>Unvisited</type><desc>Route engine has not provided an explanation</desc></wpt><wpt lat="50.8770983" lon="4.4768611"><name>nVQZ3L6PAdx9llYT</name><type>Visit</type><desc>Arrival time: 2024-01-19T13:21:00,Part of shipment Shipment-17</desc></wpt><wpt lat="50.8815507" lon="4.7109445"><name>5nmS831mWcu0kIlW</name><type>Visit</type><desc>Arrival time: 2024-01-19T14:54:00,Part of shipment Shipment-10</desc></wpt><wpt lat="51.3559358" lon="4.7788028"><name>py6u832n9IWaO0fP</name><type>Delivery</type><desc>Part of shipment Shipment-31</desc></wpt><wpt lat="50.8825512" lon="4.68623"><name>h2CgSUoHtfEvH5CC</name><type>Delivery</type><desc>Part of shipment Shipment-18</desc></wpt><wpt lat="51.3268005" lon="3.1935656"><name>End location for vehicle-1</name><type>Vehicle Start</type></wpt><wpt lat="51.0166644" lon="4.5691067"><name>OXptAYZRPUkS505K</name><type>Unvisited</type><desc>Route engine has not provided an explanation</desc></wpt><wpt lat="51.3559358" lon="4.7788028"><name>Jdm1adJSJqcAtv9K</name><type>Unvisited</type><desc>Route engine has not provided an explanation</desc></wpt><wpt lat="50.9069084" lon="4.4253227"><name>Q0U3so3UfYC4VPdX</name><type>Unvisited</type><desc>Route engine has not provided an explanation</desc></wpt><wpt lat="50.8825512" lon="4.68623"><name>Eon5kS0FE7OJuxTx</name><type>Delivery</type><desc>Part of shipment Shipment-6</desc></wpt><wpt lat="51.0898436" lon="3.704507"><name>lnBNIoQathc5NHcU</name><type>Unvisited</type><desc>Route engine has not provided an explanation</desc></wpt><wpt lat="50.8825512" lon="4.68623"><name>gKbKuR1f7h3OEBO2</name><type>Visit</type><desc>Part of shipment Shipment-25,Arrival time: 2024-01-19T15:39:00</desc></wpt><wpt lat="50.8741355" lon="4.7892579"><name>FW90M1bRAvE9HA8F</name><type>Pickup</type><desc>Part of shipment Shipment-9</desc></wpt><wpt lat="51.1735903" lon="5.7343027"><name>5d6GNhhSjWsOMjsW</name><type>Unvisited</type><desc>Route engine has not provided an explanation</desc></wpt><wpt lat="50.9107846" lon="4.6767435"><name>9S3ICALgHdDQxobt</name><type>Visit</type><desc>Arrival time: 2024-01-19T14:42:00,Part of shipment Shipment-36</desc></wpt><wpt lat="51.0631035" lon="3.6910833"><name>r8272A51IThhaUl7</name><type>Pickup</type><desc>Part of shipment Shipment-34</desc></wpt><wpt lat="50.8770983" lon="4.4768611"><name>MM8YFNnFOOPN6xaA</name><type>Visit</type><desc>Arrival time: 2024-01-19T14:01:00,Part of shipment Shipment-49</desc></wpt><wpt lat="50.8317175" lon="5.5942949"><name>VaxkswRWmrolj7UB</name><type>Visit</type><desc>Arrival time: 2024-01-19T11:07:00,Part of shipment Shipment-30</desc></wpt><wpt lat="51.341011" lon="3.2377873"><name>SLPY8D8X22sYDg9b</name><type>Delivery</type><desc>Part of shipment Shipment-42</desc></wpt><wpt lat="50.9673677" lon="4.795306"><name>4i6hVy6yrPW5IYyy</name><type>Pickup</type><desc>Part of shipment Shipment-23</desc></wpt><wpt lat="50.8871118" lon="4.0665406"><name>D4TZuof3kX6UtpBk</name><type>Delivery</type><desc>Part of shipment Shipment-39</desc></wpt><wpt lat="51.0491467" lon="4.3503154"><name>0Ko1WJfwnL83I9iR</name><type>Pickup</type><desc>Part of shipment Shipment-33</desc></wpt><wpt lat="51.1841546" lon="4.4376476"><name>End location for vehicle-2</name><type>Vehicle Start</type></wpt><wpt lat="51.0491467" lon="4.3503154"><name>HwYbD7tkyaxL7J45</name><type>Pickup</type><desc>Part of shipment Shipment-1</desc></wpt><wpt lat="51.1735903" lon="5.7343027"><name>hgJTAdvgRKkRaCRp</name><type>Pickup</type><desc>Part of shipment Shipment-43</desc></wpt><wpt lat="51.1853179" lon="3.2064216"><name>WAS2YTFwtJpLCJmj</name><type>Unvisited</type><desc>Route engine has not provided an explanation</desc></wpt><wpt lat="50.8825512" lon="4.68623"><name>Gcze6ESa4L4qo61d</name><type>Visit</type><desc>Part of shipment Shipment-36,Arrival time: 2024-01-19T15:49:00</desc></wpt><wpt lat="50.9107846" lon="4.6767435"><name>jo7CquGf7Notzptd</name><type>Visit</type><desc>Part of shipment Shipment-18,Arrival time: 2024-01-19T14:52:00</desc></wpt><wpt lat="50.8059433" lon="4.1528904"><name>74EiUkfet4BAE4OU</name><type>Pickup</type><desc>Part of shipment Shipment-2</desc></wpt><wpt lat="51.1853179" lon="3.2064216"><name>giqdUGcIbVNjz8QO</name><type>Visit</type><desc>Part of shipment Shipment-5,Arrival time: 2024-01-19T09:55:00</desc></wpt><wpt lat="50.8415303" lon="5.218583"><name>OjGCLYJQIqqIBbpK</name><type>Pickup</type><desc>Part of shipment Shipment-8</desc></wpt><wpt lat="51.0133144" lon="4.7245951"><name>vpb2Q9Fhl6z7XR56</name><type>Visit</type><desc>Part of shipment Shipment-5,Arrival time: 2024-01-19T16:24:00</desc></wpt><wpt lat="51.0637377" lon="4.2376702"><name>Start location for vehicle-0</name><type>Vehicle Start</type></wpt><wpt lat="51.0491467" lon="4.3503154"><name>uu9EKryH8vpISVLm</name><type>Visit</type><desc>Arrival time: 2024-01-19T08:26:00,Part of shipment Shipment-37</desc></wpt><wpt lat="51.0166644" lon="4.5691067"><name>zruXyQ98RabLH3eQ</name><type>Visit</type><desc>Arrival time: 2024-01-19T13:59:00,Part of shipment Shipment-28</desc></wpt><wpt lat="51.1867872" lon="3.6143201"><name>k2J3AOqNlHoeDrDj</name><type>Delivery</type><desc>Part of shipment Shipment-46</desc></wpt><wpt lat="50.9159001" lon="3.6572949"><name>JCMTrgWYiMRaLrSw</name><type>Pickup</type><desc>Part of shipment Shipment-7</desc></wpt><wpt lat="51.0443183" lon="3.8854516"><name>7iMiqg8GVanDrKLq</name><type>Visit</type><desc>Arrival time: 2024-01-19T08:39:00,Part of shipment Shipment-48</desc></wpt><wpt lat="51.0166644" lon="4.5691067"><name>zruXyQ98RabLH3eQ</name><type>Pickup</type><desc>Part of shipment Shipment-28</desc></wpt><wpt lat="51.1853179" lon="3.2064216"><name>giqdUGcIbVNjz8QO</name><type>Pickup</type><desc>Part of shipment Shipment-5</desc></wpt><wpt lat="50.8770983" lon="4.4768611"><name>um2gVp5gLSAlbBxj</name><type>Delivery</type><desc>Part of shipment Shipment-11</desc></wpt><wpt lat="50.9382408" lon="4.4403408"><name>cvqvsyVZptlEFONj</name><type>Delivery</type><desc>Part of shipment Shipment-24</desc></wpt><wpt lat="50.8059433" lon="4.1528904"><name>74EiUkfet4BAE4OU</name><type>Visit</type><desc>Part of shipment Shipment-2,Arrival time: 2024-01-19T09:22:00</desc></wpt><wpt lat="50.9673677" lon="4.795306"><name>9NBBKmRixm2ulvf2</name><type>Pickup</type><desc>Part of shipment Shipment-10</desc></wpt><wpt lat="51.1185203" lon="4.8213083"><name>WqdZ9SvrJxpDDkrb</name><type>Pickup</type><desc>Part of shipment Shipment-21</desc></wpt><wpt lat="50.8692014" lon="5.3786019"><name>V1pNmPAOcfZz342X</name><type>Pickup</type><desc>Part of shipment Shipment-31</desc></wpt><wpt lat="51.0612315" lon="3.7121333"><name>sxS1VOwn6sGWHukb</name><type>Pickup</type><desc>Part of shipment Shipment-12</desc></wpt><wpt lat="51.1867872" lon="3.6143201"><name>y9TXpeiXXVCoKF1i</name><type>Unvisited</type><desc>Route engine has not provided an explanation</desc></wpt><wpt lat="50.9107846" lon="4.6767435"><name>9S3ICALgHdDQxobt</name><type>Pickup</type><desc>Part of shipment Shipment-36</desc></wpt><wpt lat="51.0443183" lon="3.8854516"><name>7iMiqg8GVanDrKLq</name><type>Pickup</type><desc>Part of shipment Shipment-48</desc></wpt><wpt lat="51.0637377" lon="4.2376702"><name>End location for vehicle-0</name><type>Vehicle Start</type></wpt><wpt lat="50.8741355" lon="4.7892579"><name>FW90M1bRAvE9HA8F</name><type>Visit</type><desc>Part of shipment Shipment-9,Arrival time: 2024-01-19T10:30:00</desc></wpt><wpt lat="51.2213144" lon="3.2161966"><name>eavjCRKMXpKGUuUW</name><type>Visit</type><desc>Part of shipment Shipment-40,Arrival time: 2024-01-19T15:19:00</desc></wpt><wpt lat="51.0491467" lon="4.3503154"><name>HwYbD7tkyaxL7J45</name><type>Unvisited</type><desc>Route engine has not provided an explanation</desc></wpt><wpt lat="50.7795412" lon="5.4686889"><name>g9Z2q2fk1YvngD89</name><type>Visit</type><desc>Arrival time: 2024-01-19T11:46:00,Part of shipment Shipment-45</desc></wpt><wpt lat="51.1735903" lon="5.7343027"><name>MTjn2vQGapBqC2cH</name><type>Unvisited</type><desc>Route engine has not provided an explanation</desc></wpt><wpt lat="51.3559358" lon="4.7788028"><name>fcT7seXuussfioZM</name><type>Unvisited</type><desc>Route engine has not provided an explanation</desc></wpt><wpt lat="51.0443183" lon="3.8854516"><name>4BYNOlOfnw3zlbZ5</name><type>Visit</type><desc>Arrival time: 2024-01-19T15:10:00,Part of shipment Shipment-30</desc></wpt><wpt lat="50.8770983" lon="4.4768611"><name>nVQZ3L6PAdx9llYT</name><type>Pickup</type><desc>Part of shipment Shipment-17</desc></wpt><wpt lat="51.1735903" lon="5.7343027"><name>vbsj0HfWNGuMS9yO</name><type>Unvisited</type><desc>Route engine has not provided an explanation</desc></wpt><wpt lat="51.0529565" lon="3.7180312"><name>F2S1Ho7QH4BxF56w</name><type>Pickup</type><desc>Part of shipment Shipment-32</desc></wpt><wpt lat="50.9159001" lon="3.6572949"><name>JCMTrgWYiMRaLrSw</name><type>Visit</type><desc>Part of shipment Shipment-7,Arrival time: 2024-01-19T12:25:00</desc></wpt><wpt lat="51.1735903" lon="5.7343027"><name>hgJTAdvgRKkRaCRp</name><type>Unvisited</type><desc>Route engine has not provided an explanation</desc></wpt><wpt lat="50.8871118" lon="4.0665406"><name>D4TZuof3kX6UtpBk</name><type>Unvisited</type><desc>Route engine has not provided an explanation</desc></wpt><wpt lat="50.8871118" lon="4.0665406"><name>CJlHmuAGDGfcrDgG</name><type>Visit</type><desc>Part of shipment Shipment-41,Arrival time: 2024-01-19T09:25:00</desc></wpt><wpt lat="50.9069084" lon="4.4253227"><name>Q0U3so3UfYC4VPdX</name><type>Pickup</type><desc>Part of shipment Shipment-35</desc></wpt><wpt lat="50.8815507" lon="4.7109445"><name>P2zNRTpZmRPPneOD</name><type>Pickup</type><desc>Part of shipment Shipment-26</desc></wpt><wpt lat="51.0491467" lon="4.3503154"><name>fSVb2Z9PMl7ZT5tq</name><type>Pickup</type><desc>Part of shipment Shipment-40</desc></wpt><wpt lat="51.1853179" lon="3.2064216"><name>YhBSLJ7Zizb5fgMf</name><type>Pickup</type><desc>Part of shipment Shipment-4</desc></wpt><wpt lat="51.1185203" lon="4.8213083"><name>WqdZ9SvrJxpDDkrb</name><type>Unvisited</type><desc>Route engine has not provided an explanation</desc></wpt><wpt lat="50.9673677" lon="4.795306"><name>4i6hVy6yrPW5IYyy</name><type>Visit</type><desc>Part of shipment Shipment-23,Arrival time: 2024-01-19T13:59:00</desc></wpt><wpt lat="51.0631035" lon="3.6910833"><name>TEPb28I5Bo1HBoVO</name><type>Unvisited</type><desc>Route engine has not provided an explanation</desc></wpt><wpt lat="51.0491467" lon="4.3503154"><name>uu9EKryH8vpISVLm</name><type>Pickup</type><desc>Part of shipment Shipment-37</desc></wpt><wpt lat="51.341011" lon="3.2377873"><name>tEo0R9uls1cYFmOx</name><type>Unvisited</type><desc>Route engine has not provided an explanation</desc></wpt><wpt lat="51.0491467" lon="4.3503154"><name>0Ko1WJfwnL83I9iR</name><type>Unvisited</type><desc>Route engine has not provided an explanation</desc></wpt><wpt lat="51.1383051" lon="4.7544625"><name>gK0DRuqS8QyOSmia</name><type>Unvisited</type><desc>Route engine has not provided an explanation</desc></wpt><wpt lat="50.8317175" lon="5.5942949"><name>VaxkswRWmrolj7UB</name><type>Pickup</type><desc>Part of shipment Shipment-30</desc></wpt><wpt lat="51.1735903" lon="5.7343027"><name>PYVJqljKGksc7N7K</name><type>Unvisited</type><desc>Route engine has not provided an explanation</desc></wpt><wpt lat="51.0612315" lon="3.7121333"><name>PstfeCwHmTL9HOEN</name><type>Delivery</type><desc>Part of shipment Shipment-34</desc></wpt><wpt lat="51.3559358" lon="4.7788028"><name>py6u832n9IWaO0fP</name><type>Unvisited</type><desc>Route engine has not provided an explanation</desc></wpt><wpt lat="50.9107846" lon="4.6767435"><name>QlJyF6IhvX26IfE2</name><type>Visit</type><desc>Arrival time: 2024-01-19T15:02:00,Part of shipment Shipment-25</desc></wpt><wpt lat="50.8770983" lon="4.4768611"><name>um2gVp5gLSAlbBxj</name><type>Visit</type><desc>Part of shipment Shipment-11,Arrival time: 2024-01-19T13:35:00</desc></wpt><wpt lat="50.8770983" lon="4.4768611"><name>NQroFsIM5Dx5L12F</name><type>Visit</type><desc>Part of shipment Shipment-7,Arrival time: 2024-01-19T14:11:00</desc></wpt><wpt lat="50.8825512" lon="4.68623"><name>h2CgSUoHtfEvH5CC</name><type>Visit</type><desc>Part of shipment Shipment-18,Arrival time: 2024-01-19T15:29:00</desc></wpt><wpt lat="50.8770983" lon="4.4768611"><name>NQroFsIM5Dx5L12F</name><type>Delivery</type><desc>Part of shipment Shipment-7</desc></wpt><wpt lat="51.1735903" lon="5.7343027"><name>MTjn2vQGapBqC2cH</name><type>Pickup</type><desc>Part of shipment Shipment-22</desc></wpt><wpt lat="51.341011" lon="3.2377873"><name>kwUTXhJzvFBTvWdM</name><type>Delivery</type><desc>Part of shipment Shipment-0</desc></wpt><wpt lat="50.8825512" lon="4.68623"><name>gKbKuR1f7h3OEBO2</name><type>Delivery</type><desc>Part of shipment Shipment-25</desc></wpt><wpt lat="51.0898436" lon="3.704507"><name>ty6Tj2gK8w13Fl4f</name><type>Delivery</type><desc>Part of shipment Shipment-17</desc></wpt><wpt lat="51.1867872" lon="3.6143201"><name>y9TXpeiXXVCoKF1i</name><type>Delivery</type><desc>Part of shipment Shipment-29</desc></wpt><wpt lat="50.8815507" lon="4.7109445"><name>5nmS831mWcu0kIlW</name><type>Delivery</type><desc>Part of shipment Shipment-10</desc></wpt><wpt lat="51.1853179" lon="3.2064216"><name>YhBSLJ7Zizb5fgMf</name><type>Visit</type><desc>Part of shipment Shipment-4,Arrival time: 2024-01-19T14:57:00</desc></wpt><wpt lat="51.0166644" lon="4.5691067"><name>mAEX1UPHHyEcuODc</name><type>Delivery</type><desc>Part of shipment Shipment-43</desc></wpt><wpt lat="51.1867872" lon="3.6143201"><name>l81Ouudu3n9mUOcW</name><type>Visit</type><desc>Arrival time: 2024-01-19T11:34:00,Part of shipment Shipment-11</desc></wpt><wpt lat="51.341011" lon="3.2377873"><name>tEo0R9uls1cYFmOx</name><type>Delivery</type><desc>Part of shipment Shipment-21</desc></wpt><wpt lat="50.9107846" lon="4.6767435"><name>QlJyF6IhvX26IfE2</name><type>Pickup</type><desc>Part of shipment Shipment-25</desc></wpt><wpt lat="50.7795412" lon="5.4686889"><name>g9Z2q2fk1YvngD89</name><type>Delivery</type><desc>Part of shipment Shipment-45</desc></wpt><wpt lat="51.2213144" lon="3.2161966"><name>i4A0drUWidERDEDK</name><type>Pickup</type><desc>Part of shipment Shipment-15</desc></wpt><wpt lat="50.9382408" lon="4.4403408"><name>dHeb2UnmmlKgjJZD</name><type>Pickup</type><desc>Part of shipment Shipment-0</desc></wpt><wpt lat="50.9550599" lon="4.3674483"><name>wqT7M0WqMGBn36Pe</name><type>Visit</type><desc>Part of shipment Shipment-8,Arrival time: 2024-01-19T12:57:00</desc></wpt><wpt lat="51.3148569" lon="3.2982361"><name>qvRo7odYP6QaRmFk</name><type>Visit</type><desc>Part of shipment Shipment-6,Arrival time: 2024-01-19T09:24:00</desc></wpt><wpt lat="50.8692014" lon="5.3786019"><name>2mhMdAuaUVgWOj7S</name><type>Unvisited</type><desc>Route engine has not provided an explanation</desc></wpt><wpt lat="50.9159001" lon="3.6572949"><name>tlv9AHL0zurpIdBo</name><type>Delivery</type><desc>Part of shipment Shipment-26</desc></wpt><wpt lat="51.0612315" lon="3.7121333"><name>qPqG2YHQQ2KhaCCh</name><type>Pickup</type><desc>Part of shipment Shipment-42</desc></wpt><wpt lat="51.3559358" lon="4.7788028"><name>Jdm1adJSJqcAtv9K</name><type>Pickup</type><desc>Part of shipment Shipment-39</desc></wpt><wpt lat="51.1784336" lon="4.4502912"><name>Start location for vehicle-3</name><type>Vehicle Start</type></wpt><wpt lat="50.8317175" lon="5.5942949"><name>b9OkZhCPPbU8xzQo</name><type>Visit</type><desc>Part of shipment Shipment-44,Arrival time: 2024-01-19T10:57:00</desc></wpt><wpt lat="50.8059433" lon="4.1528904"><name>joLx8V4SDwkS5BYE</name><type>Unvisited</type><desc>Route engine has not provided an explanation</desc></wpt><wpt lat="51.0133144" lon="4.7245951"><name>vpb2Q9Fhl6z7XR56</name><type>Delivery</type><desc>Part of shipment Shipment-5</desc></wpt><wpt lat="51.2213144" lon="3.2161966"><name>eavjCRKMXpKGUuUW</name><type>Delivery</type><desc>Part of shipment Shipment-40</desc></wpt><wpt lat="51.0898436" lon="3.704507"><name>lnBNIoQathc5NHcU</name><type>Pickup</type><desc>Part of shipment Shipment-24</desc></wpt><wpt lat="51.341011" lon="3.2377873"><name>EEmues8xZeHiQIj6</name><type>Visit</type><desc>Arrival time: 2024-01-19T16:04:00,Part of shipment Shipment-4</desc></wpt><wpt lat="50.8692014" lon="5.3786019"><name>2mhMdAuaUVgWOj7S</name><type>Delivery</type><desc>Part of shipment Shipment-38</desc></wpt><wpt lat="50.8825512" lon="4.68623"><name>SDixbt2V9T8vAxWV</name><type>Pickup</type><desc>Part of shipment Shipment-14</desc></wpt><wpt lat="51.1853179" lon="3.2064216"><name>WAS2YTFwtJpLCJmj</name><type>Delivery</type><desc>Part of shipment Shipment-13</desc></wpt><wpt lat="51.0529565" lon="3.7180312"><name>F2S1Ho7QH4BxF56w</name><type>Visit</type><desc>Part of shipment Shipment-32,Arrival time: 2024-01-19T10:29:00</desc></wpt><wpt lat="51.1867872" lon="3.6143201"><name>l81Ouudu3n9mUOcW</name><type>Pickup</type><desc>Part of shipment Shipment-11</desc></wpt><wpt lat="51.177896" lon="3.2234552"><name>i2eNH5MypH25y45F</name><type>Visit</type><desc>Arrival time: 2024-01-19T08:26:00,Part of shipment Shipment-45</desc></wpt><wpt lat="51.3148569" lon="3.2982361"><name>UGD5mMtzPm0O6yoe</name><type>Visit</type><desc>Part of shipment Shipment-47,Arrival time: 2024-01-19T09:14:00</desc></wpt><wpt lat="51.1867872" lon="3.6143201"><name>yYsNJGRg6T1AZZjn</name><type>Visit</type><desc>Arrival time: 2024-01-19T11:24:00,Part of shipment Shipment-32</desc></wpt><wpt lat="50.8815507" lon="4.7109445"><name>P2zNRTpZmRPPneOD</name><type>Unvisited</type><desc>Route engine has not provided an explanation</desc></wpt><wpt lat="51.0811031" lon="5.1595447"><name>zIujxgmOPgPjnWpu</name><type>Delivery</type><desc>Part of shipment Shipment-27</desc></wpt><wpt lat="51.0612315" lon="3.7121333"><name>PstfeCwHmTL9HOEN</name><type>Unvisited</type><desc>Route engine has not provided an explanation</desc></wpt><wpt lat="50.8871118" lon="4.0665406"><name>CJlHmuAGDGfcrDgG</name><type>Pickup</type><desc>Part of shipment Shipment-41</desc></wpt><wpt lat="50.8825512" lon="4.68623"><name>fmgm1NPg5AbzmwaC</name><type>Visit</type><desc>Arrival time: 2024-01-19T12:53:00,Part of shipment Shipment-46</desc></wpt><wpt lat="51.3559358" lon="4.7788028"><name>fcT7seXuussfioZM</name><type>Pickup</type><desc>Part of shipment Shipment-16</desc></wpt><wpt lat="51.0443183" lon="3.8854516"><name>4BYNOlOfnw3zlbZ5</name><type>Delivery</type><desc>Part of shipment Shipment-30</desc></wpt><wpt lat="50.8436208" lon="3.6062484"><name>sK6gAWLsjYTm1NWB</name><type>Delivery</type><desc>Part of shipment Shipment-19</desc></wpt><wpt lat="51.0612315" lon="3.7121333"><name>qPqG2YHQQ2KhaCCh</name><type>Visit</type><desc>Part of shipment Shipment-42,Arrival time: 2024-01-19T10:45:00</desc></wpt><wpt lat="51.3148569" lon="3.2982361"><name>UGD5mMtzPm0O6yoe</name><type>Pickup</type><desc>Part of shipment Shipment-47</desc></wpt><wpt lat="51.0719003" lon="3.756811"><name>TqfDp7IbUyKr0JYs</name><type>Delivery</type><desc>Part of shipment Shipment-14</desc></wpt><wpt lat="50.8415303" lon="5.218583"><name>kttucPdSAdSthL1s</name><type>Delivery</type><desc>Part of shipment Shipment-9</desc></wpt><wpt lat="51.1735903" lon="5.7343027"><name>PYVJqljKGksc7N7K</name><type>Pickup</type><desc>Part of shipment Shipment-19</desc></wpt><wpt lat="51.3559358" lon="4.7788028"><name>9dM18W836PNdYddX</name><type>Delivery</type><desc>Part of shipment Shipment-22</desc></wpt><wpt lat="51.1383051" lon="4.7544625"><name>gK0DRuqS8QyOSmia</name><type>Delivery</type><desc>Part of shipment Shipment-33</desc></wpt><wpt lat="51.341011" lon="3.2377873"><name>kwUTXhJzvFBTvWdM</name><type>Visit</type><desc>Arrival time: 2024-01-19T16:14:00,Part of shipment Shipment-0</desc></wpt><wpt lat="50.8415303" lon="5.218583"><name>OjGCLYJQIqqIBbpK</name><type>Visit</type><desc>Part of shipment Shipment-8,Arrival time: 2024-01-19T11:40:00</desc></wpt><wpt lat="50.9673677" lon="4.795306"><name>hgJyvm9cWDGSGR0S</name><type>Delivery</type><desc>Part of shipment Shipment-20</desc></wpt></gpx>