<?xml version='1.0' encoding='UTF-8'?><gpx name="Route-1" version="1.1" creator="org.metavrp.gpx"><desc/><rte><name>vehicle-0 2024-01-19</name><rtept lat="51.0601934" lon="3.7977281"/><rtept lat="51.3605631" lon="4.4533587"/><rtept lat="51.0125599" lon="5.487062"/><rtept lat="50.9999914" lon="5.5260025"/><rtept lat="50.840896" lon="4.5593959"/></rte><rte><name>vehicle-1 2024-01-19</name><rtept lat="50.8950743" lon="3.7629254"/><rtept lat="51.0152788" lon="3.759904"/><rtept lat="50.930814" lon="5.1170496"/><rtept lat="50.930814" lon="5.1170496"/><rtept lat="51.4036969" lon="4.6507454"/><rtept lat="51.3263853" lon="4.9608563"/><rtept lat="51.1815646" lon="2.8001615"/></rte><wpt lat="51.0125599" lon="5.487062"><name>AnIWFsAOMDRxFzny</name><type>Unvisited</type><desc>Route engine has not provided an explanation</desc></wpt><wpt lat="51.0125599" lon="5.487062"><name>E1WL7rEdwPLIHSDq</name><type>Pickup</type><desc>Part of shipment Shipment-12</desc></wpt><wpt lat="51.1096449" lon="3.7094295"><name>J6bq9dbcWgWS4FUz</name><type>Unvisited</type><desc>Route engine has not provided an explanation</desc></wpt><wpt lat="50.930814" lon="5.1170496"><name>w5cjI3nBl97cwPUC</name><type>Visit</type><desc>Arrival time: 2024-01-19T10:01:00,Part of shipment Shipment-15</desc></wpt><wpt lat="51.3263853" lon="4.9608563"><name>GPgxhZCZM44P9yTC</name><type>Pickup</type><desc>Part of shipment Shipment-3</desc></wpt><wpt lat="51.3263853" lon="4.9608563"><name>aF0ieYSLeTc1JEVZ</name><type>Visit</type><desc>Arrival time: 2024-01-19T12:29:00,Part of shipment Shipment-9</desc></wpt><wpt lat="51.1853753" lon="5.1026813"><name>lmkHyvMuvMhPHoYM</name><type>Unvisited</type><desc>Route engine has not provided an explanation</desc></wpt><wpt lat="51.4036969" lon="4.6507454"><name>xsIanP6ny4CMLRbw</name><type>Unvisited</type><desc>Route engine has not provided an explanation</desc></wpt><wpt lat="51.4036969" lon="4.6507454"><name>xsIanP6ny4CMLRbw</name><type>Delivery</type><desc>Part of shipment Shipment-13</desc></wpt><wpt lat="51.4036969" lon="4.6507454"><name>9a6MnYABwFTwCVdz</name><type>Delivery</type><desc>Part of shipment Shipment-14</desc></wpt><wpt lat="51.1815646" lon="2.8001615"><name>k292qLrdRDMJr32F</name><type>Pickup</type><desc>Part of shipment Shipment-8</desc></wpt><wpt lat="51.4036969" lon="4.6507454"><name>vNCSIe3i9j906QN4</name><type>Visit</type><desc>Arrival time: 2024-01-19T11:40:00,Part of shipment Shipment-17</desc></wpt><wpt lat="51.0125599" lon="5.487062"><name>dSpKv8KVaCBHhNWF</name><type>Unvisited</type><desc>Route engine has not provided an explanation</desc></wpt><wpt lat="51.0152788" lon="3.759904"><name>EyGrnyZm1NhrlIJq</name><type>Pickup</type><desc>Part of shipment Shipment-6</desc></wpt><wpt lat="51.0152788" lon="3.759904"><name>PwySNjItiTqdHWUU</name><type>Unvisited</type><desc>Route engine has not provided an explanation</desc></wpt><wpt lat="51.3263853" lon="4.9608563"><name>Y04Ri7X94TAlqITd</name><type>Delivery</type><desc>Part of shipment Shipment-6</desc></wpt><wpt lat="51.0152788" lon="3.759904"><name>EyGrnyZm1NhrlIJq</name><type>Unvisited</type><desc>Route engine has not provided an explanation</desc></wpt><wpt lat="51.3605631" lon="4.4533587"><name>bixI890nsjdaFMvC</name><type>Unvisited</type><desc>Route engine has not provided an explanation</desc></wpt><wpt lat="51.4036969" lon="4.6507454"><name>9a6MnYABwFTwCVdz</name><type>Unvisited</type><desc>Route engine has not provided an explanation</desc></wpt><wpt lat="51.1853753" lon="5.1026813"><name>lmkHyvMuvMhPHoYM</name><type>Pickup</type><desc>Part of shipment Shipment-0</desc></wpt><wpt lat="50.840896" lon="4.5593959"><name>TVfsCxNMMhi2WgHb</name><type>Delivery</type><desc>Part of shipment Shipment-11</desc></wpt><wpt lat="51.1026232" lon="5.1849366"><name>ZQ86hrDSxGyNCM3K</name><type>Unvisited</type><desc>Route engine has not provided an explanation</desc></wpt><wpt lat="51.4036969" lon="4.6507454"><name>GuKKqVVQURpDZcy5</name><type>Pickup</type><desc>Part of shipment Shipment-4</desc></wpt><wpt lat="51.3605631" lon="4.4533587"><name>bixI890nsjdaFMvC</name><type>Pickup</type><desc>Part of shipment Shipment-19</desc></wpt><wpt lat="50.840896" lon="4.5593959"><name>TVfsCxNMMhi2WgHb</name><type>Visit</type><desc>Part of shipment Shipment-11,Arrival time: 2024-01-19T12:09:00</desc></wpt><wpt lat="51.3263853" lon="4.9608563"><name>GPgxhZCZM44P9yTC</name><type>Unvisited</type><desc>Route engine has not provided an explanation</desc></wpt><wpt lat="51.0125599" lon="5.487062"><name>E1WL7rEdwPLIHSDq</name><type>Unvisited</type><desc>Route engine has not provided an explanation</desc></wpt><wpt lat="51.0125599" lon="5.487062"><name>E1NSJUPL9F4tYDo1</name><type>Delivery</type><desc>Part of shipment Shipment-1</desc></wpt><wpt lat="51.1045932" lon="5.5219155"><name>8eeamBS3LppQmSs2</name><type>Unvisited</type><desc>Route engine has not provided an explanation</desc></wpt><wpt lat="50.9999914" lon="5.5260025"><name>nnW593JVVJjXywN7</name><type>Pickup</type><desc>Part of shipment Shipment-11</desc></wpt><wpt lat="50.840896" lon="4.5593959"><name>njXfTpQ7jAa4gagI</name><type>Unvisited</type><desc>Route engine has not provided an explanation</desc></wpt><wpt lat="51.0152788" lon="3.759904"><name>BucHfg477ngzAwwj</name><type>Unvisited</type><desc>Route engine has not provided an explanation</desc></wpt><wpt lat="51.1045932" lon="5.5219155"><name>cQ2LJWXrXnpJ4LmA</name><type>Unvisited</type><desc>Route engine has not provided an explanation</desc></wpt><wpt lat="51.3605631" lon="4.4533587"><name>csGWDjx5wWe8cQY0</name><type>Visit</type><desc>Arrival time: 2024-01-19T09:04:00,Part of shipment Shipment-1</desc></wpt><wpt lat="51.3605631" lon="4.4533587"><name>EM11zgxd8ciLwYsy</name><type>Pickup</type><desc>Part of shipment Shipment-16</desc></wpt><wpt lat="51.0152788" lon="3.759904"><name>IbppvpkFlcXO6is0</name><type>Pickup</type><desc>Part of shipment Shipment-15</desc></wpt><wpt lat="51.3307398" lon="3.2111694"><name>lNRf38uFTFtAEpDc</name><type>Unvisited</type><desc>Route engine has not provided an explanation</desc></wpt><wpt lat="51.1096449" lon="3.7094295"><name>bn4sXUJEuxp9IHtS</name><type>Delivery</type><desc>Part of shipment Shipment-16</desc></wpt><wpt lat="51.3263853" lon="4.9608563"><name>Cu9SsMlvCSW4Bi3N</name><type>Delivery</type><desc>Part of shipment Shipment-12</desc></wpt><wpt lat="51.0601934" lon="3.7977281"><name>Start location for vehicle-0</name><type>Vehicle Start</type><desc>Cargo Capacity: [1200, 5500]</desc></wpt><wpt lat="51.3263853" lon="4.9608563"><name>aF0ieYSLeTc1JEVZ</name><type>Pickup</type><desc>Part of shipment Shipment-9</desc></wpt><wpt lat="51.1026232" lon="5.1849366"><name>ZQ86hrDSxGyNCM3K</name><type>Delivery</type><desc>Part of shipment Shipment-3</desc></wpt><wpt lat="51.4036969" lon="4.6507454"><name>GuKKqVVQURpDZcy5</name><type>Unvisited</type><desc>Route engine has not provided an explanation</desc></wpt><wpt lat="51.1815646" lon="2.8001615"><name>k292qLrdRDMJr32F</name><type>Unvisited</type><desc>Route engine has not provided an explanation</desc></wpt><wpt lat="51.0152788" lon="3.759904"><name>IbppvpkFlcXO6is0</name><type>Visit</type><desc>Arrival time: 2024-01-19T08:26:00,Part of shipment Shipment-15</desc></wpt><wpt lat="51.0125599" lon="5.487062"><name>AnIWFsAOMDRxFzny</name><type>Pickup</type><desc>Part of shipment Shipment-18</desc></wpt><wpt lat="51.3307398" lon="3.2111694"><name>lNRf38uFTFtAEpDc</name><type>Delivery</type><desc>Part of shipment Shipment-10</desc></wpt><wpt lat="51.3264619" lon="5.0852879"><name>H35pFrhVa2arUkPx</name><type>Delivery</type><desc>Part of shipment Shipment-0</desc></wpt><wpt lat="51.1815646" lon="2.8001615"><name>OYiKrPgQhxMS4D7R</name><type>Visit</type><desc>Arrival time: 2024-01-19T14:47:00,Part of shipment Shipment-9</desc></wpt><wpt lat="51.1045932" lon="5.5219155"><name>8eeamBS3LppQmSs2</name><type>Delivery</type><desc>Part of shipment Shipment-4</desc></wpt><wpt lat="50.8950743" lon="3.7629254"><name>Start location for vehicle-1</name><type>Vehicle Start</type><desc>Cargo Capacity: [1200, 5500]</desc></wpt><wpt lat="50.840896" lon="4.5593959"><name>KyxnYy3Qt7PDg26B</name><type>Unvisited</type><desc>Route engine has not provided an explanation</desc></wpt><wpt lat="50.930814" lon="5.1170496"><name>IPXvSMP1wNLWpsIT</name><type>Visit</type><desc>Arrival time: 2024-01-19T10:11:00,Part of shipment Shipment-17</desc></wpt><wpt lat="50.840896" lon="4.5593959"><name>KyxnYy3Qt7PDg26B</name><type>Pickup</type><desc>Part of shipment Shipment-13</desc></wpt><wpt lat="51.1815646" lon="2.8001615"><name>OYiKrPgQhxMS4D7R</name><type>Delivery</type><desc>Part of shipment Shipment-9</desc></wpt><wpt lat="51.0152788" lon="3.759904"><name>PwySNjItiTqdHWUU</name><type>Delivery</type><desc>Part of shipment Shipment-5</desc></wpt><wpt lat="50.930814" lon="5.1170496"><name>w5cjI3nBl97cwPUC</name><type>Delivery</type><desc>Part of shipment Shipment-15</desc></wpt><wpt lat="51.1853753" lon="5.1026813"><name>EKZHH5L1kvSPKnw9</name><type>Delivery</type><desc>Part of shipment Shipment-18</desc></wpt><wpt lat="50.9999914" lon="5.5260025"><name>nnW593JVVJjXywN7</name><type>Visit</type><desc>Arrival time: 2024-01-19T11:00:00,Part of shipment Shipment-11</desc></wpt><wpt lat="51.1096449" lon="3.7094295"><name>bn4sXUJEuxp9IHtS</name><type>Unvisited</type><desc>Route engine has not provided an explanation</desc></wpt><wpt lat="51.3605631" lon="4.4533587"><name>g4zTPFEiIZA0Z9j3</name><type>Delivery</type><desc>Part of shipment Shipment-8</desc></wpt><wpt lat="51.0125599" lon="5.487062"><name>dSpKv8KVaCBHhNWF</name><type>Pickup</type><desc>Part of shipment Shipment-2</desc></wpt><wpt lat="51.1045932" lon="5.5219155"><name>cQ2LJWXrXnpJ4LmA</name><type>Pickup</type><desc>Part of shipment Shipment-10</desc></wpt><wpt lat="51.0125599" lon="5.487062"><name>E1NSJUPL9F4tYDo1</name><type>Visit</type><desc>Arrival time: 2024-01-19T10:39:00,Part of shipment Shipment-1</desc></wpt><wpt lat="51.1096449" lon="3.7094295"><name>J6bq9dbcWgWS4FUz</name><type>Delivery</type><desc>Part of shipment Shipment-7</desc></wpt><wpt lat="50.840896" lon="4.5593959"><name>P05dQFYAdDJnObjB</name><type>Unvisited</type><desc>Route engine has not provided an explanation</desc></wpt><wpt lat="51.3263853" lon="4.9608563"><name>Y04Ri7X94TAlqITd</name><type>Unvisited</type><desc>Route engine has not provided an explanation</desc></wpt><wpt lat="51.3264619" lon="5.0852879"><name>H35pFrhVa2arUkPx</name><type>Unvisited</type><desc>Route engine has not provided an explanation</desc></wpt><wpt lat="51.3605631" lon="4.4533587"><name>csGWDjx5wWe8cQY0</name><type>Pickup</type><desc>Part of shipment Shipment-1</desc></wpt><wpt lat="50.840896" lon="4.5593959"><name>njXfTpQ7jAa4gagI</name><type>Pickup</type><desc>Part of shipment Shipment-7</desc></wpt><wpt lat="51.3263853" lon="4.9608563"><name>M59C9dAUWnHRborp</name><type>Delivery</type><desc>Part of shipment Shipment-2</desc></wpt><wpt lat="51.0152788" lon="3.759904"><name>BucHfg477ngzAwwj</name><type>Delivery</type><desc>Part of shipment Shipment-19</desc></wpt><wpt lat="51.3605631" lon="4.4533587"><name>g4zTPFEiIZA0Z9j3</name><type>Unvisited</type><desc>Route engine has not provided an explanation</desc></wpt><wpt lat="51.3263853" lon="4.9608563"><name>flQE5A1OnZiiJSxt</name><type>Unvisited</type><desc>Route engine has not provided an explanation</desc></wpt><wpt lat="50.840896" lon="4.5593959"><name>P05dQFYAdDJnObjB</name><type>Pickup</type><desc>Part of shipment Shipment-5</desc></wpt><wpt lat="51.3263853" lon="4.9608563"><name>M59C9dAUWnHRborp</name><type>Unvisited</type><desc>Route engine has not provided an explanation</desc></wpt><wpt lat="51.1853753" lon="5.1026813"><name>EKZHH5L1kvSPKnw9</name><type>Unvisited</type><desc>Route engine has not provided an explanation</desc></wpt><wpt lat="51.3605631" lon="4.4533587"><name>EM11zgxd8ciLwYsy</name><type>Unvisited</type><desc>Route engine has not provided an explanation</desc></wpt><wpt lat="51.3263853" lon="4.9608563"><name>Cu9SsMlvCSW4Bi3N</name><type>Unvisited</type><desc>Route engine has not provided an explanation</desc></wpt><wpt lat="51.4036969" lon="4.6507454"><name>vNCSIe3i9j906QN4</name><type>Delivery</type><desc>Part of shipment Shipment-17</desc></wpt><wpt lat="51.3263853" lon="4.9608563"><name>flQE5A1OnZiiJSxt</name><type>Pickup</type><desc>Part of shipment Shipment-14</desc></wpt><wpt lat="50.930814" lon="5.1170496"><name>IPXvSMP1wNLWpsIT</name><type>Pickup</type><desc>Part of shipment Shipment-17</desc></wpt></gpx>