<?xml version='1.0' encoding='UTF-8'?><gpx name="Route-1" version="1.1" creator="org.metavrp.gpx"><desc/><rte><name>vehicle-0 2024-01-19</name><rtept lat="51.0509421" lon="4.866149"/><rtept lat="51.1572575" lon="3.2303231"/><rtept lat="51.0934194" lon="4.5585165"/><rtept lat="51.1572575" lon="3.2303231"/><rtept lat="51.2255909" lon="2.9116263"/><rtept lat="50.8832118" lon="4.6920761"/><rtept lat="51.0226596" lon="5.3221365"/><rtept lat="50.9957601" lon="3.3299471"/><rtept lat="51.2243995" lon="4.4195423"/><rtept lat="50.8653576" lon="5.3082956"/><rtept lat="51.0957579" lon="4.4181032"/><rtept lat="50.9602199" lon="5.5045935"/><rtept lat="51.1869467" lon="4.3871964"/><rtept lat="50.9411701" lon="5.2849459"/><rtept lat="51.0402686" lon="3.7015205"/><rtept lat="51.2255909" lon="2.9116263"/><rtept lat="51.257391" lon="5.0006272"/><rtept lat="51.0536786" lon="4.984511"/><rtept lat="50.7819656" lon="2.8367608"/><rtept lat="50.7819656" lon="2.8367608"/><rtept lat="50.9692448" lon="5.6911379"/><rtept lat="50.9973999" lon="4.7817326"/><rtept lat="51.0536786" lon="4.984511"/></rte><wpt lat="51.2571456" lon="2.9923014"><name>oEe0xTWpzYm7oLY8</name><type>Unvisited</type><desc>Route engine has not provided an explanation</desc></wpt><wpt lat="51.38549" lon="4.5023849"><name>AkGF77oAMOC9UMYD</name><type>Unvisited</type><desc>Route engine has not provided an explanation</desc></wpt><wpt lat="50.9175419" lon="3.9328603"><name>gLJHx3KTpxDZwCdd</name><type>Delivery</type><desc>Part of shipment Shipment-40</desc></wpt><wpt lat="51.0957579" lon="4.4181032"><name>hYNksJDXF9yqN7nQ</name><type>Unvisited</type><desc>Route engine has not provided an explanation</desc></wpt><wpt lat="51.1381665" lon="4.6797185"><name>WIGfNjQs9FEbFhTE</name><type>Pickup</type><desc>Part of shipment Shipment-48</desc></wpt><wpt lat="51.2206463" lon="4.452765"><name>YkmEEiZZWTA4GfH8</name><type>Unvisited</type><desc>Route engine has not provided an explanation</desc></wpt><wpt lat="51.2571456" lon="2.9923014"><name>EkrTErLTpibAbiZ3</name><type>Unvisited</type><desc>Route engine has not provided an explanation</desc></wpt><wpt lat="50.9602199" lon="5.5045935"><name>bQut0SVJEtLeh1Ck</name><type>Pickup</type><desc>Part of shipment Shipment-26</desc></wpt><wpt lat="51.2206463" lon="4.452765"><name>SRsZmgF6vgWtIRhy</name><type>Unvisited</type><desc>Route engine has not provided an explanation</desc></wpt><wpt lat="51.0934194" lon="4.5585165"><name>IjWdPcBILdQRK173</name><type>Visit</type><desc>Part of shipment Shipment-8,Arrival time: 2024-01-19T11:27:00</desc></wpt><wpt lat="51.0278758" lon="4.0979325"><name>wBU9S7SdBz8MovuI</name><type>Pickup</type><desc>Part of shipment Shipment-5</desc></wpt><wpt lat="50.9692448" lon="5.6911379"><name>FMUGQxkKnvYJVDSX</name><type>Delivery</type><desc>Part of shipment Shipment-36</desc></wpt><wpt lat="50.7819656" lon="2.8367608"><name>Dd3Bba7gEBMdhpmA</name><type>Visit</type><desc>Arrival time: 2024-01-19T10:32:00,Part of shipment Shipment-14</desc></wpt><wpt lat="51.2243995" lon="4.4195423"><name>G6hQ5OUpnYZ6Gvd6</name><type>Delivery</type><desc>Part of shipment Shipment-33</desc></wpt><wpt lat="51.1381665" lon="4.6797185"><name>cL45LFE0CyNgeHrP</name><type>Unvisited</type><desc>Route engine has not provided an explanation</desc></wpt><wpt lat="51.0226596" lon="5.3221365"><name>3BEnlHhW9m8pgzds</name><type>Pickup</type><desc>Part of shipment Shipment-28</desc></wpt><wpt lat="51.1869467" lon="4.3871964"><name>Rz69KY6TtZHBuwT5</name><type>Unvisited</type><desc>Route engine has not provided an explanation</desc></wpt><wpt lat="51.1381665" lon="4.6797185"><name>cL45LFE0CyNgeHrP</name><type>Delivery</type><desc>Part of shipment Shipment-19</desc></wpt><wpt lat="51.316494" lon="3.1300236"><name>Cj7Bs9I1dZXQJ2io</name><type>Unvisited</type><desc>Route engine has not provided an explanation</desc></wpt><wpt lat="51.0226596" lon="5.3221365"><name>US5CbcrmBS1bYb4E</name><type>Unvisited</type><desc>Route engine has not provided an explanation</desc></wpt><wpt lat="51.2571456" lon="2.9923014"><name>oEe0xTWpzYm7oLY8</name><type>Delivery</type><desc>Part of shipment Shipment-15</desc></wpt><wpt lat="50.9411701" lon="5.2849459"><name>Iw4s4z3zMxWrt0ZU</name><type>Delivery</type><desc>Part of shipment Shipment-31</desc></wpt><wpt lat="50.9957601" lon="3.3299471"><name>GRHeNjMWGmRjk7ER</name><type>Pickup</type><desc>Part of shipment Shipment-33</desc></wpt><wpt lat="51.1869467" lon="4.3871964"><name>FvKIroDeQV3LOzVA</name><type>Pickup</type><desc>Part of shipment Shipment-34</desc></wpt><wpt lat="51.3266707" lon="4.5191617"><name>VQwmyNIcjCg8X222</name><type>Delivery</type><desc>Part of shipment Shipment-0</desc></wpt><wpt lat="51.0226596" lon="5.3221365"><name>NC6PwOVlxROe4yEF</name><type>Delivery</type><desc>Part of shipment Shipment-7</desc></wpt><wpt lat="51.4189616" lon="4.7613041"><name>1R45oIy1gVE7bcza</name><type>Unvisited</type><desc>Route engine has not provided an explanation</desc></wpt><wpt lat="50.9602199" lon="5.5045935"><name>bQut0SVJEtLeh1Ck</name><type>Unvisited</type><desc>Route engine has not provided an explanation</desc></wpt><wpt lat="50.9973999" lon="4.7817326"><name>rpuhTbZHJVagZPbW</name><type>Unvisited</type><desc>Route engine has not provided an explanation</desc></wpt><wpt lat="51.1840197" lon="3.1870196"><name>OTXm63oOg1JTHyFy</name><type>Pickup</type><desc>Part of shipment Shipment-11</desc></wpt><wpt lat="50.8653576" lon="5.3082956"><name>8uHAFc92OKajpETT</name><type>Pickup</type><desc>Part of shipment Shipment-43</desc></wpt><wpt lat="51.2243995" lon="4.4195423"><name>G6hQ5OUpnYZ6Gvd6</name><type>Visit</type><desc>Part of shipment Shipment-33,Arrival time: 2024-01-19T19:53:00</desc></wpt><wpt lat="51.2206463" lon="4.452765"><name>YkmEEiZZWTA4GfH8</name><type>Delivery</type><desc>Part of shipment Shipment-4</desc></wpt><wpt lat="51.0346342" lon="4.5096504"><name>BivCL8rfmZVmwYGw</name><type>Unvisited</type><desc>Route engine has not provided an explanation</desc></wpt><wpt lat="51.0226596" lon="5.3221365"><name>Vrqu6JwzgiQIR8L4</name><type>Visit</type><desc>Arrival time: 2024-01-19T16:21:00,Part of shipment Shipment-9</desc></wpt><wpt lat="51.0892636" lon="4.765865"><name>S6q5anNIxk4Oqgzd</name><type>Delivery</type><desc>Part of shipment Shipment-18</desc></wpt><wpt lat="50.7819656" lon="2.8367608"><name>yZl2xEcuq3yHItJ1</name><type>Visit</type><desc>Part of shipment Shipment-36,Arrival time: 2024-01-19T10:42:00</desc></wpt><wpt lat="50.9973999" lon="4.7817326"><name>rpuhTbZHJVagZPbW</name><type>Delivery</type><desc>Part of shipment Shipment-12</desc></wpt><wpt lat="51.2571456" lon="2.9923014"><name>Q9i15XjdQF8yDzcc</name><type>Delivery</type><desc>Part of shipment Shipment-45</desc></wpt><wpt lat="51.1106856" lon="2.6151361"><name>zOQpTC6fIWzZiySR</name><type>Pickup</type><desc>Part of shipment Shipment-46</desc></wpt><wpt lat="51.316494" lon="3.1300236"><name>Cj7Bs9I1dZXQJ2io</name><type>Delivery</type><desc>Part of shipment Shipment-44</desc></wpt><wpt lat="51.0226596" lon="5.3221365"><name>L3yUICi9IHOiCZ27</name><type>Unvisited</type><desc>Route engine has not provided an explanation</desc></wpt><wpt lat="51.3266707" lon="4.5191617"><name>VQwmyNIcjCg8X222</name><type>Unvisited</type><desc>Route engine has not provided an explanation</desc></wpt><wpt lat="50.8653576" lon="5.3082956"><name>8uHAFc92OKajpETT</name><type>Unvisited</type><desc>Route engine has not provided an explanation</desc></wpt><wpt lat="51.2284623" lon="4.3787936"><name>6ZzGaUDeOPRasVQL</name><type>Unvisited</type><desc>Route engine has not provided an explanation</desc></wpt><wpt lat="50.9411701" lon="5.2849459"><name>PCGMSZJt5LZZln1j</name><type>Pickup</type><desc>Part of shipment Shipment-44</desc></wpt><wpt lat="51.1869467" lon="4.3871964"><name>FvKIroDeQV3LOzVA</name><type>Unvisited</type><desc>Route engine has not provided an explanation</desc></wpt><wpt lat="51.2284623" lon="4.3787936"><name>HxQOaJRPt3Npji6l</name><type>Delivery</type><desc>Part of shipment Shipment-39</desc></wpt><wpt lat="51.0934194" lon="4.5585165"><name>IjWdPcBILdQRK173</name><type>Delivery</type><desc>Part of shipment Shipment-8</desc></wpt><wpt lat="51.0278758" lon="4.0979325"><name>wBU9S7SdBz8MovuI</name><type>Unvisited</type><desc>Route engine has not provided an explanation</desc></wpt><wpt lat="50.9175419" lon="3.9328603"><name>e8rPanhc7WMKKBeI</name><type>Pickup</type><desc>Part of shipment Shipment-31</desc></wpt><wpt lat="51.0892636" lon="4.765865"><name>0Pzf205yjifSW886</name><type>Pickup</type><desc>Part of shipment Shipment-2</desc></wpt><wpt lat="51.1205012" lon="4.5012625"><name>TmyZZ492IKtpGHse</name><type>Pickup</type><desc>Part of shipment Shipment-15</desc></wpt><wpt lat="51.1869467" lon="4.3871964"><name>XVPXFBp8BWQlB0VO</name><type>Pickup</type><desc>Part of shipment Shipment-17</desc></wpt><wpt lat="51.0402686" lon="3.7015205"><name>2c6uMkcGZBOKKpyv</name><type>Visit</type><desc>Part of shipment Shipment-22,Arrival time: 2024-01-19T04:03:00</desc></wpt><wpt lat="51.0171935" lon="3.7624618"><name>5xNSghBrEpIar0eo</name><type>Unvisited</type><desc>Route engine has not provided an explanation</desc></wpt><wpt lat="51.1205012" lon="4.5012625"><name>TmyZZ492IKtpGHse</name><type>Unvisited</type><desc>Route engine has not provided an explanation</desc></wpt><wpt lat="51.2475309" lon="2.9610005"><name>5EnOzeO5JMTmhi5V</name><type>Unvisited</type><desc>Route engine has not provided an explanation</desc></wpt><wpt lat="51.0778501" lon="4.7264147"><name>XY4CNb9dSsytKA82</name><type>Unvisited</type><desc>Route engine has not provided an explanation</desc></wpt><wpt lat="51.1266633" lon="4.3873293"><name>IVEpkQbQRHticWfC</name><type>Delivery</type><desc>Part of shipment Shipment-21</desc></wpt><wpt lat="51.257391" lon="5.0006272"><name>SC1s7UOASrzucz8o</name><type>Visit</type><desc>Part of shipment Shipment-20,Arrival time: 2024-01-19T07:18:00</desc></wpt><wpt lat="51.0957579" lon="4.4181032"><name>4a4B0uSjZIg1nfus</name><type>Delivery</type><desc>Part of shipment Shipment-30</desc></wpt><wpt lat="51.0934194" lon="4.5585165"><name>xS2mdnicdJ4VkfB1</name><type>Unvisited</type><desc>Route engine has not provided an explanation</desc></wpt><wpt lat="51.2255909" lon="2.9116263"><name>87ZGQbtePm1kennq</name><type>Pickup</type><desc>Part of shipment Shipment-47</desc></wpt><wpt lat="51.2255909" lon="2.9116263"><name>6GPV3Hnd8btCYFUA</name><type>Pickup</type><desc>Part of shipment Shipment-20</desc></wpt><wpt lat="50.9045415" lon="3.9274783"><name>GyPcdeN9KWnM3CcV</name><type>Delivery</type><desc>Part of shipment Shipment-28</desc></wpt><wpt lat="51.0418644" lon="4.4795688"><name>x7kpSKDR6A3gUehR</name><type>Unvisited</type><desc>Route engine has not provided an explanation</desc></wpt><wpt lat="50.9175419" lon="3.9328603"><name>gLJHx3KTpxDZwCdd</name><type>Unvisited</type><desc>Route engine has not provided an explanation</desc></wpt><wpt lat="50.9957601" lon="3.3299471"><name>Ikymvum8qsUSr5TI</name><type>Delivery</type><desc>Part of shipment Shipment-37</desc></wpt><wpt lat="51.1205012" lon="4.5012625"><name>AB9O4Hb6Es0nkeFq</name><type>Delivery</type><desc>Part of shipment Shipment-46</desc></wpt><wpt lat="51.257391" lon="5.0006272"><name>QTzRtiTjBFZa1woT</name><type>Delivery</type><desc>Part of shipment Shipment-23</desc></wpt><wpt lat="50.9175419" lon="3.9328603"><name>e8rPanhc7WMKKBeI</name><type>Unvisited</type><desc>Route engine has not provided an explanation</desc></wpt><wpt lat="51.0226596" lon="5.3221365"><name>3BEnlHhW9m8pgzds</name><type>Unvisited</type><desc>Route engine has not provided an explanation</desc></wpt><wpt lat="50.9045415" lon="3.9274783"><name>8ydnZYxzd4dYbswy</name><type>Unvisited</type><desc>Route engine has not provided an explanation</desc></wpt><wpt lat="50.9045415" lon="3.9274783"><name>GyPcdeN9KWnM3CcV</name><type>Unvisited</type><desc>Route engine has not provided an explanation</desc></wpt><wpt lat="51.1869467" lon="4.3871964"><name>Rz69KY6TtZHBuwT5</name><type>Pickup</type><desc>Part of shipment Shipment-29</desc></wpt><wpt lat="51.0226596" lon="5.3221365"><name>US5CbcrmBS1bYb4E</name><type>Pickup</type><desc>Part of shipment Shipment-38</desc></wpt><wpt lat="51.1595017" lon="4.8289143"><name>tfDM4ZzjJisE8VtV</name><type>Delivery</type><desc>Part of shipment Shipment-24</desc></wpt><wpt lat="50.9411701" lon="5.2849459"><name>DLoem3MhfqtbXY9Z</name><type>Unvisited</type><desc>Route engine has not provided an explanation</desc></wpt><wpt lat="51.0892636" lon="4.765865"><name>MP4RVhuA7CnEyN9I</name><type>Unvisited</type><desc>Route engine has not provided an explanation</desc></wpt><wpt lat="51.4189616" lon="4.7613041"><name>1R45oIy1gVE7bcza</name><type>Pickup</type><desc>Part of shipment Shipment-41</desc></wpt><wpt lat="51.4189616" lon="4.7613041"><name>n21IbYf1BjSGiSr7</name><type>Unvisited</type><desc>Route engine has not provided an explanation</desc></wpt><wpt lat="51.0957579" lon="4.4181032"><name>4a4B0uSjZIg1nfus</name><type>Visit</type><desc>Arrival time: 2024-01-19T22:29:00,Part of shipment Shipment-30</desc></wpt><wpt lat="51.0226596" lon="5.3221365"><name>EkTndCBWGYtT1G5M</name><type>Delivery</type><desc>Part of shipment Shipment-26</desc></wpt><wpt lat="51.2475309" lon="2.9610005"><name>Bgxl1nv16IRcbUXq</name><type>Delivery</type><desc>Part of shipment Shipment-17</desc></wpt><wpt lat="51.38549" lon="4.5023849"><name>FnECHcD5P9cb10CB</name><type>Unvisited</type><desc>Route engine has not provided an explanation</desc></wpt><wpt lat="51.1840197" lon="3.1870196"><name>OTXm63oOg1JTHyFy</name><type>Unvisited</type><desc>Route engine has not provided an explanation</desc></wpt><wpt lat="51.0226596" lon="5.3221365"><name>L3yUICi9IHOiCZ27</name><type>Pickup</type><desc>Part of shipment Shipment-6</desc></wpt><wpt lat="51.257391" lon="5.0006272"><name>yeLUm1IBrLumncSi</name><type>Unvisited</type><desc>Route engine has not provided an explanation</desc></wpt><wpt lat="51.1106856" lon="2.6151361"><name>zOQpTC6fIWzZiySR</name><type>Unvisited</type><desc>Route engine has not provided an explanation</desc></wpt><wpt lat="51.0451367" lon="4.4775628"><name>DfXGkzo4rDra9ga2</name><type>Delivery</type><desc>Part of shipment Shipment-13</desc></wpt><wpt lat="51.0536786" lon="4.984511"><name>kDnvBd8tWdV7P5Ey</name><type>Delivery</type><desc>Part of shipment Shipment-1</desc></wpt><wpt lat="51.0536786" lon="4.984511"><name>kDnvBd8tWdV7P5Ey</name><type>Visit</type><desc>Arrival time: 2024-01-19T15:21:00,Part of shipment Shipment-1</desc></wpt><wpt lat="50.8832118" lon="4.6920761"><name>KWlKuAPxHeqJclUH</name><type>Delivery</type><desc>Part of shipment Shipment-47</desc></wpt><wpt lat="50.9602199" lon="5.5045935"><name>QEGFXjrHGcEwBTF1</name><type>Visit</type><desc>Arrival time: 2024-01-19T23:56:00,Part of shipment Shipment-27</desc></wpt><wpt lat="51.1266633" lon="4.3873293"><name>f2iN0v0u8Zsfbqus</name><type>Pickup</type><desc>Part of shipment Shipment-42</desc></wpt><wpt lat="51.0226596" lon="5.3221365"><name>Vrqu6JwzgiQIR8L4</name><type>Delivery</type><desc>Part of shipment Shipment-9</desc></wpt><wpt lat="50.871579" lon="4.1767813"><name>VXaFwDIKMafSQEH5</name><type>Unvisited</type><desc>Route engine has not provided an explanation</desc></wpt><wpt lat="51.0892636" lon="4.765865"><name>S6q5anNIxk4Oqgzd</name><type>Unvisited</type><desc>Route engine has not provided an explanation</desc></wpt><wpt lat="51.257391" lon="5.0006272"><name>QTzRtiTjBFZa1woT</name><type>Unvisited</type><desc>Route engine has not provided an explanation</desc></wpt><wpt lat="51.0536786" lon="4.984511"><name>hEDZyLL1wO2jUTWm</name><type>Visit</type><desc>Arrival time: 2024-01-19T08:03:00,Part of shipment Shipment-14</desc></wpt><wpt lat="51.2243995" lon="4.4195423"><name>xhFXKWIrSgbbFxj6</name><type>Unvisited</type><desc>Route engine has not provided an explanation</desc></wpt><wpt lat="50.7819656" lon="2.8367608"><name>Y1uEpEEC2mtUpBty</name><type>Pickup</type><desc>Part of shipment Shipment-4</desc></wpt><wpt lat="51.1205012" lon="4.5012625"><name>AB9O4Hb6Es0nkeFq</name><type>Unvisited</type><desc>Route engine has not provided an explanation</desc></wpt><wpt lat="51.0892636" lon="4.765865"><name>MP4RVhuA7CnEyN9I</name><type>Delivery</type><desc>Part of shipment Shipment-43</desc></wpt><wpt lat="51.2206463" lon="4.452765"><name>Z8jFaSNNI5cjujA3</name><type>Unvisited</type><desc>Route engine has not provided an explanation</desc></wpt><wpt lat="50.7722295" lon="3.8589414"><name>7o9BHxraYYkohXXx</name><type>Unvisited</type><desc>Route engine has not provided an explanation</desc></wpt><wpt lat="51.1572575" lon="3.2303231"><name>34XwWbGM8kXx7aag</name><type>Pickup</type><desc>Part of shipment Shipment-9</desc></wpt><wpt lat="50.9411701" lon="5.2849459"><name>h9jMPOpcS8H5ALic</name><type>Pickup</type><desc>Part of shipment Shipment-22</desc></wpt><wpt lat="50.9957601" lon="3.3299471"><name>Ikymvum8qsUSr5TI</name><type>Unvisited</type><desc>Route engine has not provided an explanation</desc></wpt><wpt lat="51.0536786" lon="4.984511"><name>hEDZyLL1wO2jUTWm</name><type>Pickup</type><desc>Part of shipment Shipment-14</desc></wpt><wpt lat="51.257391" lon="5.0006272"><name>yeLUm1IBrLumncSi</name><type>Pickup</type><desc>Part of shipment Shipment-45</desc></wpt><wpt lat="51.0418644" lon="4.4795688"><name>x7kpSKDR6A3gUehR</name><type>Pickup</type><desc>Part of shipment Shipment-32</desc></wpt><wpt lat="51.2206463" lon="4.452765"><name>fLQh76UlDGhaYxxb</name><type>Unvisited</type><desc>Route engine has not provided an explanation</desc></wpt><wpt lat="51.1595017" lon="4.8289143"><name>tfDM4ZzjJisE8VtV</name><type>Unvisited</type><desc>Route engine has not provided an explanation</desc></wpt><wpt lat="51.1572575" lon="3.2303231"><name>kjMI1VR8eflC3FQI</name><type>Visit</type><desc>Part of shipment Shipment-8,Arrival time: 2024-01-19T09:44:00</desc></wpt><wpt lat="51.0346342" lon="4.5096504"><name>HZFpYTnz7PNEgm7Y</name><type>Pickup</type><desc>Part of shipment Shipment-12</desc></wpt><wpt lat="51.2255909" lon="2.9116263"><name>87ZGQbtePm1kennq</name><type>Visit</type><desc>Arrival time: 2024-01-19T13:42:00,Part of shipment Shipment-47</desc></wpt><wpt lat="50.8653576" lon="5.3082956"><name>8cTxbKojXD3UCE56</name><type>Pickup</type><desc>Part of shipment Shipment-30</desc></wpt><wpt lat="51.0171935" lon="3.7624618"><name>NxO6oNdqXyIRrSwy</name><type>Delivery</type><desc>Part of shipment Shipment-49</desc></wpt><wpt lat="51.2284623" lon="4.3787936"><name>HxQOaJRPt3Npji6l</name><type>Unvisited</type><desc>Route engine has not provided an explanation</desc></wpt><wpt lat="51.0346342" lon="4.5096504"><name>dIJsj7ZlAqmsHRcU</name><type>Unvisited</type><desc>Route engine has not provided an explanation</desc></wpt><wpt lat="50.9561198" lon="4.2368664"><name>DwdnA82PwJ4EP6Nt</name><type>Unvisited</type><desc>Route engine has not provided an explanation</desc></wpt><wpt lat="51.1869467" lon="4.3871964"><name>dpWv9N2hFVB3QaxI</name><type>Delivery</type><desc>Part of shipment Shipment-27</desc></wpt><wpt lat="51.1787184" lon="4.3698201"><name>KfsLVApOiPU4wGGX</name><type>Unvisited</type><desc>Route engine has not provided an explanation</desc></wpt><wpt lat="51.0509421" lon="4.866149"><name>Start location for vehicle-0</name><type>Vehicle Start</type><desc>Cargo Capacity: [1200, 5500]</desc></wpt><wpt lat="51.2284623" lon="4.3787936"><name>6ZzGaUDeOPRasVQL</name><type>Pickup</type><desc>Part of shipment Shipment-40</desc></wpt><wpt lat="51.2475309" lon="2.9610005"><name>Bgxl1nv16IRcbUXq</name><type>Unvisited</type><desc>Route engine has not provided an explanation</desc></wpt><wpt lat="51.257391" lon="5.0006272"><name>SC1s7UOASrzucz8o</name><type>Delivery</type><desc>Part of shipment Shipment-20</desc></wpt><wpt lat="50.871579" lon="4.1767813"><name>fWHgvDSDZDzlbo1J</name><type>Unvisited</type><desc>Route engine has not provided an explanation</desc></wpt><wpt lat="51.0226596" lon="5.3221365"><name>EkTndCBWGYtT1G5M</name><type>Unvisited</type><desc>Route engine has not provided an explanation</desc></wpt><wpt lat="50.9561198" lon="4.2368664"><name>DwdnA82PwJ4EP6Nt</name><type>Delivery</type><desc>Part of shipment Shipment-32</desc></wpt><wpt lat="50.871579" lon="4.1767813"><name>fWHgvDSDZDzlbo1J</name><type>Delivery</type><desc>Part of shipment Shipment-38</desc></wpt><wpt lat="51.2255909" lon="2.9116263"><name>6GPV3Hnd8btCYFUA</name><type>Visit</type><desc>Arrival time: 2024-01-19T05:04:00,Part of shipment Shipment-20</desc></wpt><wpt lat="51.2037525" lon="4.4182219"><name>BjvA0MkzPt84uQvX</name><type>Pickup</type><desc>Part of shipment Shipment-25</desc></wpt><wpt lat="51.2284623" lon="4.3787936"><name>XdaN0UHIbEqMkQ1Y</name><type>Pickup</type><desc>Part of shipment Shipment-35</desc></wpt><wpt lat="51.1572575" lon="3.2303231"><name>34XwWbGM8kXx7aag</name><type>Visit</type><desc>Arrival time: 2024-01-19T13:08:00,Part of shipment Shipment-9</desc></wpt><wpt lat="50.7819656" lon="2.8367608"><name>Y1uEpEEC2mtUpBty</name><type>Unvisited</type><desc>Route engine has not provided an explanation</desc></wpt><wpt lat="51.0957579" lon="4.4181032"><name>hYNksJDXF9yqN7nQ</name><type>Delivery</type><desc>Part of shipment Shipment-48</desc></wpt><wpt lat="51.38549" lon="4.5023849"><name>FnECHcD5P9cb10CB</name><type>Delivery</type><desc>Part of shipment Shipment-11</desc></wpt><wpt lat="51.4189616" lon="4.7613041"><name>LWCrVNGs2ILZ3T5Q</name><type>Pickup</type><desc>Part of shipment Shipment-0</desc></wpt><wpt lat="51.2206463" lon="4.452765"><name>fLQh76UlDGhaYxxb</name><type>Pickup</type><desc>Part of shipment Shipment-16</desc></wpt><wpt lat="51.0402686" lon="3.7015205"><name>xyM6wgr95Hv4jJiM</name><type>Delivery</type><desc>Part of shipment Shipment-6</desc></wpt><wpt lat="51.0892636" lon="4.765865"><name>0Pzf205yjifSW886</name><type>Unvisited</type><desc>Route engine has not provided an explanation</desc></wpt><wpt lat="51.0226596" lon="5.3221365"><name>NC6PwOVlxROe4yEF</name><type>Unvisited</type><desc>Route engine has not provided an explanation</desc></wpt><wpt lat="51.2284623" lon="4.3787936"><name>XdaN0UHIbEqMkQ1Y</name><type>Unvisited</type><desc>Route engine has not provided an explanation</desc></wpt><wpt lat="51.0402686" lon="3.7015205"><name>xyM6wgr95Hv4jJiM</name><type>Unvisited</type><desc>Route engine has not provided an explanation</desc></wpt><wpt lat="51.0402686" lon="3.7015205"><name>2c6uMkcGZBOKKpyv</name><type>Delivery</type><desc>Part of shipment Shipment-22</desc></wpt><wpt lat="51.1381665" lon="4.6797185"><name>WIGfNjQs9FEbFhTE</name><type>Unvisited</type><desc>Route engine has not provided an explanation</desc></wpt><wpt lat="50.9957601" lon="3.3299471"><name>GRHeNjMWGmRjk7ER</name><type>Visit</type><desc>Arrival time: 2024-01-19T18:28:00,Part of shipment Shipment-33</desc></wpt><wpt lat="51.1787184" lon="4.3698201"><name>vBZ1BJi2THzJM4JW</name><type>Pickup</type><desc>Part of shipment Shipment-49</desc></wpt><wpt lat="51.0346342" lon="4.5096504"><name>dIJsj7ZlAqmsHRcU</name><type>Delivery</type><desc>Part of shipment Shipment-3</desc></wpt><wpt lat="51.1572575" lon="3.2303231"><name>kjMI1VR8eflC3FQI</name><type>Pickup</type><desc>Part of shipment Shipment-8</desc></wpt><wpt lat="50.9172771" lon="5.3436731"><name>zu8eCIN2GmKx7AYf</name><type>Pickup</type><desc>Part of shipment Shipment-37</desc></wpt><wpt lat="50.9602199" lon="5.5045935"><name>QEGFXjrHGcEwBTF1</name><type>Pickup</type><desc>Part of shipment Shipment-27</desc></wpt><wpt lat="51.2475309" lon="2.9610005"><name>5EnOzeO5JMTmhi5V</name><type>Pickup</type><desc>Part of shipment Shipment-10</desc></wpt><wpt lat="51.38549" lon="4.5023849"><name>mGSqyFfu5Ocnf4zK</name><type>Unvisited</type><desc>Route engine has not provided an explanation</desc></wpt><wpt lat="51.38549" lon="4.5023849"><name>AkGF77oAMOC9UMYD</name><type>Delivery</type><desc>Part of shipment Shipment-42</desc></wpt><wpt lat="50.9175419" lon="3.9328603"><name>i1PBUnUECT2oMvHr</name><type>Unvisited</type><desc>Route engine has not provided an explanation</desc></wpt><wpt lat="51.0346342" lon="4.5096504"><name>BivCL8rfmZVmwYGw</name><type>Pickup</type><desc>Part of shipment Shipment-19</desc></wpt><wpt lat="50.7722295" lon="3.8589414"><name>7o9BHxraYYkohXXx</name><type>Pickup</type><desc>Part of shipment Shipment-3</desc></wpt><wpt lat="50.871579" lon="4.1767813"><name>VXaFwDIKMafSQEH5</name><type>Pickup</type><desc>Part of shipment Shipment-39</desc></wpt><wpt lat="51.1869467" lon="4.3871964"><name>dpWv9N2hFVB3QaxI</name><type>Visit</type><desc>Arrival time: 2024-01-19T01:13:00,Part of shipment Shipment-27</desc></wpt><wpt lat="50.8832118" lon="4.6920761"><name>KWlKuAPxHeqJclUH</name><type>Visit</type><desc>Arrival time: 2024-01-19T15:31:00,Part of shipment Shipment-47</desc></wpt><wpt lat="50.9561198" lon="4.2368664"><name>X5KqVxRS8bYrGqWu</name><type>Unvisited</type><desc>Route engine has not provided an explanation</desc></wpt><wpt lat="51.2571456" lon="2.9923014"><name>Q9i15XjdQF8yDzcc</name><type>Unvisited</type><desc>Route engine has not provided an explanation</desc></wpt><wpt lat="50.9411701" lon="5.2849459"><name>DLoem3MhfqtbXY9Z</name><type>Delivery</type><desc>Part of shipment Shipment-25</desc></wpt><wpt lat="51.4189616" lon="4.7613041"><name>YbIx1OmFnte3VJdZ</name><type>Pickup</type><desc>Part of shipment Shipment-13</desc></wpt><wpt lat="50.9172771" lon="5.3436731"><name>zu8eCIN2GmKx7AYf</name><type>Unvisited</type><desc>Route engine has not provided an explanation</desc></wpt><wpt lat="50.9973999" lon="4.7817326"><name>z20L5W59KkLidLYj</name><type>Pickup</type><desc>Part of shipment Shipment-1</desc></wpt><wpt lat="50.9175419" lon="3.9328603"><name>i1PBUnUECT2oMvHr</name><type>Delivery</type><desc>Part of shipment Shipment-29</desc></wpt><wpt lat="51.4189616" lon="4.7613041"><name>YbIx1OmFnte3VJdZ</name><type>Unvisited</type><desc>Route engine has not provided an explanation</desc></wpt><wpt lat="50.7819656" lon="2.8367608"><name>Dd3Bba7gEBMdhpmA</name><type>Delivery</type><desc>Part of shipment Shipment-14</desc></wpt><wpt lat="51.38549" lon="4.5023849"><name>mGSqyFfu5Ocnf4zK</name><type>Delivery</type><desc>Part of shipment Shipment-35</desc></wpt><wpt lat="50.8653576" lon="5.3082956"><name>8cTxbKojXD3UCE56</name><type>Visit</type><desc>Arrival time: 2024-01-19T21:06:00,Part of shipment Shipment-30</desc></wpt><wpt lat="51.4189616" lon="4.7613041"><name>LWCrVNGs2ILZ3T5Q</name><type>Unvisited</type><desc>Route engine has not provided an explanation</desc></wpt><wpt lat="51.2206463" lon="4.452765"><name>Z8jFaSNNI5cjujA3</name><type>Delivery</type><desc>Part of shipment Shipment-10</desc></wpt><wpt lat="51.4189616" lon="4.7613041"><name>n21IbYf1BjSGiSr7</name><type>Delivery</type><desc>Part of shipment Shipment-2</desc></wpt><wpt lat="51.1787184" lon="4.3698201"><name>KfsLVApOiPU4wGGX</name><type>Delivery</type><desc>Part of shipment Shipment-5</desc></wpt><wpt lat="51.1266633" lon="4.3873293"><name>f2iN0v0u8Zsfbqus</name><type>Unvisited</type><desc>Route engine has not provided an explanation</desc></wpt><wpt lat="50.9411701" lon="5.2849459"><name>h9jMPOpcS8H5ALic</name><type>Visit</type><desc>Arrival time: 2024-01-19T02:17:00,Part of shipment Shipment-22</desc></wpt><wpt lat="51.0451367" lon="4.4775628"><name>DfXGkzo4rDra9ga2</name><type>Unvisited</type><desc>Route engine has not provided an explanation</desc></wpt><wpt lat="51.1869467" lon="4.3871964"><name>XVPXFBp8BWQlB0VO</name><type>Unvisited</type><desc>Route engine has not provided an explanation</desc></wpt><wpt lat="50.9411701" lon="5.2849459"><name>Iw4s4z3zMxWrt0ZU</name><type>Unvisited</type><desc>Route engine has not provided an explanation</desc></wpt><wpt lat="51.1266633" lon="4.3873293"><name>IVEpkQbQRHticWfC</name><type>Unvisited</type><desc>Route engine has not provided an explanation</desc></wpt><wpt lat="50.9045415" lon="3.9274783"><name>8ydnZYxzd4dYbswy</name><type>Delivery</type><desc>Part of shipment Shipment-34</desc></wpt><wpt lat="51.1787184" lon="4.3698201"><name>vBZ1BJi2THzJM4JW</name><type>Unvisited</type><desc>Route engine has not provided an explanation</desc></wpt><wpt lat="50.9973999" lon="4.7817326"><name>z20L5W59KkLidLYj</name><type>Visit</type><desc>Part of shipment Shipment-1,Arrival time: 2024-01-19T14:40:00</desc></wpt><wpt lat="51.2037525" lon="4.4182219"><name>BjvA0MkzPt84uQvX</name><type>Unvisited</type><desc>Route engine has not provided an explanation</desc></wpt><wpt lat="50.9561198" lon="4.2368664"><name>X5KqVxRS8bYrGqWu</name><type>Delivery</type><desc>Part of shipment Shipment-16</desc></wpt><wpt lat="51.0934194" lon="4.5585165"><name>xS2mdnicdJ4VkfB1</name><type>Pickup</type><desc>Part of shipment Shipment-18</desc></wpt><wpt lat="51.0346342" lon="4.5096504"><name>HZFpYTnz7PNEgm7Y</name><type>Unvisited</type><desc>Route engine has not provided an explanation</desc></wpt><wpt lat="51.0778501" lon="4.7264147"><name>XY4CNb9dSsytKA82</name><type>Pickup</type><desc>Part of shipment Shipment-21</desc></wpt><wpt lat="51.2206463" lon="4.452765"><name>SRsZmgF6vgWtIRhy</name><type>Pickup</type><desc>Part of shipment Shipment-23</desc></wpt><wpt lat="50.9692448" lon="5.6911379"><name>FMUGQxkKnvYJVDSX</name><type>Visit</type><desc>Arrival time: 2024-01-19T13:37:00,Part of shipment Shipment-36</desc></wpt><wpt lat="51.2243995" lon="4.4195423"><name>xhFXKWIrSgbbFxj6</name><type>Pickup</type><desc>Part of shipment Shipment-24</desc></wpt><wpt lat="51.0171935" lon="3.7624618"><name>5xNSghBrEpIar0eo</name><type>Pickup</type><desc>Part of shipment Shipment-7</desc></wpt><wpt lat="50.9411701" lon="5.2849459"><name>PCGMSZJt5LZZln1j</name><type>Unvisited</type><desc>Route engine has not provided an explanation</desc></wpt><wpt lat="51.0171935" lon="3.7624618"><name>NxO6oNdqXyIRrSwy</name><type>Unvisited</type><desc>Route engine has not provided an explanation</desc></wpt><wpt lat="51.2571456" lon="2.9923014"><name>EkrTErLTpibAbiZ3</name><type>Delivery</type><desc>Part of shipment Shipment-41</desc></wpt><wpt lat="50.7819656" lon="2.8367608"><name>yZl2xEcuq3yHItJ1</name><type>Pickup</type><desc>Part of shipment Shipment-36</desc></wpt></gpx>