<?xml version='1.0' encoding='UTF-8'?><gpx name="Route-1" version="1.1" creator="org.metavrp.gpx"><desc/><rte><name>vehicle-0 2024-01-19</name><rtept lat="50.8654727" lon="4.2866618"/><rtept lat="50.8131728" lon="4.3625085"/><rtept lat="50.8650819" lon="4.3096886"/></rte><rte><name>vehicle-1 2024-01-19</name><rtept lat="50.7849901" lon="4.3775008"/><rtept lat="50.8047233" lon="4.4124749"/><rtept lat="50.8430642" lon="4.3049453"/></rte><rte><name>vehicle-3 2024-01-19</name><rtept lat="50.8766563" lon="4.3801194"/><rtept lat="50.8088613" lon="4.4041505"/><rtept lat="50.8929119" lon="4.3278754"/></rte><rte><name>vehicle-2 2024-01-19</name><rtept lat="50.8508298" lon="4.3765342"/><rtept lat="50.8603859" lon="4.3699029"/><rtept lat="50.8541113" lon="4.36915"/></rte><wpt lat="50.8334228" lon="4.4392744"><name>3D9arUpcsAVRYeyp</name><type>Unvisited</type><desc>Route engine has not provided an explanation</desc></wpt><wpt lat="50.8471429" lon="4.417854"><name>E5z7XEruGdXAq0iZ</name><type>Pickup</type><desc>Part of shipment Shipment-18</desc></wpt><wpt lat="50.8047233" lon="4.4124749"><name>nKi7QEtKaF6BhQaC</name><type>Delivery</type><desc>Part of shipment Shipment-10</desc></wpt><wpt lat="50.8088613" lon="4.4041505"><name>D1SWTAtAVlGN6k7M</name><type>Unvisited</type><desc>Route engine has not provided an explanation</desc></wpt><wpt lat="50.8047233" lon="4.4124749"><name>nKi7QEtKaF6BhQaC</name><type>Unvisited</type><desc>Route engine has not provided an explanation</desc></wpt><wpt lat="50.8334228" lon="4.4392744"><name>BYEsBIJmemcSm7HH</name><type>Unvisited</type><desc>Route engine has not provided an explanation</desc></wpt><wpt lat="50.8131728" lon="4.3625085"><name>qyCn1jmyc6ulTwQM</name><type>Visit</type><desc>Arrival time: 2024-01-19T08:24:00,Part of shipment Shipment-1</desc></wpt><wpt lat="50.8430642" lon="4.3049453"><name>0PKm9TAAgz1ag2fl</name><type>Unvisited</type><desc>Route engine has not provided an explanation</desc></wpt><wpt lat="50.8088613" lon="4.4041505"><name>D1SWTAtAVlGN6k7M</name><type>Delivery</type><desc>Part of shipment Shipment-5</desc></wpt><wpt lat="50.8569057" lon="4.3506017"><name>jVK8cy9PsxCHwwUu</name><type>Unvisited</type><desc>Route engine has not provided an explanation</desc></wpt><wpt lat="50.7849901" lon="4.3775008"><name>Start location for vehicle-1</name><type>Vehicle Start</type><desc>Cargo Capacity: [1200, 5500]</desc></wpt><wpt lat="50.8088613" lon="4.4041505"><name>nVBJ1H26ZlBg4BwX</name><type>Delivery</type><desc>Part of shipment Shipment-3</desc></wpt><wpt lat="50.8047233" lon="4.4124749"><name>OFRefbEFnO2Wtfyz</name><type>Unvisited</type><desc>Route engine has not provided an explanation</desc></wpt><wpt lat="50.8430642" lon="4.3049453"><name>jsUWF1HmG70upsQM</name><type>Unvisited</type><desc>Route engine has not provided an explanation</desc></wpt><wpt lat="50.8650819" lon="4.3096886"><name>2N22h05OHs7Dgt0F</name><type>Visit</type><desc>Arrival time: 2024-01-19T08:54:00,Part of shipment Shipment-1</desc></wpt><wpt lat="50.8088613" lon="4.4041505"><name>58LnQasCWUWSb4bA</name><type>Pickup</type><desc>Part of shipment Shipment-4</desc></wpt><wpt lat="50.8538416" lon="4.3713228"><name>3awZNOU996VLouSD</name><type>Delivery</type><desc>Part of shipment Shipment-17</desc></wpt><wpt lat="50.8654727" lon="4.2866618"><name>Start location for vehicle-0</name><type>Vehicle Start</type><desc>Cargo Capacity: [1200, 5500]</desc></wpt><wpt lat="50.8650819" lon="4.3096886"><name>2N22h05OHs7Dgt0F</name><type>Delivery</type><desc>Part of shipment Shipment-1</desc></wpt><wpt lat="50.8929119" lon="4.3278754"><name>FvkSnKcckIOJ9ito</name><type>Delivery</type><desc>Part of shipment Shipment-4</desc></wpt><wpt lat="50.8334228" lon="4.4392744"><name>dfptOoa7FP8aVJ9V</name><type>Delivery</type><desc>Part of shipment Shipment-11</desc></wpt><wpt lat="50.8541113" lon="4.36915"><name>ickJzLpFrhpQfEvR</name><type>Delivery</type><desc>Part of shipment Shipment-2</desc></wpt><wpt lat="50.8471429" lon="4.417854"><name>FZpI2M5zsPp1CHM7</name><type>Unvisited</type><desc>Route engine has not provided an explanation</desc></wpt><wpt lat="50.8929119" lon="4.3278754"><name>VqQEGkvbGerM3xKq</name><type>Delivery</type><desc>Part of shipment Shipment-8</desc></wpt><wpt lat="50.8047233" lon="4.4124749"><name>2IBPy6P625syXuLz</name><type>Pickup</type><desc>Part of shipment Shipment-8</desc></wpt><wpt lat="50.8088613" lon="4.4041505"><name>nVBJ1H26ZlBg4BwX</name><type>Unvisited</type><desc>Route engine has not provided an explanation</desc></wpt><wpt lat="50.8603859" lon="4.3699029"><name>N1C9FmePLHEP0LR6</name><type>Pickup</type><desc>Part of shipment Shipment-14</desc></wpt><wpt lat="50.8541113" lon="4.36915"><name>VZSPE6jct66s7P7C</name><type>Unvisited</type><desc>Route engine has not provided an explanation</desc></wpt><wpt lat="50.8569057" lon="4.3506017"><name>jVK8cy9PsxCHwwUu</name><type>Delivery</type><desc>Part of shipment Shipment-0</desc></wpt><wpt lat="50.8650819" lon="4.3096886"><name>aYjYddSlLyG81aYF</name><type>Unvisited</type><desc>Route engine has not provided an explanation</desc></wpt><wpt lat="50.8650819" lon="4.3096886"><name>PLl2eA6PpGy4mUfK</name><type>Pickup</type><desc>Part of shipment Shipment-2</desc></wpt><wpt lat="50.8603859" lon="4.3699029"><name>Nc8qIS9rpXrGN022</name><type>Unvisited</type><desc>Route engine has not provided an explanation</desc></wpt><wpt lat="50.8334228" lon="4.4392744"><name>6opgik7eIX3ykpFS</name><type>Pickup</type><desc>Part of shipment Shipment-19</desc></wpt><wpt lat="50.8124356" lon="4.4143268"><name>pQTo9ukfeBGyNxjT</name><type>Delivery</type><desc>Part of shipment Shipment-19</desc></wpt><wpt lat="50.8603859" lon="4.3699029"><name>UMRf9cvLNKN6tpXa</name><type>Pickup</type><desc>Part of shipment Shipment-12</desc></wpt><wpt lat="50.8430642" lon="4.3049453"><name>21LXAN3HZYq7zW3h</name><type>Unvisited</type><desc>Route engine has not provided an explanation</desc></wpt><wpt lat="50.8929119" lon="4.3278754"><name>VqQEGkvbGerM3xKq</name><type>Unvisited</type><desc>Route engine has not provided an explanation</desc></wpt><wpt lat="50.8088613" lon="4.4041505"><name>GSHql42KRgZ3uqSy</name><type>Unvisited</type><desc>Route engine has not provided an explanation</desc></wpt><wpt lat="50.8131728" lon="4.3625085"><name>qyCn1jmyc6ulTwQM</name><type>Pickup</type><desc>Part of shipment Shipment-1</desc></wpt><wpt lat="50.8541113" lon="4.36915"><name>jtgDPOwBgMnkMdA3</name><type>Visit</type><desc>Arrival time: 2024-01-19T08:21:00,Part of shipment Shipment-12</desc></wpt><wpt lat="50.8538416" lon="4.3713228"><name>3awZNOU996VLouSD</name><type>Unvisited</type><desc>Route engine has not provided an explanation</desc></wpt><wpt lat="50.8430642" lon="4.3049453"><name>0PKm9TAAgz1ag2fl</name><type>Delivery</type><desc>Part of shipment Shipment-9</desc></wpt><wpt lat="50.8373735" lon="4.4121509"><name>XqEYtriShRuR1ad4</name><type>Delivery</type><desc>Part of shipment Shipment-18</desc></wpt><wpt lat="50.8047233" lon="4.4124749"><name>wCjS6WPDPp2jQ9uf</name><type>Visit</type><desc>Arrival time: 2024-01-19T08:15:00,Part of shipment Shipment-15</desc></wpt><wpt lat="50.8650819" lon="4.3096886"><name>aYjYddSlLyG81aYF</name><type>Delivery</type><desc>Part of shipment Shipment-14</desc></wpt><wpt lat="50.8471429" lon="4.417854"><name>FZpI2M5zsPp1CHM7</name><type>Pickup</type><desc>Part of shipment Shipment-17</desc></wpt><wpt lat="50.8650819" lon="4.3096886"><name>PLl2eA6PpGy4mUfK</name><type>Unvisited</type><desc>Route engine has not provided an explanation</desc></wpt><wpt lat="50.8088613" lon="4.4041505"><name>58LnQasCWUWSb4bA</name><type>Visit</type><desc>Arrival time: 2024-01-19T08:21:00,Part of shipment Shipment-4</desc></wpt><wpt lat="50.8334228" lon="4.4392744"><name>3D9arUpcsAVRYeyp</name><type>Delivery</type><desc>Part of shipment Shipment-7</desc></wpt><wpt lat="50.8373735" lon="4.4121509"><name>XqEYtriShRuR1ad4</name><type>Unvisited</type><desc>Route engine has not provided an explanation</desc></wpt><wpt lat="50.8650819" lon="4.3096886"><name>ZwLn6gIF4ygYUwzZ</name><type>Unvisited</type><desc>Route engine has not provided an explanation</desc></wpt><wpt lat="50.8603859" lon="4.3699029"><name>Nc8qIS9rpXrGN022</name><type>Pickup</type><desc>Part of shipment Shipment-10</desc></wpt><wpt lat="50.8603859" lon="4.3699029"><name>UMRf9cvLNKN6tpXa</name><type>Visit</type><desc>Arrival time: 2024-01-19T08:06:00,Part of shipment Shipment-12</desc></wpt><wpt lat="50.8334228" lon="4.4392744"><name>6opgik7eIX3ykpFS</name><type>Unvisited</type><desc>Route engine has not provided an explanation</desc></wpt><wpt lat="50.8541113" lon="4.36915"><name>VZSPE6jct66s7P7C</name><type>Pickup</type><desc>Part of shipment Shipment-16</desc></wpt><wpt lat="50.8766563" lon="4.3801194"><name>Start location for vehicle-3</name><type>Vehicle Start</type><desc>Cargo Capacity: [1200, 5500]</desc></wpt><wpt lat="50.8929119" lon="4.3278754"><name>ajHKsc8A7biYARen</name><type>Pickup</type><desc>Part of shipment Shipment-11</desc></wpt><wpt lat="50.8047233" lon="4.4124749"><name>N9T7jPSb4UQIggjN</name><type>Pickup</type><desc>Part of shipment Shipment-0</desc></wpt><wpt lat="50.8334228" lon="4.4392744"><name>dfptOoa7FP8aVJ9V</name><type>Unvisited</type><desc>Route engine has not provided an explanation</desc></wpt><wpt lat="50.8047233" lon="4.4124749"><name>2IBPy6P625syXuLz</name><type>Unvisited</type><desc>Route engine has not provided an explanation</desc></wpt><wpt lat="50.8088613" lon="4.4041505"><name>MeiJfMlLRdWWVkhE</name><type>Pickup</type><desc>Part of shipment Shipment-9</desc></wpt><wpt lat="50.8430642" lon="4.3049453"><name>UrYJyBqSNBTKVJFF</name><type>Visit</type><desc>Arrival time: 2024-01-19T08:55:00,Part of shipment Shipment-15</desc></wpt><wpt lat="50.8430642" lon="4.3049453"><name>21LXAN3HZYq7zW3h</name><type>Pickup</type><desc>Part of shipment Shipment-3</desc></wpt><wpt lat="50.8541113" lon="4.36915"><name>jtgDPOwBgMnkMdA3</name><type>Delivery</type><desc>Part of shipment Shipment-12</desc></wpt><wpt lat="50.8088613" lon="4.4041505"><name>GSHql42KRgZ3uqSy</name><type>Pickup</type><desc>Part of shipment Shipment-13</desc></wpt><wpt lat="50.8603859" lon="4.3699029"><name>N1C9FmePLHEP0LR6</name><type>Unvisited</type><desc>Route engine has not provided an explanation</desc></wpt><wpt lat="50.8047233" lon="4.4124749"><name>N9T7jPSb4UQIggjN</name><type>Unvisited</type><desc>Route engine has not provided an explanation</desc></wpt><wpt lat="50.8471429" lon="4.417854"><name>E5z7XEruGdXAq0iZ</name><type>Unvisited</type><desc>Route engine has not provided an explanation</desc></wpt><wpt lat="50.8334228" lon="4.4392744"><name>BYEsBIJmemcSm7HH</name><type>Pickup</type><desc>Part of shipment Shipment-5</desc></wpt><wpt lat="50.8430642" lon="4.3049453"><name>UrYJyBqSNBTKVJFF</name><type>Delivery</type><desc>Part of shipment Shipment-15</desc></wpt><wpt lat="50.8124356" lon="4.4143268"><name>D7LLAQPImKgMvxOP</name><type>Unvisited</type><desc>Route engine has not provided an explanation</desc></wpt><wpt lat="50.8929119" lon="4.3278754"><name>ajHKsc8A7biYARen</name><type>Unvisited</type><desc>Route engine has not provided an explanation</desc></wpt><wpt lat="50.8508298" lon="4.3765342"><name>Start location for vehicle-2</name><type>Vehicle Start</type><desc>Cargo Capacity: [1200, 5500]</desc></wpt><wpt lat="50.8430642" lon="4.3049453"><name>jsUWF1HmG70upsQM</name><type>Delivery</type><desc>Part of shipment Shipment-16</desc></wpt><wpt lat="50.8124356" lon="4.4143268"><name>D7LLAQPImKgMvxOP</name><type>Delivery</type><desc>Part of shipment Shipment-13</desc></wpt><wpt lat="50.8929119" lon="4.3278754"><name>FvkSnKcckIOJ9ito</name><type>Visit</type><desc>Part of shipment Shipment-4,Arrival time: 2024-01-19T09:00:00</desc></wpt><wpt lat="50.8650819" lon="4.3096886"><name>ZwLn6gIF4ygYUwzZ</name><type>Pickup</type><desc>Part of shipment Shipment-7</desc></wpt><wpt lat="50.8541113" lon="4.36915"><name>ickJzLpFrhpQfEvR</name><type>Unvisited</type><desc>Route engine has not provided an explanation</desc></wpt><wpt lat="50.8650819" lon="4.3096886"><name>FyuJaL8g6MHG24Y3</name><type>Delivery</type><desc>Part of shipment Shipment-6</desc></wpt><wpt lat="50.8047233" lon="4.4124749"><name>OFRefbEFnO2Wtfyz</name><type>Pickup</type><desc>Part of shipment Shipment-6</desc></wpt><wpt lat="50.8088613" lon="4.4041505"><name>MeiJfMlLRdWWVkhE</name><type>Unvisited</type><desc>Route engine has not provided an explanation</desc></wpt><wpt lat="50.8047233" lon="4.4124749"><name>wCjS6WPDPp2jQ9uf</name><type>Pickup</type><desc>Part of shipment Shipment-15</desc></wpt><wpt lat="50.8650819" lon="4.3096886"><name>FyuJaL8g6MHG24Y3</name><type>Unvisited</type><desc>Route engine has not provided an explanation</desc></wpt><wpt lat="50.8124356" lon="4.4143268"><name>pQTo9ukfeBGyNxjT</name><type>Unvisited</type><desc>Route engine has not provided an explanation</desc></wpt></gpx>