<?xml version='1.0' encoding='UTF-8'?><gpx name="Route-1" version="1.1" creator="org.metavrp.gpx"><desc/><rte><name>vehicle-0 2024-01-19</name><rtept lat="50.8309795" lon="4.3478008"/><rtept lat="50.8611769" lon="4.3736527"/><rtept lat="50.8940181" lon="4.3295801"/><rtept lat="50.8033515" lon="4.3347471"/><rtept lat="50.8033515" lon="4.3347471"/><rtept lat="50.794384" lon="4.3563267"/><rtept lat="50.7966518" lon="4.4092617"/><rtept lat="50.7977472" lon="4.412823"/><rtept lat="50.8232692" lon="4.4113996"/><rtept lat="50.8232692" lon="4.4113996"/><rtept lat="50.8232692" lon="4.4113996"/><rtept lat="50.8269339" lon="4.3899001"/><rtept lat="50.8259199" lon="4.3762317"/><rtept lat="50.8206691" lon="4.3845753"/><rtept lat="50.8176935" lon="4.3849007"/><rtept lat="50.8209845" lon="4.3585765"/><rtept lat="50.8206962" lon="4.3526729"/><rtept lat="50.8279309" lon="4.3420679"/><rtept lat="50.8683234" lon="4.2881768"/><rtept lat="50.8442225" lon="4.3589268"/><rtept lat="50.8611769" lon="4.3736527"/><rtept lat="50.8549164" lon="4.33748"/><rtept lat="50.8444445" lon="4.3148399"/><rtept lat="50.8427269" lon="4.3973046"/><rtept lat="50.8517794" lon="4.3971682"/><rtept lat="50.8176935" lon="4.3849007"/><rtept lat="50.8033515" lon="4.3347471"/><rtept lat="50.8122571" lon="4.3251917"/><rtept lat="50.8122571" lon="4.3251917"/><rtept lat="50.8250343" lon="4.3344337"/><rtept lat="50.8250343" lon="4.3344337"/><rtept lat="50.8309795" lon="4.3478008"/><rtept lat="50.8309795" lon="4.3478008"/><rtept lat="50.8309795" lon="4.3478008"/></rte><rte><name>vehicle-1 2024-01-19</name><rtept lat="50.8985156" lon="4.4223578"/><rtept lat="50.8985156" lon="4.4223578"/><rtept lat="50.8887536" lon="4.4210958"/><rtept lat="50.8825698" lon="4.3456896"/><rtept lat="50.8825698" lon="4.3456896"/><rtept lat="50.8781709" lon="4.3331311"/><rtept lat="50.8465842" lon="4.2981391"/><rtept lat="50.8122571" lon="4.3251917"/><rtept lat="50.8427269" lon="4.3973046"/><rtept lat="50.8232692" lon="4.4113996"/><rtept lat="50.8232692" lon="4.4113996"/><rtept lat="50.8482669" lon="4.3514285"/><rtept lat="50.8482669" lon="4.3514285"/><rtept lat="50.8729995" lon="4.3257756"/><rtept lat="50.8729995" lon="4.3257756"/><rtept lat="50.866023" lon="4.30419"/><rtept lat="50.8683234" lon="4.2881768"/><rtept lat="50.8729995" lon="4.3257756"/><rtept lat="50.8611769" lon="4.3736527"/><rtept lat="50.848499" lon="4.3941416"/><rtept lat="50.8416329" lon="4.3833901"/><rtept lat="50.8184398" lon="4.4163762"/><rtept lat="50.8145915" lon="4.3476943"/><rtept lat="50.8145915" lon="4.3476943"/><rtept lat="50.8122571" lon="4.3251917"/><rtept lat="50.8250343" lon="4.3344337"/><rtept lat="50.8465842" lon="4.2981391"/><rtept lat="50.8465842" lon="4.2981391"/><rtept lat="50.8465842" lon="4.2981391"/><rtept lat="50.866023" lon="4.30419"/><rtept lat="50.8696541" lon="4.3701732"/><rtept lat="50.8985156" lon="4.4223578"/></rte><wpt lat="50.8931601" lon="4.3186934"><name>Br5Qc0kmKG1wxbUm</name><type>Unvisited</type><desc>Route engine has not provided an explanation</desc></wpt><wpt lat="50.8427269" lon="4.3973046"><name>iQKkvx2PlVBWPp26</name><type>Delivery</type><desc>Part of shipment Shipment-0</desc></wpt><wpt lat="50.866023" lon="4.30419"><name>8g7xhN2E2402CC9S</name><type>Visit</type><desc>Part of shipment Shipment-4,Arrival time: 2024-01-19T12:25:00</desc></wpt><wpt lat="50.8392237" lon="4.3198432"><name>pmkv36dwDD9yIBmG</name><type>Unvisited</type><desc>Route engine has not provided an explanation</desc></wpt><wpt lat="50.8465842" lon="4.2981391"><name>lcu0YFBafxD0N1Qs</name><type>Pickup</type><desc>Part of shipment Shipment-44</desc></wpt><wpt lat="50.8309795" lon="4.3478008"><name>jp0mYy2g0zPNxYNm</name><type>Unvisited</type><desc>Route engine has not provided an explanation</desc></wpt><wpt lat="50.7966518" lon="4.4092617"><name>UdxXR8TR1myLVCC2</name><type>Unvisited</type><desc>Route engine has not provided an explanation</desc></wpt><wpt lat="50.8176935" lon="4.3849007"><name>4qsqv3Y3qSWJeZtL</name><type>Visit</type><desc>Arrival time: 2024-01-19T15:33:00,Part of shipment Shipment-47</desc></wpt><wpt lat="50.8033515" lon="4.3347471"><name>Ku5o1ofZrqE5BeTs</name><type>Delivery</type><desc>Part of shipment Shipment-15</desc></wpt><wpt lat="50.8683234" lon="4.2881768"><name>q4G6fq4lfQE4FFTj</name><type>Visit</type><desc>Part of shipment Shipment-41,Arrival time: 2024-01-19T13:01:00</desc></wpt><wpt lat="50.8931601" lon="4.3186934"><name>X4UtMryp5D2WfHZ7</name><type>Unvisited</type><desc>Route engine has not provided an explanation</desc></wpt><wpt lat="50.8931601" lon="4.3186934"><name>Br5Qc0kmKG1wxbUm</name><type>Pickup</type><desc>Part of shipment Shipment-35</desc></wpt><wpt lat="50.8602349" lon="4.4093032"><name>LMMzkTnEEVXvLbUK</name><type>Unvisited</type><desc>Route engine has not provided an explanation</desc></wpt><wpt lat="50.8825698" lon="4.3456896"><name>VJuu1ERsL8Z4X1mZ</name><type>Pickup</type><desc>Part of shipment Shipment-31</desc></wpt><wpt lat="50.8442225" lon="4.3589268"><name>07T3y0jF45aL1B2q</name><type>Visit</type><desc>Part of shipment Shipment-5,Arrival time: 2024-01-19T13:28:00</desc></wpt><wpt lat="50.8392237" lon="4.3198432"><name>pmkv36dwDD9yIBmG</name><type>Delivery</type><desc>Part of shipment Shipment-35</desc></wpt><wpt lat="50.8176935" lon="4.3849007"><name>BosdQS4pk560p3Ho</name><type>Delivery</type><desc>Part of shipment Shipment-45</desc></wpt><wpt lat="50.8681474" lon="4.3098268"><name>1Hb0kj1EqsGEoyNI</name><type>Unvisited</type><desc>Route engine has not provided an explanation</desc></wpt><wpt lat="50.8549164" lon="4.33748"><name>xAbvIkes0mSGg3yF</name><type>Unvisited</type><desc>Route engine has not provided an explanation</desc></wpt><wpt lat="50.8509376" lon="4.3775993"><name>cIqbEwxq90JfNht7</name><type>Unvisited</type><desc>Route engine has not provided an explanation</desc></wpt><wpt lat="50.8250343" lon="4.3344337"><name>4wM9dacnIjBYwtyf</name><type>Delivery</type><desc>Part of shipment Shipment-9</desc></wpt><wpt lat="50.8232692" lon="4.4113996"><name>OwhPzlp3Bj2XL8DN</name><type>Visit</type><desc>Arrival time: 2024-01-19T10:57:00,Part of shipment Shipment-49</desc></wpt><wpt lat="50.8126941" lon="4.3914259"><name>79JrqbSVtW04sRTE</name><type>Delivery</type><desc>Part of shipment Shipment-27</desc></wpt><wpt lat="50.8465842" lon="4.2981391"><name>3jUMeCDvQpqSMNuu</name><type>Delivery</type><desc>Part of shipment Shipment-39</desc></wpt><wpt lat="50.8176935" lon="4.3849007"><name>gsGGCY2zZJT1ChLu</name><type>Unvisited</type><desc>Route engine has not provided an explanation</desc></wpt><wpt lat="50.8442225" lon="4.3589268"><name>07T3y0jF45aL1B2q</name><type>Pickup</type><desc>Part of shipment Shipment-5</desc></wpt><wpt lat="50.8482669" lon="4.3514285"><name>kZFybBd6ki5W5iGZ</name><type>Delivery</type><desc>Part of shipment Shipment-40</desc></wpt><wpt lat="50.8985156" lon="4.4223578"><name>FJ2aEYwbOw4e6W3y</name><type>Pickup</type><desc>Part of shipment Shipment-42</desc></wpt><wpt lat="50.8781709" lon="4.3331311"><name>F5t4cN3YJZSZdlbk</name><type>Delivery</type><desc>Part of shipment Shipment-16</desc></wpt><wpt lat="50.8416329" lon="4.3833901"><name>QrB10iGCiRoQAUSb</name><type>Unvisited</type><desc>Route engine has not provided an explanation</desc></wpt><wpt lat="50.8781709" lon="4.3331311"><name>UvW5D2JvrfqRZbn7</name><type>Unvisited</type><desc>Route engine has not provided an explanation</desc></wpt><wpt lat="50.8465842" lon="4.2981391"><name>RGGSn08HwGpiRouP</name><type>Visit</type><desc>Arrival time: 2024-01-19T16:31:00,Part of shipment Shipment-12</desc></wpt><wpt lat="50.8309795" lon="4.3478008"><name>HRqHSQ0FPQTigAo0</name><type>Delivery</type><desc>Part of shipment Shipment-7</desc></wpt><wpt lat="50.8681474" lon="4.3098268"><name>0lVb7pIhDdGmjHED</name><type>Unvisited</type><desc>Route engine has not provided an explanation</desc></wpt><wpt lat="50.8416329" lon="4.3833901"><name>QrB10iGCiRoQAUSb</name><type>Delivery</type><desc>Part of shipment Shipment-29</desc></wpt><wpt lat="50.8681474" lon="4.3098268"><name>Rynxngahsyrm8lny</name><type>Unvisited</type><desc>Route engine has not provided an explanation</desc></wpt><wpt lat="50.848499" lon="4.3941416"><name>hQ0sPAJ2hPuRsNn4</name><type>Visit</type><desc>Part of shipment Shipment-38,Arrival time: 2024-01-19T13:57:00</desc></wpt><wpt lat="50.8781709" lon="4.3331311"><name>UvW5D2JvrfqRZbn7</name><type>Delivery</type><desc>Part of shipment Shipment-19</desc></wpt><wpt lat="50.8206962" lon="4.3526729"><name>ixHLkRfPiRH5Hgpp</name><type>Visit</type><desc>Arrival time: 2024-01-19T12:17:00,Part of shipment Shipment-24</desc></wpt><wpt lat="50.8145915" lon="4.3476943"><name>MDj16BWNOGJDYmtD</name><type>Visit</type><desc>Part of shipment Shipment-4,Arrival time: 2024-01-19T15:12:00</desc></wpt><wpt lat="50.794384" lon="4.3563267"><name>Yll8ClOxvJKRQXhS</name><type>Unvisited</type><desc>Route engine has not provided an explanation</desc></wpt><wpt lat="50.8209845" lon="4.3585765"><name>5sp8vIOSdfCbZxb3</name><type>Pickup</type><desc>Part of shipment Shipment-6</desc></wpt><wpt lat="50.8427269" lon="4.3973046"><name>IvhMsxPjQwiqlD1c</name><type>Pickup</type><desc>Part of shipment Shipment-38</desc></wpt><wpt lat="50.7966518" lon="4.4092617"><name>UdxXR8TR1myLVCC2</name><type>Delivery</type><desc>Part of shipment Shipment-13</desc></wpt><wpt lat="50.8940181" lon="4.3295801"><name>u8JKIB9Y3J5mvDSc</name><type>Delivery</type><desc>Part of shipment Shipment-17</desc></wpt><wpt lat="50.8985156" lon="4.4223578"><name>Start location for vehicle-1</name><type>Vehicle Start</type></wpt><wpt lat="50.8122571" lon="4.3251917"><name>r8umAEv5staMJ2ra</name><type>Pickup</type><desc>Part of shipment Shipment-40</desc></wpt><wpt lat="50.8232692" lon="4.4113996"><name>y9fiWksRWFbdNTPX</name><type>Visit</type><desc>Arrival time: 2024-01-19T10:39:00,Part of shipment Shipment-32</desc></wpt><wpt lat="50.8122571" lon="4.3251917"><name>qtABCPwVoKwtr6FQ</name><type>Delivery</type><desc>Part of shipment Shipment-24</desc></wpt><wpt lat="50.8940181" lon="4.3295801"><name>u8JKIB9Y3J5mvDSc</name><type>Unvisited</type><desc>Route engine has not provided an explanation</desc></wpt><wpt lat="50.8206691" lon="4.3845753"><name>JENXB7a0SFyi2iAc</name><type>Pickup</type><desc>Part of shipment Shipment-47</desc></wpt><wpt lat="50.8122571" lon="4.3251917"><name>r8umAEv5staMJ2ra</name><type>Visit</type><desc>Part of shipment Shipment-40,Arrival time: 2024-01-19T09:58:00</desc></wpt><wpt lat="50.8309795" lon="4.3478008"><name>Start location for vehicle-0</name><type>Vehicle Start</type></wpt><wpt lat="50.8482669" lon="4.3514285"><name>kZFybBd6ki5W5iGZ</name><type>Visit</type><desc>Part of shipment Shipment-40,Arrival time: 2024-01-19T11:25:00</desc></wpt><wpt lat="50.8931601" lon="4.3186934"><name>X4UtMryp5D2WfHZ7</name><type>Pickup</type><desc>Part of shipment Shipment-17</desc></wpt><wpt lat="50.8232692" lon="4.4113996"><name>ztPw5LqKwjbwE6df</name><type>Visit</type><desc>Part of shipment Shipment-7,Arrival time: 2024-01-19T10:29:00</desc></wpt><wpt lat="50.8444445" lon="4.3148399"><name>vV3sM1esJV9HBwOb</name><type>Visit</type><desc>Part of shipment Shipment-2,Arrival time: 2024-01-19T14:29:00</desc></wpt><wpt lat="50.794384" lon="4.3563267"><name>z4LdXITJIb3TkWgu</name><type>Pickup</type><desc>Part of shipment Shipment-22</desc></wpt><wpt lat="50.8940181" lon="4.3295801"><name>Kxodv9i5bZdpfHeM</name><type>Unvisited</type><desc>Route engine has not provided an explanation</desc></wpt><wpt lat="50.8729995" lon="4.3257756"><name>eCNbWOkqJLhg5iaV</name><type>Pickup</type><desc>Part of shipment Shipment-3</desc></wpt><wpt lat="50.8176935" lon="4.3849007"><name>4qsqv3Y3qSWJeZtL</name><type>Delivery</type><desc>Part of shipment Shipment-47</desc></wpt><wpt lat="50.8392237" lon="4.3198432"><name>OAKdYsXxR9yULrLf</name><type>Unvisited</type><desc>Route engine has not provided an explanation</desc></wpt><wpt lat="50.8316534" lon="4.3459694"><name>S1YXxP77V9MMlNEB</name><type>Delivery</type><desc>Part of shipment Shipment-10</desc></wpt><wpt lat="50.8145915" lon="4.3476943"><name>MDj16BWNOGJDYmtD</name><type>Delivery</type><desc>Part of shipment Shipment-4</desc></wpt><wpt lat="50.8250343" lon="4.3344337"><name>RhkxW0sDxLQVvUEZ</name><type>Visit</type><desc>Part of shipment Shipment-3,Arrival time: 2024-01-19T15:47:00</desc></wpt><wpt lat="50.8279309" lon="4.3420679"><name>PpX3RZMbUFVsjeJA</name><type>Visit</type><desc>Arrival time: 2024-01-19T12:32:00,Part of shipment Shipment-28</desc></wpt><wpt lat="50.8681474" lon="4.3098268"><name>Rynxngahsyrm8lny</name><type>Delivery</type><desc>Part of shipment Shipment-30</desc></wpt><wpt lat="50.8602349" lon="4.4093032"><name>6o9Cis6iOLmhxMdm</name><type>Unvisited</type><desc>Route engine has not provided an explanation</desc></wpt><wpt lat="50.8392237" lon="4.3198432"><name>sLrqbCYcWXWMSLpH</name><type>Pickup</type><desc>Part of shipment Shipment-16</desc></wpt><wpt lat="50.8611769" lon="4.3736527"><name>BVS1bEHryoHUyiEG</name><type>Visit</type><desc>Arrival time: 2024-01-19T08:11:00,Part of shipment Shipment-36</desc></wpt><wpt lat="50.7977472" lon="4.412823"><name>67BJRYkGzoKUtDbo</name><type>Pickup</type><desc>Part of shipment Shipment-32</desc></wpt><wpt lat="50.8611769" lon="4.3736527"><name>oJJwILARSU6ptAF1</name><type>Delivery</type><desc>Part of shipment Shipment-41</desc></wpt><wpt lat="50.8033515" lon="4.3347471"><name>BDQNdYqo0QADG9Qz</name><type>Visit</type><desc>Part of shipment Shipment-6,Arrival time: 2024-01-19T15:57:00</desc></wpt><wpt lat="50.8145915" lon="4.3476943"><name>QhdDiYCC0ZCmraTD</name><type>Visit</type><desc>Arrival time: 2024-01-19T15:02:00,Part of shipment Shipment-23</desc></wpt><wpt lat="50.8071752" lon="4.3878763"><name>q4Mvln8wUGSpsDIN</name><type>Pickup</type><desc>Part of shipment Shipment-30</desc></wpt><wpt lat="50.7977472" lon="4.412823"><name>67BJRYkGzoKUtDbo</name><type>Visit</type><desc>Arrival time: 2024-01-19T10:07:00,Part of shipment Shipment-32</desc></wpt><wpt lat="50.8887536" lon="4.4210958"><name>IkrOcKoo8JNgxM5O</name><type>Delivery</type><desc>Part of shipment Shipment-8</desc></wpt><wpt lat="50.8033515" lon="4.3347471"><name>geZX2HoC4xQpPomn</name><type>Delivery</type><desc>Part of shipment Shipment-48</desc></wpt><wpt lat="50.8033515" lon="4.3347471"><name>otS9bslDQ84LQB0Z</name><type>Pickup</type><desc>Part of shipment Shipment-45</desc></wpt><wpt lat="50.8482669" lon="4.3514285"><name>usOTL2jQcZTfeKO5</name><type>Unvisited</type><desc>Route engine has not provided an explanation</desc></wpt><wpt lat="50.8309795" lon="4.3478008"><name>jp0mYy2g0zPNxYNm</name><type>Delivery</type><desc>Part of shipment Shipment-14</desc></wpt><wpt lat="50.8729995" lon="4.3257756"><name>eCNbWOkqJLhg5iaV</name><type>Visit</type><desc>Arrival time: 2024-01-19T11:57:00,Part of shipment Shipment-3</desc></wpt><wpt lat="50.8465842" lon="4.2981391"><name>RGGSn08HwGpiRouP</name><type>Delivery</type><desc>Part of shipment Shipment-12</desc></wpt><wpt lat="50.8427269" lon="4.3973046"><name>IvhMsxPjQwiqlD1c</name><type>Visit</type><desc>Arrival time: 2024-01-19T10:27:00,Part of shipment Shipment-38</desc></wpt><wpt lat="50.8696541" lon="4.3701732"><name>IouqmUAWS1BNV9qM</name><type>Visit</type><desc>Arrival time: 2024-01-19T17:16:00,Part of shipment Shipment-23</desc></wpt><wpt lat="50.8232692" lon="4.4113996"><name>2VI3iM11ROGPX8iB</name><type>Pickup</type><desc>Part of shipment Shipment-46</desc></wpt><wpt lat="50.8611769" lon="4.3736527"><name>rUy82tc0lN9Tm4ie</name><type>Pickup</type><desc>Part of shipment Shipment-34</desc></wpt><wpt lat="50.8232692" lon="4.4113996"><name>vRXGXscWoQuurqbv</name><type>Visit</type><desc>Arrival time: 2024-01-19T10:47:00,Part of shipment Shipment-44</desc></wpt><wpt lat="50.8465842" lon="4.2981391"><name>CnwI7BbIiGdSvuQE</name><type>Visit</type><desc>Part of shipment Shipment-1,Arrival time: 2024-01-19T16:21:00</desc></wpt><wpt lat="50.8887536" lon="4.4210958"><name>jvCWv7wRygr470HH</name><type>Visit</type><desc>Arrival time: 2024-01-19T08:16:00,Part of shipment Shipment-43</desc></wpt><wpt lat="50.8517794" lon="4.3971682"><name>5qmMljG2rzZY0NXf</name><type>Delivery</type><desc>Part of shipment Shipment-28</desc></wpt><wpt lat="50.8887536" lon="4.4210958"><name>IkrOcKoo8JNgxM5O</name><type>Unvisited</type><desc>Route engine has not provided an explanation</desc></wpt><wpt lat="50.8465842" lon="4.2981391"><name>lcu0YFBafxD0N1Qs</name><type>Visit</type><desc>Part of shipment Shipment-44,Arrival time: 2024-01-19T09:33:00</desc></wpt><wpt lat="50.8269339" lon="4.3899001"><name>tnnq8JnW2Fvi3eRv</name><type>Visit</type><desc>Arrival time: 2024-01-19T11:06:00,Part of shipment Shipment-9</desc></wpt><wpt lat="50.8145915" lon="4.3476943"><name>QhdDiYCC0ZCmraTD</name><type>Pickup</type><desc>Part of shipment Shipment-23</desc></wpt><wpt lat="50.8781709" lon="4.3331311"><name>I9JgtXjY0c6GSsFR</name><type>Unvisited</type><desc>Route engine has not provided an explanation</desc></wpt><wpt lat="50.866023" lon="4.30419"><name>Uniw0c3yg1K651f9</name><type>Delivery</type><desc>Part of shipment Shipment-11</desc></wpt><wpt lat="50.8985156" lon="4.4223578"><name>VE09EHiGpQLtrINE</name><type>Pickup</type><desc>Part of shipment Shipment-15</desc></wpt><wpt lat="50.866023" lon="4.30419"><name>msYwEEiHqFPoH3QN</name><type>Visit</type><desc>Arrival time: 2024-01-19T16:50:00,Part of shipment Shipment-37</desc></wpt><wpt lat="50.8176935" lon="4.3849007"><name>BosdQS4pk560p3Ho</name><type>Visit</type><desc>Arrival time: 2024-01-19T11:45:00,Part of shipment Shipment-45</desc></wpt><wpt lat="50.8259199" lon="4.3762317"><name>gUFV3n8CK0SGZJtR</name><type>Visit</type><desc>Arrival time: 2024-01-19T11:20:00,Part of shipment Shipment-36</desc></wpt><wpt lat="50.8442225" lon="4.3589268"><name>TN0feEK2f8ROR6rJ</name><type>Pickup</type><desc>Part of shipment Shipment-27</desc></wpt><wpt lat="50.8683234" lon="4.2881768"><name>68m1CPhouTEuwUL5</name><type>Delivery</type><desc>Part of shipment Shipment-49</desc></wpt><wpt lat="50.8206962" lon="4.3526729"><name>ixHLkRfPiRH5Hgpp</name><type>Pickup</type><desc>Part of shipment Shipment-24</desc></wpt><wpt lat="50.8683234" lon="4.2881768"><name>AfDbxnNTI6EzNKKD</name><type>Unvisited</type><desc>Route engine has not provided an explanation</desc></wpt><wpt lat="50.8729995" lon="4.3257756"><name>OnESM3b7bc197NQJ</name><type>Pickup</type><desc>Part of shipment Shipment-8</desc></wpt><wpt lat="50.8683234" lon="4.2881768"><name>AfDbxnNTI6EzNKKD</name><type>Pickup</type><desc>Part of shipment Shipment-18</desc></wpt><wpt lat="50.8985156" lon="4.4223578"><name>End location for vehicle-1</name><type>Vehicle Start</type></wpt><wpt lat="50.866023" lon="4.30419"><name>Ny9lbhlrxcCGbmDf</name><type>Delivery</type><desc>Part of shipment Shipment-25</desc></wpt><wpt lat="50.866023" lon="4.30419"><name>Ny9lbhlrxcCGbmDf</name><type>Unvisited</type><desc>Route engine has not provided an explanation</desc></wpt><wpt lat="50.8940181" lon="4.3295801"><name>jofKtBHskRhQrJAa</name><type>Pickup</type><desc>Part of shipment Shipment-48</desc></wpt><wpt lat="50.8781709" lon="4.3331311"><name>I9JgtXjY0c6GSsFR</name><type>Pickup</type><desc>Part of shipment Shipment-10</desc></wpt><wpt lat="50.8206691" lon="4.3845753"><name>oAyIx3lo3tROsHHk</name><type>Delivery</type><desc>Part of shipment Shipment-26</desc></wpt><wpt lat="50.8033515" lon="4.3347471"><name>Ku5o1ofZrqE5BeTs</name><type>Unvisited</type><desc>Route engine has not provided an explanation</desc></wpt><wpt lat="50.8940181" lon="4.3295801"><name>jofKtBHskRhQrJAa</name><type>Visit</type><desc>Arrival time: 2024-01-19T08:38:00,Part of shipment Shipment-48</desc></wpt><wpt lat="50.8416329" lon="4.3833901"><name>xIu4fh6lzShxGtxT</name><type>Delivery</type><desc>Part of shipment Shipment-34</desc></wpt><wpt lat="50.8549164" lon="4.33748"><name>uNpkAXEylXy9DpNe</name><type>Visit</type><desc>Part of shipment Shipment-5,Arrival time: 2024-01-19T14:12:00</desc></wpt><wpt lat="50.8232692" lon="4.4113996"><name>vRXGXscWoQuurqbv</name><type>Delivery</type><desc>Part of shipment Shipment-44</desc></wpt><wpt lat="50.8985156" lon="4.4223578"><name>FJ2aEYwbOw4e6W3y</name><type>Visit</type><desc>Part of shipment Shipment-42,Arrival time: 2024-01-19T08:00:00</desc></wpt><wpt lat="50.8887536" lon="4.4210958"><name>jvCWv7wRygr470HH</name><type>Pickup</type><desc>Part of shipment Shipment-43</desc></wpt><wpt lat="50.8250343" lon="4.3344337"><name>4wM9dacnIjBYwtyf</name><type>Visit</type><desc>Arrival time: 2024-01-19T16:40:00,Part of shipment Shipment-9</desc></wpt><wpt lat="50.8729995" lon="4.3257756"><name>CdIIeZwqtcsUSo31</name><type>Delivery</type><desc>Part of shipment Shipment-43</desc></wpt><wpt lat="50.8250343" lon="4.3344337"><name>SNuC7BX3n7NgguPt</name><type>Delivery</type><desc>Part of shipment Shipment-2</desc></wpt><wpt lat="50.8611769" lon="4.3736527"><name>rUy82tc0lN9Tm4ie</name><type>Visit</type><desc>Part of shipment Shipment-34,Arrival time: 2024-01-19T13:39:00</desc></wpt><wpt lat="50.8549164" lon="4.33748"><name>xAbvIkes0mSGg3yF</name><type>Delivery</type><desc>Part of shipment Shipment-21</desc></wpt><wpt lat="50.8033515" lon="4.3347471"><name>1NhKrh0XZ039YAmb</name><type>Pickup</type><desc>Part of shipment Shipment-26</desc></wpt><wpt lat="50.8729995" lon="4.3257756"><name>OnESM3b7bc197NQJ</name><type>Unvisited</type><desc>Route engine has not provided an explanation</desc></wpt><wpt lat="50.8033515" lon="4.3347471"><name>1NhKrh0XZ039YAmb</name><type>Unvisited</type><desc>Route engine has not provided an explanation</desc></wpt><wpt lat="50.8309795" lon="4.3478008"><name>lpRsj2PU4TTldJZ8</name><type>Delivery</type><desc>Part of shipment Shipment-22</desc></wpt><wpt lat="50.8250343" lon="4.3344337"><name>SNuC7BX3n7NgguPt</name><type>Visit</type><desc>Arrival time: 2024-01-19T16:50:00,Part of shipment Shipment-2</desc></wpt><wpt lat="50.8232692" lon="4.4113996"><name>ztPw5LqKwjbwE6df</name><type>Pickup</type><desc>Part of shipment Shipment-7</desc></wpt><wpt lat="50.8611769" lon="4.3736527"><name>BVS1bEHryoHUyiEG</name><type>Pickup</type><desc>Part of shipment Shipment-36</desc></wpt><wpt lat="50.8279309" lon="4.3420679"><name>PpX3RZMbUFVsjeJA</name><type>Pickup</type><desc>Part of shipment Shipment-28</desc></wpt><wpt lat="50.8122571" lon="4.3251917"><name>qtABCPwVoKwtr6FQ</name><type>Visit</type><desc>Arrival time: 2024-01-19T16:13:00,Part of shipment Shipment-24</desc></wpt><wpt lat="50.8825698" lon="4.3456896"><name>1wjD0Edu0tcweogv</name><type>Visit</type><desc>Arrival time: 2024-01-19T08:56:00,Part of shipment Shipment-1</desc></wpt><wpt lat="50.8482669" lon="4.3514285"><name>bNnviOyxAW8O5HHZ</name><type>Visit</type><desc>Arrival time: 2024-01-19T11:35:00,Part of shipment Shipment-42</desc></wpt><wpt lat="50.8696541" lon="4.3701732"><name>IouqmUAWS1BNV9qM</name><type>Delivery</type><desc>Part of shipment Shipment-23</desc></wpt><wpt lat="50.8683234" lon="4.2881768"><name>68m1CPhouTEuwUL5</name><type>Visit</type><desc>Arrival time: 2024-01-19T12:42:00,Part of shipment Shipment-49</desc></wpt><wpt lat="50.8465842" lon="4.2981391"><name>CnwI7BbIiGdSvuQE</name><type>Delivery</type><desc>Part of shipment Shipment-1</desc></wpt><wpt lat="50.8071752" lon="4.3878763"><name>q4Mvln8wUGSpsDIN</name><type>Unvisited</type><desc>Route engine has not provided an explanation</desc></wpt><wpt lat="50.8122571" lon="4.3251917"><name>EicO3xrfn85CymDL</name><type>Delivery</type><desc>Part of shipment Shipment-46</desc></wpt><wpt lat="50.8259199" lon="4.3762317"><name>gUFV3n8CK0SGZJtR</name><type>Delivery</type><desc>Part of shipment Shipment-36</desc></wpt><wpt lat="50.8309795" lon="4.3478008"><name>lpRsj2PU4TTldJZ8</name><type>Visit</type><desc>Part of shipment Shipment-22,Arrival time: 2024-01-19T17:15:00</desc></wpt><wpt lat="50.8122571" lon="4.3251917"><name>0GM7VymDilSNwRxP</name><type>Visit</type><desc>Arrival time: 2024-01-19T15:30:00,Part of shipment Shipment-31</desc></wpt><wpt lat="50.8309795" lon="4.3478008"><name>HRqHSQ0FPQTigAo0</name><type>Visit</type><desc>Part of shipment Shipment-7,Arrival time: 2024-01-19T17:05:00</desc></wpt><wpt lat="50.8681474" lon="4.3098268"><name>0lVb7pIhDdGmjHED</name><type>Pickup</type><desc>Part of shipment Shipment-20</desc></wpt><wpt lat="50.8184398" lon="4.4163762"><name>BT39hMnPk2TVjv5E</name><type>Pickup</type><desc>Part of shipment Shipment-37</desc></wpt><wpt lat="50.8611769" lon="4.3736527"><name>oJJwILARSU6ptAF1</name><type>Visit</type><desc>Part of shipment Shipment-41,Arrival time: 2024-01-19T13:48:00</desc></wpt><wpt lat="50.8781709" lon="4.3331311"><name>TASZwjIM56P0Nnlp</name><type>Visit</type><desc>Part of shipment Shipment-12,Arrival time: 2024-01-19T09:12:00</desc></wpt><wpt lat="50.8206691" lon="4.3845753"><name>JENXB7a0SFyi2iAc</name><type>Visit</type><desc>Arrival time: 2024-01-19T11:33:00,Part of shipment Shipment-47</desc></wpt><wpt lat="50.8232692" lon="4.4113996"><name>OwhPzlp3Bj2XL8DN</name><type>Pickup</type><desc>Part of shipment Shipment-49</desc></wpt><wpt lat="50.7966518" lon="4.4092617"><name>BFwxSFzDxdVI0e0j</name><type>Visit</type><desc>Part of shipment Shipment-0,Arrival time: 2024-01-19T09:55:00</desc></wpt><wpt lat="50.8122571" lon="4.3251917"><name>0GM7VymDilSNwRxP</name><type>Delivery</type><desc>Part of shipment Shipment-31</desc></wpt><wpt lat="50.8392237" lon="4.3198432"><name>OAKdYsXxR9yULrLf</name><type>Pickup</type><desc>Part of shipment Shipment-14</desc></wpt><wpt lat="50.7966518" lon="4.4092617"><name>BFwxSFzDxdVI0e0j</name><type>Pickup</type><desc>Part of shipment Shipment-0</desc></wpt><wpt lat="50.8442225" lon="4.3589268"><name>VMbUcoVPiJlcei7d</name><type>Pickup</type><desc>Part of shipment Shipment-21</desc></wpt><wpt lat="50.8033515" lon="4.3347471"><name>geZX2HoC4xQpPomn</name><type>Visit</type><desc>Part of shipment Shipment-48,Arrival time: 2024-01-19T09:19:00</desc></wpt><wpt lat="50.8681474" lon="4.3098268"><name>1Hb0kj1EqsGEoyNI</name><type>Delivery</type><desc>Part of shipment Shipment-33</desc></wpt><wpt lat="50.8825698" lon="4.3456896"><name>1wjD0Edu0tcweogv</name><type>Pickup</type><desc>Part of shipment Shipment-1</desc></wpt><wpt lat="50.8033515" lon="4.3347471"><name>BDQNdYqo0QADG9Qz</name><type>Delivery</type><desc>Part of shipment Shipment-6</desc></wpt><wpt lat="50.8250343" lon="4.3344337"><name>RhkxW0sDxLQVvUEZ</name><type>Delivery</type><desc>Part of shipment Shipment-3</desc></wpt><wpt lat="50.866023" lon="4.30419"><name>8g7xhN2E2402CC9S</name><type>Pickup</type><desc>Part of shipment Shipment-4</desc></wpt><wpt lat="50.8269339" lon="4.3899001"><name>tnnq8JnW2Fvi3eRv</name><type>Pickup</type><desc>Part of shipment Shipment-9</desc></wpt><wpt lat="50.8781709" lon="4.3331311"><name>F5t4cN3YJZSZdlbk</name><type>Unvisited</type><desc>Route engine has not provided an explanation</desc></wpt><wpt lat="50.8126941" lon="4.3914259"><name>79JrqbSVtW04sRTE</name><type>Unvisited</type><desc>Route engine has not provided an explanation</desc></wpt><wpt lat="50.8416329" lon="4.3833901"><name>xIu4fh6lzShxGtxT</name><type>Visit</type><desc>Part of shipment Shipment-34,Arrival time: 2024-01-19T14:12:00</desc></wpt><wpt lat="50.8184398" lon="4.4163762"><name>BT39hMnPk2TVjv5E</name><type>Visit</type><desc>Arrival time: 2024-01-19T14:36:00,Part of shipment Shipment-37</desc></wpt><wpt lat="50.794384" lon="4.3563267"><name>Yll8ClOxvJKRQXhS</name><type>Pickup</type><desc>Part of shipment Shipment-13</desc></wpt><wpt lat="50.8602349" lon="4.4093032"><name>LMMzkTnEEVXvLbUK</name><type>Delivery</type><desc>Part of shipment Shipment-20</desc></wpt><wpt lat="50.8825698" lon="4.3456896"><name>VJuu1ERsL8Z4X1mZ</name><type>Visit</type><desc>Arrival time: 2024-01-19T08:46:00,Part of shipment Shipment-31</desc></wpt><wpt lat="50.8549164" lon="4.33748"><name>uNpkAXEylXy9DpNe</name><type>Delivery</type><desc>Part of shipment Shipment-5</desc></wpt><wpt lat="50.8602349" lon="4.4093032"><name>6o9Cis6iOLmhxMdm</name><type>Delivery</type><desc>Part of shipment Shipment-18</desc></wpt><wpt lat="50.8122571" lon="4.3251917"><name>EicO3xrfn85CymDL</name><type>Visit</type><desc>Arrival time: 2024-01-19T16:23:00,Part of shipment Shipment-46</desc></wpt><wpt lat="50.8729995" lon="4.3257756"><name>oW74QOTT9H0quJW2</name><type>Visit</type><desc>Arrival time: 2024-01-19T13:15:00,Part of shipment Shipment-39</desc></wpt><wpt lat="50.8940181" lon="4.3295801"><name>Kxodv9i5bZdpfHeM</name><type>Pickup</type><desc>Part of shipment Shipment-11</desc></wpt><wpt lat="50.8781709" lon="4.3331311"><name>TASZwjIM56P0Nnlp</name><type>Pickup</type><desc>Part of shipment Shipment-12</desc></wpt><wpt lat="50.8517794" lon="4.3971682"><name>5qmMljG2rzZY0NXf</name><type>Visit</type><desc>Arrival time: 2024-01-19T15:12:00,Part of shipment Shipment-28</desc></wpt><wpt lat="50.8729995" lon="4.3257756"><name>CdIIeZwqtcsUSo31</name><type>Visit</type><desc>Part of shipment Shipment-43,Arrival time: 2024-01-19T12:07:00</desc></wpt><wpt lat="50.848499" lon="4.3941416"><name>hQ0sPAJ2hPuRsNn4</name><type>Delivery</type><desc>Part of shipment Shipment-38</desc></wpt><wpt lat="50.8444445" lon="4.3148399"><name>vV3sM1esJV9HBwOb</name><type>Pickup</type><desc>Part of shipment Shipment-2</desc></wpt><wpt lat="50.794384" lon="4.3563267"><name>z4LdXITJIb3TkWgu</name><type>Visit</type><desc>Part of shipment Shipment-22,Arrival time: 2024-01-19T09:34:00</desc></wpt><wpt lat="50.866023" lon="4.30419"><name>Uniw0c3yg1K651f9</name><type>Unvisited</type><desc>Route engine has not provided an explanation</desc></wpt><wpt lat="50.8232692" lon="4.4113996"><name>y9fiWksRWFbdNTPX</name><type>Delivery</type><desc>Part of shipment Shipment-32</desc></wpt><wpt lat="50.866023" lon="4.30419"><name>msYwEEiHqFPoH3QN</name><type>Delivery</type><desc>Part of shipment Shipment-37</desc></wpt><wpt lat="50.8309795" lon="4.3478008"><name>End location for vehicle-0</name><type>Vehicle Start</type></wpt><wpt lat="50.8427269" lon="4.3973046"><name>iQKkvx2PlVBWPp26</name><type>Visit</type><desc>Arrival time: 2024-01-19T14:57:00,Part of shipment Shipment-0</desc></wpt><wpt lat="50.8482669" lon="4.3514285"><name>usOTL2jQcZTfeKO5</name><type>Pickup</type><desc>Part of shipment Shipment-29</desc></wpt><wpt lat="50.8176935" lon="4.3849007"><name>gsGGCY2zZJT1ChLu</name><type>Pickup</type><desc>Part of shipment Shipment-25</desc></wpt><wpt lat="50.8683234" lon="4.2881768"><name>q4G6fq4lfQE4FFTj</name><type>Pickup</type><desc>Part of shipment Shipment-41</desc></wpt><wpt lat="50.8033515" lon="4.3347471"><name>otS9bslDQ84LQB0Z</name><type>Visit</type><desc>Arrival time: 2024-01-19T09:09:00,Part of shipment Shipment-45</desc></wpt><wpt lat="50.8209845" lon="4.3585765"><name>5sp8vIOSdfCbZxb3</name><type>Visit</type><desc>Part of shipment Shipment-6,Arrival time: 2024-01-19T12:03:00</desc></wpt><wpt lat="50.8465842" lon="4.2981391"><name>3jUMeCDvQpqSMNuu</name><type>Visit</type><desc>Arrival time: 2024-01-19T16:11:00,Part of shipment Shipment-39</desc></wpt><wpt lat="50.8232692" lon="4.4113996"><name>2VI3iM11ROGPX8iB</name><type>Visit</type><desc>Arrival time: 2024-01-19T10:49:00,Part of shipment Shipment-46</desc></wpt><wpt lat="50.8729995" lon="4.3257756"><name>oW74QOTT9H0quJW2</name><type>Pickup</type><desc>Part of shipment Shipment-39</desc></wpt><wpt lat="50.8985156" lon="4.4223578"><name>VE09EHiGpQLtrINE</name><type>Unvisited</type><desc>Route engine has not provided an explanation</desc></wpt><wpt lat="50.8442225" lon="4.3589268"><name>VMbUcoVPiJlcei7d</name><type>Unvisited</type><desc>Route engine has not provided an explanation</desc></wpt><wpt lat="50.8681474" lon="4.3098268"><name>QljiMtRbDjowbduJ</name><type>Unvisited</type><desc>Route engine has not provided an explanation</desc></wpt><wpt lat="50.8206691" lon="4.3845753"><name>oAyIx3lo3tROsHHk</name><type>Unvisited</type><desc>Route engine has not provided an explanation</desc></wpt><wpt lat="50.8442225" lon="4.3589268"><name>TN0feEK2f8ROR6rJ</name><type>Unvisited</type><desc>Route engine has not provided an explanation</desc></wpt><wpt lat="50.8482669" lon="4.3514285"><name>bNnviOyxAW8O5HHZ</name><type>Delivery</type><desc>Part of shipment Shipment-42</desc></wpt><wpt lat="50.8316534" lon="4.3459694"><name>S1YXxP77V9MMlNEB</name><type>Unvisited</type><desc>Route engine has not provided an explanation</desc></wpt><wpt lat="50.8392237" lon="4.3198432"><name>sLrqbCYcWXWMSLpH</name><type>Unvisited</type><desc>Route engine has not provided an explanation</desc></wpt><wpt lat="50.8681474" lon="4.3098268"><name>QljiMtRbDjowbduJ</name><type>Pickup</type><desc>Part of shipment Shipment-19</desc></wpt><wpt lat="50.8509376" lon="4.3775993"><name>cIqbEwxq90JfNht7</name><type>Pickup</type><desc>Part of shipment Shipment-33</desc></wpt></gpx>