<?xml version='1.0' encoding='UTF-8'?><gpx name="Route-1" version="1.1" creator="org.metavrp.gpx"><desc/><rte><name>vehicle-1 2024-01-19</name><rtept lat="51.2075238" lon="4.4496339"/><rtept lat="51.3209924" lon="4.9713159"/><rtept lat="51.2396513" lon="4.5800144"/><rtept lat="51.2275448" lon="4.4316876"/><rtept lat="51.2068045" lon="4.3948279"/><rtept lat="50.8757511" lon="4.6889381"/><rtept lat="50.8445497" lon="4.0765815"/><rtept lat="51.2396513" lon="4.5800144"/><rtept lat="50.8597542" lon="5.6248241"/><rtept lat="51.2026963" lon="4.4307138"/><rtept lat="51.1987533" lon="4.4269353"/><rtept lat="51.1987533" lon="4.4269353"/><rtept lat="51.209021" lon="4.2579707"/><rtept lat="51.2075238" lon="4.4496339"/></rte><rte><name>vehicle-0 2024-01-19</name><rtept lat="50.8384051" lon="3.3876532"/><rtept lat="50.8617012" lon="3.1997459"/><rtept lat="51.2311156" lon="2.9168024"/><rtept lat="50.9324351" lon="3.6578275"/><rtept lat="50.752302" lon="4.616865"/><rtept lat="51.1987533" lon="4.4269353"/><rtept lat="51.0328591" lon="3.7281481"/><rtept lat="51.2149612" lon="3.2751073"/><rtept lat="51.3560663" lon="3.30471"/><rtept lat="51.1490021" lon="3.6178731"/><rtept lat="51.1490021" lon="3.6178731"/><rtept lat="50.8384051" lon="3.3876532"/></rte><wpt lat="51.209021" lon="4.2579707"><name>cnpqlx6J45ZdTidk</name><type>Visit</type><desc>Arrival time: 2024-01-19T16:59:00,Part of shipment Shipment-14</desc></wpt><wpt lat="51.2396513" lon="4.5800144"><name>pLdOPxB0GEismcax</name><type>Pickup</type><desc>Part of shipment Shipment-20</desc></wpt><wpt lat="51.008261" lon="3.4723765"><name>U7pOgdHuuMTyjh5C</name><type>Delivery</type><desc>Part of shipment Shipment-8</desc></wpt><wpt lat="50.8757511" lon="4.6889381"><name>wctUQu1maRFdEJNW</name><type>Unvisited</type><desc>Route engine has not provided an explanation</desc></wpt><wpt lat="51.2569435" lon="5.3574501"><name>CMEVBS82rwuk27im</name><type>Unvisited</type><desc>Route engine has not provided an explanation</desc></wpt><wpt lat="50.752302" lon="4.616865"><name>CTV6x370cuRhoWOe</name><type>Visit</type><desc>Arrival time: 2024-01-19T12:00:00,Part of shipment Shipment-9</desc></wpt><wpt lat="51.1987533" lon="4.4269353"><name>auVCnzJvin76hz7i</name><type>Pickup</type><desc>Part of shipment Shipment-1</desc></wpt><wpt lat="51.2062199" lon="4.7627079"><name>zV8OWO2gVp8fcINq</name><type>Delivery</type><desc>Part of shipment Shipment-32</desc></wpt><wpt lat="51.3585995" lon="3.3150119"><name>mjCbQPTImkftRlsh</name><type>Unvisited</type><desc>Route engine has not provided an explanation</desc></wpt><wpt lat="51.3166732" lon="4.9765102"><name>nd0InyDUsrE9v65v</name><type>Pickup</type><desc>Part of shipment Shipment-18</desc></wpt><wpt lat="51.0167074" lon="4.2003979"><name>KSxqoEOeP0lk8Kgw</name><type>Unvisited</type><desc>Route engine has not provided an explanation</desc></wpt><wpt lat="50.8597542" lon="5.6248241"><name>y2H0C5nW61V2E5V1</name><type>Delivery</type><desc>Part of shipment Shipment-31</desc></wpt><wpt lat="50.8181475" lon="2.7614964"><name>e3UgC89J9WSSQIOO</name><type>Delivery</type><desc>Part of shipment Shipment-15</desc></wpt><wpt lat="51.3169094" lon="3.1318897"><name>cEduK2cShb52P8mW</name><type>Pickup</type><desc>Part of shipment Shipment-31</desc></wpt><wpt lat="50.9059851" lon="4.3776309"><name>sFTuAvZPRMOOHXOz</name><type>Pickup</type><desc>Part of shipment Shipment-30</desc></wpt><wpt lat="51.3373752" lon="4.8950274"><name>w703iJNdVybkz9aG</name><type>Pickup</type><desc>Part of shipment Shipment-36</desc></wpt><wpt lat="51.2396513" lon="4.5800144"><name>Eiu63q1FCiz3pa3A</name><type>Unvisited</type><desc>Route engine has not provided an explanation</desc></wpt><wpt lat="50.769805" lon="4.9601468"><name>6aHM2F1fd3xuvKOb</name><type>Pickup</type><desc>Part of shipment Shipment-33</desc></wpt><wpt lat="51.3169094" lon="3.1318897"><name>N5c8t9AIqBYHCG3e</name><type>Pickup</type><desc>Part of shipment Shipment-38</desc></wpt><wpt lat="51.0328591" lon="3.7281481"><name>OXYLlmT2qWM2EKAc</name><type>Delivery</type><desc>Part of shipment Shipment-49</desc></wpt><wpt lat="50.8384051" lon="3.3876532"><name>Start location for vehicle-0</name><type>Vehicle Start</type></wpt><wpt lat="51.2275448" lon="4.4316876"><name>vcOA5MxnhUJAKkFg</name><type>Visit</type><desc>Part of shipment Shipment-16,Arrival time: 2024-01-19T09:41:00</desc></wpt><wpt lat="50.8617012" lon="3.1997459"><name>wwUNlM26W8zRYeWI</name><type>Pickup</type><desc>Part of shipment Shipment-11</desc></wpt><wpt lat="50.8587738" lon="4.6547993"><name>bqP4CrhxU1sLMNyB</name><type>Delivery</type><desc>Part of shipment Shipment-38</desc></wpt><wpt lat="50.8617012" lon="3.1997459"><name>OoaW6tam4KRlbrSI</name><type>Unvisited</type><desc>Route engine has not provided an explanation</desc></wpt><wpt lat="50.8617012" lon="3.1997459"><name>OoaW6tam4KRlbrSI</name><type>Pickup</type><desc>Part of shipment Shipment-28</desc></wpt><wpt lat="51.2026963" lon="4.4307138"><name>c2gVbBXS1wdssnfn</name><type>Unvisited</type><desc>Route engine has not provided an explanation</desc></wpt><wpt lat="50.752302" lon="4.616865"><name>0sm5tItIBWXIR4hy</name><type>Delivery</type><desc>Part of shipment Shipment-29</desc></wpt><wpt lat="51.2026963" lon="4.4307138"><name>c2gVbBXS1wdssnfn</name><type>Delivery</type><desc>Part of shipment Shipment-26</desc></wpt><wpt lat="51.1987533" lon="4.4269353"><name>Nw7yD0lNtETfqkt4</name><type>Visit</type><desc>Arrival time: 2024-01-19T16:16:00,Part of shipment Shipment-16</desc></wpt><wpt lat="51.1490021" lon="3.6178731"><name>35Gc1kOn3saKUlG8</name><type>Visit</type><desc>Part of shipment Shipment-5,Arrival time: 2024-01-19T16:34:00</desc></wpt><wpt lat="51.3560663" lon="3.30471"><name>cHa3hB1YVUgTgiIi</name><type>Delivery</type><desc>Part of shipment Shipment-43</desc></wpt><wpt lat="51.2569435" lon="5.3574501"><name>kRFDbP1riknp69JC</name><type>Delivery</type><desc>Part of shipment Shipment-0</desc></wpt><wpt lat="50.8757511" lon="4.6889381"><name>wctUQu1maRFdEJNW</name><type>Pickup</type><desc>Part of shipment Shipment-19</desc></wpt><wpt lat="50.771946" lon="4.9049249"><name>13wwdsJ7f0ThNjRA</name><type>Unvisited</type><desc>Route engine has not provided an explanation</desc></wpt><wpt lat="50.8384051" lon="3.3876532"><name>vrnQAU4RbdaectsJ</name><type>Pickup</type><desc>Part of shipment Shipment-10</desc></wpt><wpt lat="50.8445497" lon="4.0765815"><name>RAK0jwZcUVODOA7T</name><type>Delivery</type><desc>Part of shipment Shipment-48</desc></wpt><wpt lat="50.8597542" lon="5.6248241"><name>HodFuublW5H4OSv6</name><type>Delivery</type><desc>Part of shipment Shipment-45</desc></wpt><wpt lat="50.8617012" lon="3.1997459"><name>BS6s0G3k23Un9pMr</name><type>Unvisited</type><desc>Route engine has not provided an explanation</desc></wpt><wpt lat="51.3560663" lon="3.30471"><name>qV7fnEnZaQkYAwTA</name><type>Unvisited</type><desc>Route engine has not provided an explanation</desc></wpt><wpt lat="51.3373752" lon="4.8950274"><name>w703iJNdVybkz9aG</name><type>Unvisited</type><desc>Route engine has not provided an explanation</desc></wpt><wpt lat="50.8617012" lon="3.1997459"><name>UmzOlhoD0MJKrK89</name><type>Pickup</type><desc>Part of shipment Shipment-49</desc></wpt><wpt lat="51.2396513" lon="4.5800144"><name>q1P4EVyRbRbdwxRG</name><type>Pickup</type><desc>Part of shipment Shipment-0</desc></wpt><wpt lat="51.2075238" lon="4.4496339"><name>End location for vehicle-1</name><type>Vehicle Start</type></wpt><wpt lat="51.2043599" lon="4.0680429"><name>q0eCBEYIau6bQlop</name><type>Delivery</type><desc>Part of shipment Shipment-13</desc></wpt><wpt lat="51.3169094" lon="3.1318897"><name>eA4sidx37IEAOYy4</name><type>Pickup</type><desc>Part of shipment Shipment-21</desc></wpt><wpt lat="51.2043599" lon="4.0680429"><name>tfFWvHLF5dHgEkXm</name><type>Pickup</type><desc>Part of shipment Shipment-2</desc></wpt><wpt lat="50.8597542" lon="5.6248241"><name>MLSshXzpSjbuTq09</name><type>Pickup</type><desc>Part of shipment Shipment-12</desc></wpt><wpt lat="50.8587738" lon="4.6547993"><name>bqP4CrhxU1sLMNyB</name><type>Unvisited</type><desc>Route engine has not provided an explanation</desc></wpt><wpt lat="51.2396513" lon="4.5800144"><name>Eiu63q1FCiz3pa3A</name><type>Delivery</type><desc>Part of shipment Shipment-42</desc></wpt><wpt lat="51.209021" lon="4.2579707"><name>7VXxAXGhUCKFepr3</name><type>Pickup</type><desc>Part of shipment Shipment-8</desc></wpt><wpt lat="50.8597542" lon="5.6248241"><name>xKPcLj15aNevRdQR</name><type>Unvisited</type><desc>Route engine has not provided an explanation</desc></wpt><wpt lat="51.3169094" lon="3.1318897"><name>gerV8Ybr51p0x1ep</name><type>Pickup</type><desc>Part of shipment Shipment-39</desc></wpt><wpt lat="51.2149612" lon="3.2751073"><name>592iXl2977trlKbI</name><type>Unvisited</type><desc>Route engine has not provided an explanation</desc></wpt><wpt lat="51.0494197" lon="4.0739563"><name>3mTtgrQoQij6Sjc9</name><type>Pickup</type><desc>Part of shipment Shipment-23</desc></wpt><wpt lat="51.058449" lon="3.7507064"><name>OkaNGxXqmTlsyxwO</name><type>Unvisited</type><desc>Route engine has not provided an explanation</desc></wpt><wpt lat="51.2026963" lon="4.4307138"><name>Wxro6J3VQBwMsGZ1</name><type>Unvisited</type><desc>Route engine has not provided an explanation</desc></wpt><wpt lat="51.229962" lon="3.2091514"><name>L38tYR1Krh7JYilS</name><type>Unvisited</type><desc>Route engine has not provided an explanation</desc></wpt><wpt lat="51.1490021" lon="3.6178731"><name>6ynjNID1x2fku3xy</name><type>Visit</type><desc>Arrival time: 2024-01-19T16:24:00,Part of shipment Shipment-41</desc></wpt><wpt lat="51.2075238" lon="4.4496339"><name>Start location for vehicle-1</name><type>Vehicle Start</type></wpt><wpt lat="51.2275448" lon="4.4316876"><name>vcOA5MxnhUJAKkFg</name><type>Pickup</type><desc>Part of shipment Shipment-16</desc></wpt><wpt lat="51.3145656" lon="3.1330977"><name>SZBUV07rmEpXn4rn</name><type>Delivery</type><desc>Part of shipment Shipment-27</desc></wpt><wpt lat="51.229962" lon="3.2091514"><name>L38tYR1Krh7JYilS</name><type>Pickup</type><desc>Part of shipment Shipment-4</desc></wpt><wpt lat="50.8617012" lon="3.1997459"><name>BS6s0G3k23Un9pMr</name><type>Delivery</type><desc>Part of shipment Shipment-25</desc></wpt><wpt lat="51.2396513" lon="4.5800144"><name>rHZlQvBIE1T5353J</name><type>Pickup</type><desc>Part of shipment Shipment-15</desc></wpt><wpt lat="51.3169094" lon="3.1318897"><name>N5c8t9AIqBYHCG3e</name><type>Unvisited</type><desc>Route engine has not provided an explanation</desc></wpt><wpt lat="50.8445497" lon="4.0765815"><name>tKKPqYttfHG8dbtH</name><type>Delivery</type><desc>Part of shipment Shipment-47</desc></wpt><wpt lat="51.3560663" lon="3.30471"><name>cHa3hB1YVUgTgiIi</name><type>Visit</type><desc>Arrival time: 2024-01-19T15:32:00,Part of shipment Shipment-43</desc></wpt><wpt lat="50.8445497" lon="4.0765815"><name>yIRm4YntyQRGLOYw</name><type>Delivery</type><desc>Part of shipment Shipment-35</desc></wpt><wpt lat="51.2311156" lon="2.9168024"><name>riZT5kvzIb04jjoW</name><type>Unvisited</type><desc>Route engine has not provided an explanation</desc></wpt><wpt lat="51.0676233" lon="5.3918965"><name>excSpO2u9UNS8uAp</name><type>Delivery</type><desc>Part of shipment Shipment-19</desc></wpt><wpt lat="50.8181475" lon="2.7614964"><name>w7rFxLNrObW5PCKn</name><type>Pickup</type><desc>Part of shipment Shipment-25</desc></wpt><wpt lat="51.3169094" lon="3.1318897"><name>cEduK2cShb52P8mW</name><type>Unvisited</type><desc>Route engine has not provided an explanation</desc></wpt><wpt lat="50.8587738" lon="4.6547993"><name>jqtJG24RVlrlVIc8</name><type>Unvisited</type><desc>Route engine has not provided an explanation</desc></wpt><wpt lat="51.3585995" lon="3.3150119"><name>vEMYmKOcqylKWA3v</name><type>Unvisited</type><desc>Route engine has not provided an explanation</desc></wpt><wpt lat="51.2068045" lon="4.3948279"><name>sRYofiTCCxvgBoXf</name><type>Delivery</type><desc>Part of shipment Shipment-36</desc></wpt><wpt lat="50.8757511" lon="4.6889381"><name>1uOitwZblacNApzL</name><type>Pickup</type><desc>Part of shipment Shipment-34</desc></wpt><wpt lat="50.752302" lon="4.616865"><name>CTV6x370cuRhoWOe</name><type>Delivery</type><desc>Part of shipment Shipment-9</desc></wpt><wpt lat="51.2396513" lon="4.5800144"><name>9xTdfCiKNfgTaQn6</name><type>Pickup</type><desc>Part of shipment Shipment-45</desc></wpt><wpt lat="51.3209924" lon="4.9713159"><name>5CwifwsG5htoCnHb</name><type>Unvisited</type><desc>Route engine has not provided an explanation</desc></wpt><wpt lat="51.0167074" lon="4.2003979"><name>KSxqoEOeP0lk8Kgw</name><type>Delivery</type><desc>Part of shipment Shipment-7</desc></wpt><wpt lat="51.0676233" lon="5.3918965"><name>ni2CjCSkUFd2XshM</name><type>Pickup</type><desc>Part of shipment Shipment-46</desc></wpt><wpt lat="50.8384051" lon="3.3876532"><name>vrnQAU4RbdaectsJ</name><type>Unvisited</type><desc>Route engine has not provided an explanation</desc></wpt><wpt lat="50.8181475" lon="2.7614964"><name>bz0hEKk6u7WfR7NN</name><type>Pickup</type><desc>Part of shipment Shipment-22</desc></wpt><wpt lat="51.2068045" lon="4.3948279"><name>oJiZbpB0obbHhfXU</name><type>Unvisited</type><desc>Route engine has not provided an explanation</desc></wpt><wpt lat="50.771946" lon="4.9049249"><name>UGtnIzl9JlnxqBOE</name><type>Unvisited</type><desc>Route engine has not provided an explanation</desc></wpt><wpt lat="51.2068045" lon="4.3948279"><name>sRYofiTCCxvgBoXf</name><type>Unvisited</type><desc>Route engine has not provided an explanation</desc></wpt><wpt lat="50.8445497" lon="4.0765815"><name>RAK0jwZcUVODOA7T</name><type>Visit</type><desc>Arrival time: 2024-01-19T11:57:00,Part of shipment Shipment-48</desc></wpt><wpt lat="50.771946" lon="4.9049249"><name>UGtnIzl9JlnxqBOE</name><type>Delivery</type><desc>Part of shipment Shipment-37</desc></wpt><wpt lat="50.9041544" lon="5.6784791"><name>NcfWDyVbYpqCTskm</name><type>Unvisited</type><desc>Route engine has not provided an explanation</desc></wpt><wpt lat="51.1490021" lon="3.6178731"><name>6ynjNID1x2fku3xy</name><type>Delivery</type><desc>Part of shipment Shipment-41</desc></wpt><wpt lat="50.8901702" lon="3.4432024"><name>fS3fDUuSAHUf9DMH</name><type>Unvisited</type><desc>Route engine has not provided an explanation</desc></wpt><wpt lat="51.1987533" lon="4.4269353"><name>RZtmVzTKrzbiD08R</name><type>Unvisited</type><desc>Route engine has not provided an explanation</desc></wpt><wpt lat="51.229962" lon="3.2091514"><name>ROpQFR71LVsJ0H0c</name><type>Delivery</type><desc>Part of shipment Shipment-11</desc></wpt><wpt lat="51.2068045" lon="4.3948279"><name>oJiZbpB0obbHhfXU</name><type>Pickup</type><desc>Part of shipment Shipment-27</desc></wpt><wpt lat="50.9059851" lon="4.3776309"><name>AZryvfxEDqwz1l0e</name><type>Unvisited</type><desc>Route engine has not provided an explanation</desc></wpt><wpt lat="51.0494197" lon="4.0739563"><name>3mTtgrQoQij6Sjc9</name><type>Unvisited</type><desc>Route engine has not provided an explanation</desc></wpt><wpt lat="51.058449" lon="3.7507064"><name>bjqGLs6t0EfUvYT0</name><type>Delivery</type><desc>Part of shipment Shipment-2</desc></wpt><wpt lat="51.2311156" lon="2.9168024"><name>Ta9GGXmRlh4cMqMO</name><type>Pickup</type><desc>Part of shipment Shipment-9</desc></wpt><wpt lat="51.109102" lon="4.3265241"><name>JkEcMba6mJO40XYZ</name><type>Unvisited</type><desc>Route engine has not provided an explanation</desc></wpt><wpt lat="51.0266902" lon="4.2762793"><name>vQV2dJMfMlf6Xr8s</name><type>Unvisited</type><desc>Route engine has not provided an explanation</desc></wpt><wpt lat="50.8384051" lon="3.3876532"><name>5O2Vcnnd4a8PWGrg</name><type>Delivery</type><desc>Part of shipment Shipment-46</desc></wpt><wpt lat="51.2149612" lon="3.2751073"><name>pCeDdofTcCWSAkd8</name><type>Visit</type><desc>Part of shipment Shipment-5,Arrival time: 2024-01-19T14:54:00</desc></wpt><wpt lat="50.8597542" lon="5.6248241"><name>y2H0C5nW61V2E5V1</name><type>Unvisited</type><desc>Route engine has not provided an explanation</desc></wpt><wpt lat="50.8587738" lon="4.6547993"><name>jqtJG24RVlrlVIc8</name><type>Delivery</type><desc>Part of shipment Shipment-10</desc></wpt><wpt lat="51.058449" lon="3.7507064"><name>bjqGLs6t0EfUvYT0</name><type>Unvisited</type><desc>Route engine has not provided an explanation</desc></wpt><wpt lat="51.0266902" lon="4.2762793"><name>cVKFoeroQgFpvuX3</name><type>Pickup</type><desc>Part of shipment Shipment-32</desc></wpt><wpt lat="50.8597542" lon="5.6248241"><name>HodFuublW5H4OSv6</name><type>Visit</type><desc>Part of shipment Shipment-45,Arrival time: 2024-01-19T14:40:00</desc></wpt><wpt lat="51.3209924" lon="4.9713159"><name>CJulfaUF9dgno9xY</name><type>Visit</type><desc>Arrival time: 2024-01-19T08:33:00,Part of shipment Shipment-24</desc></wpt><wpt lat="51.2043599" lon="4.0680429"><name>q0eCBEYIau6bQlop</name><type>Unvisited</type><desc>Route engine has not provided an explanation</desc></wpt><wpt lat="51.3560663" lon="3.30471"><name>qV7fnEnZaQkYAwTA</name><type>Pickup</type><desc>Part of shipment Shipment-29</desc></wpt><wpt lat="51.2038766" lon="4.4714293"><name>qsaDkXrLhFOQqJzj</name><type>Pickup</type><desc>Part of shipment Shipment-7</desc></wpt><wpt lat="51.2396513" lon="4.5800144"><name>9xTdfCiKNfgTaQn6</name><type>Visit</type><desc>Arrival time: 2024-01-19T13:15:00,Part of shipment Shipment-45</desc></wpt><wpt lat="51.209021" lon="4.2579707"><name>cq1S2HbbjfHSe8MS</name><type>Unvisited</type><desc>Route engine has not provided an explanation</desc></wpt><wpt lat="50.752302" lon="4.616865"><name>0sm5tItIBWXIR4hy</name><type>Unvisited</type><desc>Route engine has not provided an explanation</desc></wpt><wpt lat="50.8597542" lon="5.6248241"><name>VhubtoKKhWTtfIIp</name><type>Unvisited</type><desc>Route engine has not provided an explanation</desc></wpt><wpt lat="51.2311156" lon="2.9168024"><name>Ta9GGXmRlh4cMqMO</name><type>Visit</type><desc>Part of shipment Shipment-9,Arrival time: 2024-01-19T09:24:00</desc></wpt><wpt lat="50.9041544" lon="5.6784791"><name>NcfWDyVbYpqCTskm</name><type>Pickup</type><desc>Part of shipment Shipment-37</desc></wpt><wpt lat="51.1987533" lon="4.4269353"><name>auVCnzJvin76hz7i</name><type>Unvisited</type><desc>Route engine has not provided an explanation</desc></wpt><wpt lat="51.1987533" lon="4.4269353"><name>fdVEJ3yMBqAYE9Lo</name><type>Visit</type><desc>Part of shipment Shipment-41,Arrival time: 2024-01-19T13:02:00</desc></wpt><wpt lat="51.0266902" lon="4.2762793"><name>vQV2dJMfMlf6Xr8s</name><type>Delivery</type><desc>Part of shipment Shipment-39</desc></wpt><wpt lat="51.2396513" lon="4.5800144"><name>pLdOPxB0GEismcax</name><type>Visit</type><desc>Part of shipment Shipment-20,Arrival time: 2024-01-19T09:14:00</desc></wpt><wpt lat="51.109102" lon="4.3265241"><name>JkEcMba6mJO40XYZ</name><type>Delivery</type><desc>Part of shipment Shipment-12</desc></wpt><wpt lat="51.1987533" lon="4.4269353"><name>fdVEJ3yMBqAYE9Lo</name><type>Pickup</type><desc>Part of shipment Shipment-41</desc></wpt><wpt lat="50.8757511" lon="4.6889381"><name>Ua4JiOj0TPiM0p7O</name><type>Delivery</type><desc>Part of shipment Shipment-17</desc></wpt><wpt lat="51.3560663" lon="3.30471"><name>8DSUsIfKGfKcUx1D</name><type>Unvisited</type><desc>Route engine has not provided an explanation</desc></wpt><wpt lat="50.8181475" lon="2.7614964"><name>w7rFxLNrObW5PCKn</name><type>Unvisited</type><desc>Route engine has not provided an explanation</desc></wpt><wpt lat="51.3585995" lon="3.3150119"><name>xC5TSCjR6zcGZ2Hi</name><type>Unvisited</type><desc>Route engine has not provided an explanation</desc></wpt><wpt lat="50.8597542" lon="5.6248241"><name>MLSshXzpSjbuTq09</name><type>Unvisited</type><desc>Route engine has not provided an explanation</desc></wpt><wpt lat="50.8445497" lon="4.0765815"><name>yIRm4YntyQRGLOYw</name><type>Unvisited</type><desc>Route engine has not provided an explanation</desc></wpt><wpt lat="50.8757511" lon="4.6889381"><name>Ua4JiOj0TPiM0p7O</name><type>Unvisited</type><desc>Route engine has not provided an explanation</desc></wpt><wpt lat="51.3585995" lon="3.3150119"><name>xC5TSCjR6zcGZ2Hi</name><type>Delivery</type><desc>Part of shipment Shipment-23</desc></wpt><wpt lat="51.0266902" lon="4.2762793"><name>cVKFoeroQgFpvuX3</name><type>Unvisited</type><desc>Route engine has not provided an explanation</desc></wpt><wpt lat="50.8445497" lon="4.0765815"><name>qVSXihMa2WeRi4op</name><type>Pickup</type><desc>Part of shipment Shipment-17</desc></wpt><wpt lat="51.3585995" lon="3.3150119"><name>mjCbQPTImkftRlsh</name><type>Delivery</type><desc>Part of shipment Shipment-40</desc></wpt><wpt lat="50.8597542" lon="5.6248241"><name>VhubtoKKhWTtfIIp</name><type>Pickup</type><desc>Part of shipment Shipment-35</desc></wpt><wpt lat="51.2043599" lon="4.0680429"><name>tfFWvHLF5dHgEkXm</name><type>Unvisited</type><desc>Route engine has not provided an explanation</desc></wpt><wpt lat="51.1987533" lon="4.4269353"><name>miW5g2aNBGRTFV4U</name><type>Pickup</type><desc>Part of shipment Shipment-14</desc></wpt><wpt lat="51.2149612" lon="3.2751073"><name>592iXl2977trlKbI</name><type>Pickup</type><desc>Part of shipment Shipment-47</desc></wpt><wpt lat="51.058449" lon="3.7507064"><name>OkaNGxXqmTlsyxwO</name><type>Pickup</type><desc>Part of shipment Shipment-26</desc></wpt><wpt lat="51.1987533" lon="4.4269353"><name>miW5g2aNBGRTFV4U</name><type>Visit</type><desc>Arrival time: 2024-01-19T16:26:00,Part of shipment Shipment-14</desc></wpt><wpt lat="50.8757511" lon="4.6889381"><name>1uOitwZblacNApzL</name><type>Unvisited</type><desc>Route engine has not provided an explanation</desc></wpt><wpt lat="51.3169094" lon="3.1318897"><name>gerV8Ybr51p0x1ep</name><type>Unvisited</type><desc>Route engine has not provided an explanation</desc></wpt><wpt lat="50.8181475" lon="2.7614964"><name>bz0hEKk6u7WfR7NN</name><type>Unvisited</type><desc>Route engine has not provided an explanation</desc></wpt><wpt lat="50.8445497" lon="4.0765815"><name>tKKPqYttfHG8dbtH</name><type>Unvisited</type><desc>Route engine has not provided an explanation</desc></wpt><wpt lat="51.3166732" lon="4.9765102"><name>nd0InyDUsrE9v65v</name><type>Unvisited</type><desc>Route engine has not provided an explanation</desc></wpt><wpt lat="51.1490021" lon="3.6178731"><name>35Gc1kOn3saKUlG8</name><type>Delivery</type><desc>Part of shipment Shipment-5</desc></wpt><wpt lat="51.3209924" lon="4.9713159"><name>5CwifwsG5htoCnHb</name><type>Delivery</type><desc>Part of shipment Shipment-28</desc></wpt><wpt lat="51.2068045" lon="4.3948279"><name>hXvIW1nb1atdkJWR</name><type>Delivery</type><desc>Part of shipment Shipment-20</desc></wpt><wpt lat="51.0676233" lon="5.3918965"><name>excSpO2u9UNS8uAp</name><type>Unvisited</type><desc>Route engine has not provided an explanation</desc></wpt><wpt lat="51.2396513" lon="4.5800144"><name>q1P4EVyRbRbdwxRG</name><type>Unvisited</type><desc>Route engine has not provided an explanation</desc></wpt><wpt lat="50.9324351" lon="3.6578275"><name>P2F9yAnHjTXbaTlH</name><type>Pickup</type><desc>Part of shipment Shipment-43</desc></wpt><wpt lat="50.8757511" lon="4.6889381"><name>rMLtt0AZ30I1aU8E</name><type>Visit</type><desc>Arrival time: 2024-01-19T10:59:00,Part of shipment Shipment-48</desc></wpt><wpt lat="50.8384051" lon="3.3876532"><name>cUSdhyXUeiHqoSJ1</name><type>Unvisited</type><desc>Route engine has not provided an explanation</desc></wpt><wpt lat="50.8597542" lon="5.6248241"><name>xKPcLj15aNevRdQR</name><type>Pickup</type><desc>Part of shipment Shipment-40</desc></wpt><wpt lat="51.209021" lon="4.2579707"><name>7VXxAXGhUCKFepr3</name><type>Unvisited</type><desc>Route engine has not provided an explanation</desc></wpt><wpt lat="51.2569435" lon="5.3574501"><name>CMEVBS82rwuk27im</name><type>Pickup</type><desc>Part of shipment Shipment-3</desc></wpt><wpt lat="50.9059851" lon="4.3776309"><name>sFTuAvZPRMOOHXOz</name><type>Unvisited</type><desc>Route engine has not provided an explanation</desc></wpt><wpt lat="51.1987533" lon="4.4269353"><name>RZtmVzTKrzbiD08R</name><type>Delivery</type><desc>Part of shipment Shipment-6</desc></wpt><wpt lat="51.209021" lon="4.2579707"><name>cq1S2HbbjfHSe8MS</name><type>Pickup</type><desc>Part of shipment Shipment-6</desc></wpt><wpt lat="51.2396513" lon="4.5800144"><name>rHZlQvBIE1T5353J</name><type>Unvisited</type><desc>Route engine has not provided an explanation</desc></wpt><wpt lat="51.2569435" lon="5.3574501"><name>kRFDbP1riknp69JC</name><type>Unvisited</type><desc>Route engine has not provided an explanation</desc></wpt><wpt lat="51.209021" lon="4.2579707"><name>cnpqlx6J45ZdTidk</name><type>Delivery</type><desc>Part of shipment Shipment-14</desc></wpt><wpt lat="50.8445497" lon="4.0765815"><name>qVSXihMa2WeRi4op</name><type>Unvisited</type><desc>Route engine has not provided an explanation</desc></wpt><wpt lat="51.058449" lon="3.7507064"><name>6CnFZgFrVVXu4N9I</name><type>Unvisited</type><desc>Route engine has not provided an explanation</desc></wpt><wpt lat="51.2569435" lon="5.3574501"><name>NeWUMttdz7nExPBG</name><type>Unvisited</type><desc>Route engine has not provided an explanation</desc></wpt><wpt lat="50.9324351" lon="3.6578275"><name>P2F9yAnHjTXbaTlH</name><type>Visit</type><desc>Arrival time: 2024-01-19T10:32:00,Part of shipment Shipment-43</desc></wpt><wpt lat="51.109102" lon="4.3265241"><name>nQu2HYXzQVUynU3Q</name><type>Unvisited</type><desc>Route engine has not provided an explanation</desc></wpt><wpt lat="51.2026963" lon="4.4307138"><name>Wxro6J3VQBwMsGZ1</name><type>Delivery</type><desc>Part of shipment Shipment-4</desc></wpt><wpt lat="50.8901702" lon="3.4432024"><name>fS3fDUuSAHUf9DMH</name><type>Pickup</type><desc>Part of shipment Shipment-13</desc></wpt><wpt lat="51.109102" lon="4.3265241"><name>nQu2HYXzQVUynU3Q</name><type>Pickup</type><desc>Part of shipment Shipment-42</desc></wpt><wpt lat="50.8384051" lon="3.3876532"><name>cUSdhyXUeiHqoSJ1</name><type>Delivery</type><desc>Part of shipment Shipment-21</desc></wpt><wpt lat="51.229962" lon="3.2091514"><name>ROpQFR71LVsJ0H0c</name><type>Unvisited</type><desc>Route engine has not provided an explanation</desc></wpt><wpt lat="51.0676233" lon="5.3918965"><name>ni2CjCSkUFd2XshM</name><type>Unvisited</type><desc>Route engine has not provided an explanation</desc></wpt><wpt lat="50.771946" lon="4.9049249"><name>13wwdsJ7f0ThNjRA</name><type>Delivery</type><desc>Part of shipment Shipment-30</desc></wpt><wpt lat="50.8617012" lon="3.1997459"><name>wwUNlM26W8zRYeWI</name><type>Unvisited</type><desc>Route engine has not provided an explanation</desc></wpt><wpt lat="51.229962" lon="3.2091514"><name>LtDDbQOsWxJ5jO6o</name><type>Delivery</type><desc>Part of shipment Shipment-3</desc></wpt><wpt lat="51.2311156" lon="2.9168024"><name>riZT5kvzIb04jjoW</name><type>Delivery</type><desc>Part of shipment Shipment-22</desc></wpt><wpt lat="50.9059851" lon="4.3776309"><name>AZryvfxEDqwz1l0e</name><type>Delivery</type><desc>Part of shipment Shipment-44</desc></wpt><wpt lat="51.2062199" lon="4.7627079"><name>zV8OWO2gVp8fcINq</name><type>Unvisited</type><desc>Route engine has not provided an explanation</desc></wpt><wpt lat="51.209021" lon="4.2579707"><name>EcSAYbb2bxx8PjSP</name><type>Unvisited</type><desc>Route engine has not provided an explanation</desc></wpt><wpt lat="50.8617012" lon="3.1997459"><name>UmzOlhoD0MJKrK89</name><type>Visit</type><desc>Arrival time: 2024-01-19T08:23:00,Part of shipment Shipment-49</desc></wpt><wpt lat="51.229962" lon="3.2091514"><name>LtDDbQOsWxJ5jO6o</name><type>Unvisited</type><desc>Route engine has not provided an explanation</desc></wpt><wpt lat="50.8384051" lon="3.3876532"><name>5O2Vcnnd4a8PWGrg</name><type>Unvisited</type><desc>Route engine has not provided an explanation</desc></wpt><wpt lat="51.0328591" lon="3.7281481"><name>OXYLlmT2qWM2EKAc</name><type>Visit</type><desc>Part of shipment Shipment-49,Arrival time: 2024-01-19T13:58:00</desc></wpt><wpt lat="51.2026963" lon="4.4307138"><name>lJtoCK6M4TRqqCij</name><type>Delivery</type><desc>Part of shipment Shipment-24</desc></wpt><wpt lat="51.2569435" lon="5.3574501"><name>NeWUMttdz7nExPBG</name><type>Delivery</type><desc>Part of shipment Shipment-33</desc></wpt><wpt lat="51.3209924" lon="4.9713159"><name>CJulfaUF9dgno9xY</name><type>Pickup</type><desc>Part of shipment Shipment-24</desc></wpt><wpt lat="51.2149612" lon="3.2751073"><name>pCeDdofTcCWSAkd8</name><type>Pickup</type><desc>Part of shipment Shipment-5</desc></wpt><wpt lat="51.3169094" lon="3.1318897"><name>eA4sidx37IEAOYy4</name><type>Unvisited</type><desc>Route engine has not provided an explanation</desc></wpt><wpt lat="50.8757511" lon="4.6889381"><name>rMLtt0AZ30I1aU8E</name><type>Pickup</type><desc>Part of shipment Shipment-48</desc></wpt><wpt lat="51.3145656" lon="3.1330977"><name>SZBUV07rmEpXn4rn</name><type>Unvisited</type><desc>Route engine has not provided an explanation</desc></wpt><wpt lat="51.008261" lon="3.4723765"><name>U7pOgdHuuMTyjh5C</name><type>Unvisited</type><desc>Route engine has not provided an explanation</desc></wpt><wpt lat="51.3585995" lon="3.3150119"><name>vEMYmKOcqylKWA3v</name><type>Delivery</type><desc>Part of shipment Shipment-18</desc></wpt><wpt lat="50.769805" lon="4.9601468"><name>6aHM2F1fd3xuvKOb</name><type>Unvisited</type><desc>Route engine has not provided an explanation</desc></wpt><wpt lat="51.1987533" lon="4.4269353"><name>Nw7yD0lNtETfqkt4</name><type>Delivery</type><desc>Part of shipment Shipment-16</desc></wpt><wpt lat="51.209021" lon="4.2579707"><name>EcSAYbb2bxx8PjSP</name><type>Pickup</type><desc>Part of shipment Shipment-44</desc></wpt><wpt lat="51.2068045" lon="4.3948279"><name>hXvIW1nb1atdkJWR</name><type>Visit</type><desc>Arrival time: 2024-01-19T10:02:00,Part of shipment Shipment-20</desc></wpt><wpt lat="51.058449" lon="3.7507064"><name>6CnFZgFrVVXu4N9I</name><type>Delivery</type><desc>Part of shipment Shipment-34</desc></wpt><wpt lat="51.3560663" lon="3.30471"><name>8DSUsIfKGfKcUx1D</name><type>Delivery</type><desc>Part of shipment Shipment-1</desc></wpt><wpt lat="51.2026963" lon="4.4307138"><name>lJtoCK6M4TRqqCij</name><type>Visit</type><desc>Arrival time: 2024-01-19T16:01:00,Part of shipment Shipment-24</desc></wpt><wpt lat="50.8384051" lon="3.3876532"><name>End location for vehicle-0</name><type>Vehicle Start</type></wpt><wpt lat="51.2038766" lon="4.4714293"><name>qsaDkXrLhFOQqJzj</name><type>Unvisited</type><desc>Route engine has not provided an explanation</desc></wpt><wpt lat="50.8181475" lon="2.7614964"><name>e3UgC89J9WSSQIOO</name><type>Unvisited</type><desc>Route engine has not provided an explanation</desc></wpt></gpx>