<?xml version='1.0' encoding='UTF-8'?><gpx name="Route-1" version="1.1" creator="org.metavrp.gpx"><desc/><rte><name>vehicle-0 2024-01-19</name><rtept lat="50.8217465" lon="4.3438311"/><rtept lat="50.8194436" lon="4.3374179"/><rtept lat="50.8007222" lon="4.3727093"/><rtept lat="50.8372435" lon="4.3967617"/><rtept lat="50.8457674" lon="4.3875234"/><rtept lat="50.8457674" lon="4.3875234"/><rtept lat="50.8430182" lon="4.3677299"/><rtept lat="50.8641253" lon="4.3763804"/><rtept lat="50.8632266" lon="4.3645622"/><rtept lat="50.8513136" lon="4.3467838"/><rtept lat="50.8397762" lon="4.3310584"/><rtept lat="50.8219354" lon="4.3447676"/><rtept lat="50.8251532" lon="4.3424384"/><rtept lat="50.8380819" lon="4.3011898"/><rtept lat="50.8518092" lon="4.3017668"/><rtept lat="50.8756455" lon="4.3354773"/><rtept lat="50.8581104" lon="4.3191705"/><rtept lat="50.8397762" lon="4.3310584"/><rtept lat="50.8111409" lon="4.3588481"/><rtept lat="50.8068467" lon="4.4072418"/><rtept lat="50.8134048" lon="4.3886309"/><rtept lat="50.8372435" lon="4.3967617"/><rtept lat="50.8334624" lon="4.3686669"/><rtept lat="50.8430182" lon="4.3677299"/><rtept lat="50.849859" lon="4.3760086"/><rtept lat="50.8641253" lon="4.3763804"/><rtept lat="50.8629749" lon="4.3707411"/><rtept lat="50.8632266" lon="4.3645622"/><rtept lat="50.8663063" lon="4.3135083"/><rtept lat="50.8518092" lon="4.3017668"/><rtept lat="50.8251532" lon="4.3424384"/><rtept lat="50.8217465" lon="4.3438311"/></rte><wpt lat="50.8570321" lon="4.4159472"><name>VRH5SYAPdumzWVp1</name><type>Pickup</type><desc>Part of shipment Shipment-30</desc></wpt><wpt lat="50.8353681" lon="4.2884032"><name>rm2CtnX8kaSgCsm7</name><type>Delivery</type><desc>Part of shipment Shipment-44</desc></wpt><wpt lat="50.8514229" lon="4.3565822"><name>7alJZoUaDe6UQmaw</name><type>Delivery</type><desc>Part of shipment Shipment-39</desc></wpt><wpt lat="50.8105825" lon="4.3500797"><name>G06GQtGGsAcKB9uX</name><type>Unvisited</type><desc>Route engine has not provided an explanation</desc></wpt><wpt lat="50.8430182" lon="4.3677299"><name>OUve9u6U1V4TN7Rw</name><type>Unvisited</type><desc>Route engine has not provided an explanation</desc></wpt><wpt lat="50.8353681" lon="4.2884032"><name>rm2CtnX8kaSgCsm7</name><type>Unvisited</type><desc>Route engine has not provided an explanation</desc></wpt><wpt lat="50.8157886" lon="4.3597979"><name>PTrWbVXGKQouQy1O</name><type>Pickup</type><desc>Part of shipment Shipment-44</desc></wpt><wpt lat="50.8181877" lon="4.4174686"><name>iuKL2bk6MJNBy0uz</name><type>Unvisited</type><desc>Route engine has not provided an explanation</desc></wpt><wpt lat="50.8340559" lon="4.322787"><name>mf9DivAaWBb1jTdb</name><type>Pickup</type><desc>Part of shipment Shipment-16</desc></wpt><wpt lat="50.8217465" lon="4.3438311"><name>End location for vehicle-0</name><type>Vehicle Start</type></wpt><wpt lat="50.8111409" lon="4.3588481"><name>0XukQAfpBk7H453k</name><type>Visit</type><desc>Part of shipment Shipment-32,Arrival time: 2024-01-19T13:39:00</desc></wpt><wpt lat="50.8058243" lon="4.3126562"><name>F3P2RUos3LnzAuBW</name><type>Delivery</type><desc>Part of shipment Shipment-0</desc></wpt><wpt lat="50.8251532" lon="4.3424384"><name>CcB09EieFIMC0UId</name><type>Visit</type><desc>Arrival time: 2024-01-19T11:19:00,Part of shipment Shipment-36</desc></wpt><wpt lat="50.8372435" lon="4.3967617"><name>msTF8VCXiETxnS1p</name><type>Delivery</type><desc>Part of shipment Shipment-3</desc></wpt><wpt lat="50.8397762" lon="4.3310584"><name>sVgUc5dEQ0P0zATJ</name><type>Delivery</type><desc>Part of shipment Shipment-34</desc></wpt><wpt lat="50.8430182" lon="4.3677299"><name>btwGnv408Ub1kVcJ</name><type>Unvisited</type><desc>Route engine has not provided an explanation</desc></wpt><wpt lat="50.8756455" lon="4.3354773"><name>4SlEbxhlx1qtnVvY</name><type>Pickup</type><desc>Part of shipment Shipment-3</desc></wpt><wpt lat="50.8641253" lon="4.3763804"><name>Ixd24mTZUQH8LwZg</name><type>Pickup</type><desc>Part of shipment Shipment-37</desc></wpt><wpt lat="50.8626418" lon="4.3795476"><name>s8wyuzG7ChVez0T0</name><type>Pickup</type><desc>Part of shipment Shipment-38</desc></wpt><wpt lat="50.8068467" lon="4.4072418"><name>a0EE5jAiUP1AqLNj</name><type>Unvisited</type><desc>Route engine has not provided an explanation</desc></wpt><wpt lat="50.8251532" lon="4.3424384"><name>CcB09EieFIMC0UId</name><type>Pickup</type><desc>Part of shipment Shipment-36</desc></wpt><wpt lat="50.8194436" lon="4.3374179"><name>CSiHMK59zB7NBoQv</name><type>Pickup</type><desc>Part of shipment Shipment-17</desc></wpt><wpt lat="50.8629749" lon="4.3707411"><name>0cUoLr9JUZoZcYNO</name><type>Visit</type><desc>Arrival time: 2024-01-19T16:01:00,Part of shipment Shipment-46</desc></wpt><wpt lat="50.8632266" lon="4.3645622"><name>8vgC54MQPvYExfPA</name><type>Pickup</type><desc>Part of shipment Shipment-31</desc></wpt><wpt lat="50.8219354" lon="4.3447676"><name>17M3mQsq8klvgy0L</name><type>Delivery</type><desc>Part of shipment Shipment-17</desc></wpt><wpt lat="50.8372943" lon="4.3075368"><name>3rtiIErsShbiXpID</name><type>Unvisited</type><desc>Route engine has not provided an explanation</desc></wpt><wpt lat="50.860398" lon="4.4053264"><name>deCnU48de5hZyDll</name><type>Pickup</type><desc>Part of shipment Shipment-1</desc></wpt><wpt lat="50.8194436" lon="4.3374179"><name>7PdR2sgsIdlMAJ5B</name><type>Unvisited</type><desc>Route engine has not provided an explanation</desc></wpt><wpt lat="50.8518092" lon="4.3017668"><name>k1bC4I8cLAjsaI9J</name><type>Delivery</type><desc>Part of shipment Shipment-42</desc></wpt><wpt lat="50.8217465" lon="4.3438311"><name>Start location for vehicle-0</name><type>Vehicle Start</type></wpt><wpt lat="50.8372435" lon="4.3967617"><name>XRLtQ6eYsSV88AI2</name><type>Pickup</type><desc>Part of shipment Shipment-7</desc></wpt><wpt lat="50.8397762" lon="4.3310584"><name>c3pTa8ZgrUOijLpl</name><type>Pickup</type><desc>Part of shipment Shipment-49</desc></wpt><wpt lat="50.849859" lon="4.3760086"><name>OSSbjM8xRF6UjP8D</name><type>Delivery</type><desc>Part of shipment Shipment-26</desc></wpt><wpt lat="50.8380819" lon="4.3011898"><name>I0tdrONfFsP3kXpz</name><type>Delivery</type><desc>Part of shipment Shipment-11</desc></wpt><wpt lat="50.8372435" lon="4.3967617"><name>KnwNpw5PYQXI4kNb</name><type>Unvisited</type><desc>Route engine has not provided an explanation</desc></wpt><wpt lat="50.849859" lon="4.3760086"><name>UrkNJkoZmAejSQP3</name><type>Pickup</type><desc>Part of shipment Shipment-6</desc></wpt><wpt lat="50.8518092" lon="4.3017668"><name>PVQu5SrxuIdRJAJp</name><type>Unvisited</type><desc>Route engine has not provided an explanation</desc></wpt><wpt lat="50.8518092" lon="4.3017668"><name>u0x2tVUARqFotd4z</name><type>Delivery</type><desc>Part of shipment Shipment-13</desc></wpt><wpt lat="50.8663063" lon="4.3135083"><name>m70xAPFkPAAbxnft</name><type>Unvisited</type><desc>Route engine has not provided an explanation</desc></wpt><wpt lat="50.8608883" lon="4.3836236"><name>FF2Oa9QuRyCWVxd4</name><type>Unvisited</type><desc>Route engine has not provided an explanation</desc></wpt><wpt lat="50.8068467" lon="4.4072418"><name>ZP60n97Ck683aQN4</name><type>Unvisited</type><desc>Route engine has not provided an explanation</desc></wpt><wpt lat="50.8513136" lon="4.3467838"><name>faA9MBKAnY81qVfX</name><type>Delivery</type><desc>Part of shipment Shipment-27</desc></wpt><wpt lat="50.841846" lon="4.4224343"><name>lSxzEWwz4QSOXkhm</name><type>Pickup</type><desc>Part of shipment Shipment-11</desc></wpt><wpt lat="50.8134048" lon="4.3886309"><name>jktE2sKyrtHQSG0U</name><type>Delivery</type><desc>Part of shipment Shipment-5</desc></wpt><wpt lat="50.867387" lon="4.3883278"><name>zX6JTW2LxS7XrzUd</name><type>Pickup</type><desc>Part of shipment Shipment-23</desc></wpt><wpt lat="50.8105825" lon="4.3500797"><name>09VNZYkJVtl5yIm9</name><type>Pickup</type><desc>Part of shipment Shipment-33</desc></wpt><wpt lat="50.8626418" lon="4.3795476"><name>E6OhINKRJd2O56uz</name><type>Delivery</type><desc>Part of shipment Shipment-4</desc></wpt><wpt lat="50.8457674" lon="4.3875234"><name>qVe0offLSTjcvgIA</name><type>Visit</type><desc>Part of shipment Shipment-29,Arrival time: 2024-01-19T09:16:00</desc></wpt><wpt lat="50.8194436" lon="4.3374179"><name>j7l2tEsUE9m6GDab</name><type>Delivery</type><desc>Part of shipment Shipment-20</desc></wpt><wpt lat="50.8068467" lon="4.4072418"><name>ZP60n97Ck683aQN4</name><type>Pickup</type><desc>Part of shipment Shipment-39</desc></wpt><wpt lat="50.8376471" lon="4.4404449"><name>e7rP8vezeU4Sk3Vm</name><type>Unvisited</type><desc>Route engine has not provided an explanation</desc></wpt><wpt lat="50.8372435" lon="4.3967617"><name>zoiwCDNf26NmKoS4</name><type>Delivery</type><desc>Part of shipment Shipment-18</desc></wpt><wpt lat="50.8372435" lon="4.3967617"><name>zoiwCDNf26NmKoS4</name><type>Unvisited</type><desc>Route engine has not provided an explanation</desc></wpt><wpt lat="50.8430182" lon="4.3677299"><name>OUve9u6U1V4TN7Rw</name><type>Delivery</type><desc>Part of shipment Shipment-7</desc></wpt><wpt lat="50.8608883" lon="4.3836236"><name>46gdaM6XIiAe7MO3</name><type>Unvisited</type><desc>Route engine has not provided an explanation</desc></wpt><wpt lat="50.8632266" lon="4.3645622"><name>8vgC54MQPvYExfPA</name><type>Visit</type><desc>Part of shipment Shipment-31,Arrival time: 2024-01-19T10:07:00</desc></wpt><wpt lat="50.8068467" lon="4.4072418"><name>V5wyIqLfdMv82tAB</name><type>Unvisited</type><desc>Route engine has not provided an explanation</desc></wpt><wpt lat="50.8068467" lon="4.4072418"><name>5i0usuIZyZAjM6Lt</name><type>Visit</type><desc>Arrival time: 2024-01-19T14:03:00,Part of shipment Shipment-37</desc></wpt><wpt lat="50.8663063" lon="4.3135083"><name>m70xAPFkPAAbxnft</name><type>Pickup</type><desc>Part of shipment Shipment-0</desc></wpt><wpt lat="50.867387" lon="4.3883278"><name>nlBzI2cx2iapBQ3l</name><type>Delivery</type><desc>Part of shipment Shipment-48</desc></wpt><wpt lat="50.8669691" lon="4.3085214"><name>zviwW0BHKPyEE9tw</name><type>Delivery</type><desc>Part of shipment Shipment-25</desc></wpt><wpt lat="50.858165" lon="4.3206333"><name>m0gf8zUwWSm1Ju8p</name><type>Pickup</type><desc>Part of shipment Shipment-35</desc></wpt><wpt lat="50.8632266" lon="4.3645622"><name>vnHnTSNA5RdACSOB</name><type>Delivery</type><desc>Part of shipment Shipment-41</desc></wpt><wpt lat="50.8430182" lon="4.3677299"><name>SZEwnbhBzux93dY2</name><type>Pickup</type><desc>Part of shipment Shipment-34</desc></wpt><wpt lat="50.858165" lon="4.3206333"><name>AFG8yNpSDmOwHos7</name><type>Unvisited</type><desc>Route engine has not provided an explanation</desc></wpt><wpt lat="50.8608883" lon="4.3836236"><name>46gdaM6XIiAe7MO3</name><type>Delivery</type><desc>Part of shipment Shipment-43</desc></wpt><wpt lat="50.860398" lon="4.4053264"><name>deCnU48de5hZyDll</name><type>Unvisited</type><desc>Route engine has not provided an explanation</desc></wpt><wpt lat="50.8608883" lon="4.3836236"><name>vclPTuxFKcbvdUOq</name><type>Pickup</type><desc>Part of shipment Shipment-18</desc></wpt><wpt lat="50.8334624" lon="4.3686669"><name>H8f8X47YeuayhQmO</name><type>Visit</type><desc>Arrival time: 2024-01-19T15:01:00,Part of shipment Shipment-28</desc></wpt><wpt lat="50.8194436" lon="4.3374179"><name>7PdR2sgsIdlMAJ5B</name><type>Delivery</type><desc>Part of shipment Shipment-14</desc></wpt><wpt lat="50.8514229" lon="4.3565822"><name>gOMZEJieQBrDfuca</name><type>Unvisited</type><desc>Route engine has not provided an explanation</desc></wpt><wpt lat="50.8134048" lon="4.3886309"><name>mH8zlgt9mnk15AY2</name><type>Pickup</type><desc>Part of shipment Shipment-41</desc></wpt><wpt lat="50.8134048" lon="4.3886309"><name>jktE2sKyrtHQSG0U</name><type>Unvisited</type><desc>Route engine has not provided an explanation</desc></wpt><wpt lat="50.8570321" lon="4.4159472"><name>hxaEuRELulgwC4Zo</name><type>Unvisited</type><desc>Route engine has not provided an explanation</desc></wpt><wpt lat="50.8629749" lon="4.3707411"><name>rUNgRL1l1TwVBPCc</name><type>Unvisited</type><desc>Route engine has not provided an explanation</desc></wpt><wpt lat="50.8430182" lon="4.3677299"><name>3IIpOYy4hfiuWn6a</name><type>Delivery</type><desc>Part of shipment Shipment-38</desc></wpt><wpt lat="50.8430182" lon="4.3677299"><name>fruZFImkrsxRaqUl</name><type>Pickup</type><desc>Part of shipment Shipment-46</desc></wpt><wpt lat="50.8111409" lon="4.3588481"><name>0XukQAfpBk7H453k</name><type>Delivery</type><desc>Part of shipment Shipment-32</desc></wpt><wpt lat="50.8457674" lon="4.3875234"><name>InWB9aGmwHbIYeMj</name><type>Pickup</type><desc>Part of shipment Shipment-13</desc></wpt><wpt lat="50.8430182" lon="4.3677299"><name>SZEwnbhBzux93dY2</name><type>Visit</type><desc>Part of shipment Shipment-34,Arrival time: 2024-01-19T09:32:00</desc></wpt><wpt lat="50.8430182" lon="4.3677299"><name>btwGnv408Ub1kVcJ</name><type>Delivery</type><desc>Part of shipment Shipment-19</desc></wpt><wpt lat="50.7945005" lon="4.3528517"><name>L7GasDs9BgXEVj4k</name><type>Pickup</type><desc>Part of shipment Shipment-9</desc></wpt><wpt lat="50.8340559" lon="4.322787"><name>mf9DivAaWBb1jTdb</name><type>Unvisited</type><desc>Route engine has not provided an explanation</desc></wpt><wpt lat="50.8567427" lon="4.343955"><name>fCWGg8uP5RqRTxCV</name><type>Pickup</type><desc>Part of shipment Shipment-40</desc></wpt><wpt lat="50.8105825" lon="4.3500797"><name>09VNZYkJVtl5yIm9</name><type>Unvisited</type><desc>Route engine has not provided an explanation</desc></wpt><wpt lat="50.841846" lon="4.4224343"><name>hx87gx1C6S5MCaiF</name><type>Unvisited</type><desc>Route engine has not provided an explanation</desc></wpt><wpt lat="50.8430182" lon="4.3677299"><name>fruZFImkrsxRaqUl</name><type>Visit</type><desc>Arrival time: 2024-01-19T15:17:00,Part of shipment Shipment-46</desc></wpt><wpt lat="50.8194436" lon="4.3374179"><name>CSiHMK59zB7NBoQv</name><type>Visit</type><desc>Arrival time: 2024-01-19T08:03:00,Part of shipment Shipment-17</desc></wpt><wpt lat="50.8518092" lon="4.3017668"><name>k1bC4I8cLAjsaI9J</name><type>Visit</type><desc>Part of shipment Shipment-42,Arrival time: 2024-01-19T16:54:00</desc></wpt><wpt lat="50.8608883" lon="4.3836236"><name>FF2Oa9QuRyCWVxd4</name><type>Delivery</type><desc>Part of shipment Shipment-24</desc></wpt><wpt lat="50.8251532" lon="4.3424384"><name>5kbcstkzNFKlokSJ</name><type>Unvisited</type><desc>Route engine has not provided an explanation</desc></wpt><wpt lat="50.8457674" lon="4.3875234"><name>qVe0offLSTjcvgIA</name><type>Delivery</type><desc>Part of shipment Shipment-29</desc></wpt><wpt lat="50.860398" lon="4.4053264"><name>bRp9kB8iPASlpdos</name><type>Unvisited</type><desc>Route engine has not provided an explanation</desc></wpt><wpt lat="50.849859" lon="4.3760086"><name>OSSbjM8xRF6UjP8D</name><type>Unvisited</type><desc>Route engine has not provided an explanation</desc></wpt><wpt lat="50.8581104" lon="4.3191705"><name>JF9j9iP6xPOssF1P</name><type>Delivery</type><desc>Part of shipment Shipment-31</desc></wpt><wpt lat="50.8372435" lon="4.3967617"><name>KnwNpw5PYQXI4kNb</name><type>Pickup</type><desc>Part of shipment Shipment-25</desc></wpt><wpt lat="50.849859" lon="4.3760086"><name>UrkNJkoZmAejSQP3</name><type>Unvisited</type><desc>Route engine has not provided an explanation</desc></wpt><wpt lat="50.8567427" lon="4.343955"><name>fCWGg8uP5RqRTxCV</name><type>Unvisited</type><desc>Route engine has not provided an explanation</desc></wpt><wpt lat="50.8457674" lon="4.3875234"><name>InWB9aGmwHbIYeMj</name><type>Visit</type><desc>Part of shipment Shipment-13,Arrival time: 2024-01-19T09:06:00</desc></wpt><wpt lat="50.8770992" lon="4.3271501"><name>pCkPXYo0bXIMLlGs</name><type>Delivery</type><desc>Part of shipment Shipment-33</desc></wpt><wpt lat="50.8397762" lon="4.3310584"><name>YDxRsjFh3A0ANMF1</name><type>Pickup</type><desc>Part of shipment Shipment-32</desc></wpt><wpt lat="50.8518092" lon="4.3017668"><name>ZP6QzdtEkQmOW1Xd</name><type>Unvisited</type><desc>Route engine has not provided an explanation</desc></wpt><wpt lat="50.8134048" lon="4.3886309"><name>4Y2MF6UyTwM02wbO</name><type>Unvisited</type><desc>Route engine has not provided an explanation</desc></wpt><wpt lat="50.8377259" lon="4.2922891"><name>4KQ5gWHuNtiwsKbG</name><type>Unvisited</type><desc>Route engine has not provided an explanation</desc></wpt><wpt lat="50.8372943" lon="4.3075368"><name>3rtiIErsShbiXpID</name><type>Delivery</type><desc>Part of shipment Shipment-9</desc></wpt><wpt lat="50.8636719" lon="4.3124886"><name>9VFKRxTyPsdzKQEb</name><type>Delivery</type><desc>Part of shipment Shipment-45</desc></wpt><wpt lat="50.841846" lon="4.4224343"><name>lSxzEWwz4QSOXkhm</name><type>Unvisited</type><desc>Route engine has not provided an explanation</desc></wpt><wpt lat="50.8372435" lon="4.3967617"><name>msTF8VCXiETxnS1p</name><type>Visit</type><desc>Part of shipment Shipment-3,Arrival time: 2024-01-19T14:42:00</desc></wpt><wpt lat="50.8068467" lon="4.4072418"><name>nPSxhnm1tkCMwH42</name><type>Pickup</type><desc>Part of shipment Shipment-10</desc></wpt><wpt lat="50.8134048" lon="4.3886309"><name>mH8zlgt9mnk15AY2</name><type>Visit</type><desc>Part of shipment Shipment-41,Arrival time: 2024-01-19T14:20:00</desc></wpt><wpt lat="50.8372435" lon="4.3967617"><name>4ppNhasM6Dq4JR8Q</name><type>Visit</type><desc>Part of shipment Shipment-29,Arrival time: 2024-01-19T08:50:00</desc></wpt><wpt lat="50.8518092" lon="4.3017668"><name>PVQu5SrxuIdRJAJp</name><type>Delivery</type><desc>Part of shipment Shipment-6</desc></wpt><wpt lat="50.8377259" lon="4.2922891"><name>4KQ5gWHuNtiwsKbG</name><type>Delivery</type><desc>Part of shipment Shipment-21</desc></wpt><wpt lat="50.849859" lon="4.3760086"><name>sIx5pqWajxTo6UvZ</name><type>Visit</type><desc>Arrival time: 2024-01-19T15:31:00,Part of shipment Shipment-28</desc></wpt><wpt lat="50.8219354" lon="4.3447676"><name>17M3mQsq8klvgy0L</name><type>Visit</type><desc>Arrival time: 2024-01-19T11:06:00,Part of shipment Shipment-17</desc></wpt><wpt lat="50.8641253" lon="4.3763804"><name>XSu3u2kPozQZZ9g4</name><type>Pickup</type><desc>Part of shipment Shipment-42</desc></wpt><wpt lat="50.8629749" lon="4.3707411"><name>rUNgRL1l1TwVBPCc</name><type>Pickup</type><desc>Part of shipment Shipment-19</desc></wpt><wpt lat="50.8194436" lon="4.3374179"><name>4BDKKFdhzVMAn3BR</name><type>Unvisited</type><desc>Route engine has not provided an explanation</desc></wpt><wpt lat="50.8251532" lon="4.3424384"><name>t0u0LzTzBlIZ2SQe</name><type>Visit</type><desc>Part of shipment Shipment-8,Arrival time: 2024-01-19T17:21:00</desc></wpt><wpt lat="50.8068467" lon="4.4072418"><name>umWCplG9AlybCy9s</name><type>Unvisited</type><desc>Route engine has not provided an explanation</desc></wpt><wpt lat="50.867387" lon="4.3883278"><name>zX6JTW2LxS7XrzUd</name><type>Unvisited</type><desc>Route engine has not provided an explanation</desc></wpt><wpt lat="50.867387" lon="4.3883278"><name>nlBzI2cx2iapBQ3l</name><type>Unvisited</type><desc>Route engine has not provided an explanation</desc></wpt><wpt lat="50.8376471" lon="4.4404449"><name>e7rP8vezeU4Sk3Vm</name><type>Pickup</type><desc>Part of shipment Shipment-12</desc></wpt><wpt lat="50.8134048" lon="4.3886309"><name>4Y2MF6UyTwM02wbO</name><type>Pickup</type><desc>Part of shipment Shipment-24</desc></wpt><wpt lat="50.7945005" lon="4.3528517"><name>L7GasDs9BgXEVj4k</name><type>Unvisited</type><desc>Route engine has not provided an explanation</desc></wpt><wpt lat="50.8068467" lon="4.4072418"><name>V5wyIqLfdMv82tAB</name><type>Pickup</type><desc>Part of shipment Shipment-48</desc></wpt><wpt lat="50.8641253" lon="4.3763804"><name>XSu3u2kPozQZZ9g4</name><type>Visit</type><desc>Part of shipment Shipment-42,Arrival time: 2024-01-19T15:48:00</desc></wpt><wpt lat="50.8372435" lon="4.3967617"><name>4ppNhasM6Dq4JR8Q</name><type>Pickup</type><desc>Part of shipment Shipment-29</desc></wpt><wpt lat="50.8636719" lon="4.3124886"><name>9VFKRxTyPsdzKQEb</name><type>Unvisited</type><desc>Route engine has not provided an explanation</desc></wpt><wpt lat="50.7945005" lon="4.3528517"><name>5gfcRsQ9LjARrQem</name><type>Unvisited</type><desc>Route engine has not provided an explanation</desc></wpt><wpt lat="50.8397762" lon="4.3310584"><name>c3pTa8ZgrUOijLpl</name><type>Unvisited</type><desc>Route engine has not provided an explanation</desc></wpt><wpt lat="50.8636719" lon="4.3124886"><name>YLNeSRAMyOHBS4Eo</name><type>Unvisited</type><desc>Route engine has not provided an explanation</desc></wpt><wpt lat="50.8194436" lon="4.3374179"><name>j7l2tEsUE9m6GDab</name><type>Unvisited</type><desc>Route engine has not provided an explanation</desc></wpt><wpt lat="50.8608883" lon="4.3836236"><name>NG5ZDRgi2EHvI5mP</name><type>Unvisited</type><desc>Route engine has not provided an explanation</desc></wpt><wpt lat="50.8105825" lon="4.3500797"><name>G06GQtGGsAcKB9uX</name><type>Delivery</type><desc>Part of shipment Shipment-49</desc></wpt><wpt lat="50.8068467" lon="4.4072418"><name>PGN2SnFWkDdSB9ip</name><type>Pickup</type><desc>Part of shipment Shipment-14</desc></wpt><wpt lat="50.8068467" lon="4.4072418"><name>nPSxhnm1tkCMwH42</name><type>Unvisited</type><desc>Route engine has not provided an explanation</desc></wpt><wpt lat="50.8663063" lon="4.3135083"><name>GpjGTyAviQfRhru7</name><type>Pickup</type><desc>Part of shipment Shipment-8</desc></wpt><wpt lat="50.8457674" lon="4.3875234"><name>3O4FdUbVm4QEMmLw</name><type>Pickup</type><desc>Part of shipment Shipment-43</desc></wpt><wpt lat="50.860398" lon="4.4053264"><name>bRp9kB8iPASlpdos</name><type>Delivery</type><desc>Part of shipment Shipment-30</desc></wpt><wpt lat="50.8068467" lon="4.4072418"><name>umWCplG9AlybCy9s</name><type>Pickup</type><desc>Part of shipment Shipment-4</desc></wpt><wpt lat="50.867387" lon="4.3883278"><name>ltPJ1HFtHYlWQaSc</name><type>Unvisited</type><desc>Route engine has not provided an explanation</desc></wpt><wpt lat="50.8457674" lon="4.3875234"><name>RFFA7a8vv7nX9BAu</name><type>Unvisited</type><desc>Route engine has not provided an explanation</desc></wpt><wpt lat="50.8608883" lon="4.3836236"><name>vclPTuxFKcbvdUOq</name><type>Unvisited</type><desc>Route engine has not provided an explanation</desc></wpt><wpt lat="50.8430182" lon="4.3677299"><name>3IIpOYy4hfiuWn6a</name><type>Unvisited</type><desc>Route engine has not provided an explanation</desc></wpt><wpt lat="50.8756455" lon="4.3354773"><name>4SlEbxhlx1qtnVvY</name><type>Visit</type><desc>Arrival time: 2024-01-19T12:17:00,Part of shipment Shipment-3</desc></wpt><wpt lat="50.8068467" lon="4.4072418"><name>PGN2SnFWkDdSB9ip</name><type>Unvisited</type><desc>Route engine has not provided an explanation</desc></wpt><wpt lat="50.7945005" lon="4.3528517"><name>5gfcRsQ9LjARrQem</name><type>Delivery</type><desc>Part of shipment Shipment-1</desc></wpt><wpt lat="50.8238095" lon="4.3273526"><name>WEU3u93SsrpOMztd</name><type>Unvisited</type><desc>Route engine has not provided an explanation</desc></wpt><wpt lat="50.858165" lon="4.3206333"><name>m0gf8zUwWSm1Ju8p</name><type>Unvisited</type><desc>Route engine has not provided an explanation</desc></wpt><wpt lat="50.8514229" lon="4.3565822"><name>7alJZoUaDe6UQmaw</name><type>Unvisited</type><desc>Route engine has not provided an explanation</desc></wpt><wpt lat="50.8518092" lon="4.3017668"><name>ZP6QzdtEkQmOW1Xd</name><type>Pickup</type><desc>Part of shipment Shipment-26</desc></wpt><wpt lat="50.8663063" lon="4.3135083"><name>GpjGTyAviQfRhru7</name><type>Visit</type><desc>Part of shipment Shipment-8,Arrival time: 2024-01-19T16:37:00</desc></wpt><wpt lat="50.8058243" lon="4.3126562"><name>F3P2RUos3LnzAuBW</name><type>Unvisited</type><desc>Route engine has not provided an explanation</desc></wpt><wpt lat="50.8181877" lon="4.4174686"><name>DmJpG6uIbcPTTLpL</name><type>Delivery</type><desc>Part of shipment Shipment-15</desc></wpt><wpt lat="50.8626418" lon="4.3795476"><name>E6OhINKRJd2O56uz</name><type>Unvisited</type><desc>Route engine has not provided an explanation</desc></wpt><wpt lat="50.8238095" lon="4.3273526"><name>WEU3u93SsrpOMztd</name><type>Pickup</type><desc>Part of shipment Shipment-2</desc></wpt><wpt lat="50.8397762" lon="4.3310584"><name>YDxRsjFh3A0ANMF1</name><type>Visit</type><desc>Part of shipment Shipment-32,Arrival time: 2024-01-19T10:46:00</desc></wpt><wpt lat="50.8514229" lon="4.3565822"><name>gOMZEJieQBrDfuca</name><type>Pickup</type><desc>Part of shipment Shipment-45</desc></wpt><wpt lat="50.849859" lon="4.3760086"><name>sIx5pqWajxTo6UvZ</name><type>Delivery</type><desc>Part of shipment Shipment-28</desc></wpt><wpt lat="50.8334624" lon="4.3686669"><name>H8f8X47YeuayhQmO</name><type>Pickup</type><desc>Part of shipment Shipment-28</desc></wpt><wpt lat="50.8513136" lon="4.3467838"><name>faA9MBKAnY81qVfX</name><type>Visit</type><desc>Arrival time: 2024-01-19T10:27:00,Part of shipment Shipment-27</desc></wpt><wpt lat="50.8251532" lon="4.3424384"><name>t0u0LzTzBlIZ2SQe</name><type>Delivery</type><desc>Part of shipment Shipment-8</desc></wpt><wpt lat="50.8457674" lon="4.3875234"><name>3O4FdUbVm4QEMmLw</name><type>Unvisited</type><desc>Route engine has not provided an explanation</desc></wpt><wpt lat="50.8181877" lon="4.4174686"><name>DmJpG6uIbcPTTLpL</name><type>Unvisited</type><desc>Route engine has not provided an explanation</desc></wpt><wpt lat="50.8007222" lon="4.3727093"><name>YALWkHTa0PZsf0Wg</name><type>Visit</type><desc>Arrival time: 2024-01-19T08:25:00,Part of shipment Shipment-27</desc></wpt><wpt lat="50.841846" lon="4.4224343"><name>hx87gx1C6S5MCaiF</name><type>Pickup</type><desc>Part of shipment Shipment-21</desc></wpt><wpt lat="50.8770992" lon="4.3271501"><name>pCkPXYo0bXIMLlGs</name><type>Unvisited</type><desc>Route engine has not provided an explanation</desc></wpt><wpt lat="50.867387" lon="4.3883278"><name>ltPJ1HFtHYlWQaSc</name><type>Delivery</type><desc>Part of shipment Shipment-35</desc></wpt><wpt lat="50.8068467" lon="4.4072418"><name>a0EE5jAiUP1AqLNj</name><type>Pickup</type><desc>Part of shipment Shipment-5</desc></wpt><wpt lat="50.8636719" lon="4.3124886"><name>YLNeSRAMyOHBS4Eo</name><type>Pickup</type><desc>Part of shipment Shipment-20</desc></wpt><wpt lat="50.8457674" lon="4.3875234"><name>RFFA7a8vv7nX9BAu</name><type>Delivery</type><desc>Part of shipment Shipment-23</desc></wpt><wpt lat="50.8669691" lon="4.3085214"><name>zviwW0BHKPyEE9tw</name><type>Unvisited</type><desc>Route engine has not provided an explanation</desc></wpt><wpt lat="50.8626418" lon="4.3795476"><name>s8wyuzG7ChVez0T0</name><type>Unvisited</type><desc>Route engine has not provided an explanation</desc></wpt><wpt lat="50.8068467" lon="4.4072418"><name>5i0usuIZyZAjM6Lt</name><type>Delivery</type><desc>Part of shipment Shipment-37</desc></wpt><wpt lat="50.8397762" lon="4.3310584"><name>sVgUc5dEQ0P0zATJ</name><type>Visit</type><desc>Arrival time: 2024-01-19T13:15:00,Part of shipment Shipment-34</desc></wpt><wpt lat="50.858165" lon="4.3206333"><name>AFG8yNpSDmOwHos7</name><type>Delivery</type><desc>Part of shipment Shipment-2</desc></wpt><wpt lat="50.8251532" lon="4.3424384"><name>5kbcstkzNFKlokSJ</name><type>Delivery</type><desc>Part of shipment Shipment-40</desc></wpt><wpt lat="50.8581104" lon="4.3191705"><name>JF9j9iP6xPOssF1P</name><type>Visit</type><desc>Part of shipment Shipment-31,Arrival time: 2024-01-19T12:36:00</desc></wpt><wpt lat="50.8570321" lon="4.4159472"><name>VRH5SYAPdumzWVp1</name><type>Unvisited</type><desc>Route engine has not provided an explanation</desc></wpt><wpt lat="50.8514229" lon="4.3565822"><name>YniXITFEWDQo6Kk2</name><type>Unvisited</type><desc>Route engine has not provided an explanation</desc></wpt><wpt lat="50.8514229" lon="4.3565822"><name>YniXITFEWDQo6Kk2</name><type>Pickup</type><desc>Part of shipment Shipment-15</desc></wpt><wpt lat="50.8518092" lon="4.3017668"><name>u0x2tVUARqFotd4z</name><type>Visit</type><desc>Arrival time: 2024-01-19T11:57:00,Part of shipment Shipment-13</desc></wpt><wpt lat="50.8157886" lon="4.3597979"><name>PTrWbVXGKQouQy1O</name><type>Unvisited</type><desc>Route engine has not provided an explanation</desc></wpt><wpt lat="50.8007222" lon="4.3727093"><name>YALWkHTa0PZsf0Wg</name><type>Pickup</type><desc>Part of shipment Shipment-27</desc></wpt><wpt lat="50.8111409" lon="4.3588481"><name>SPmsQxU2J1sAewSa</name><type>Delivery</type><desc>Part of shipment Shipment-22</desc></wpt><wpt lat="50.8380819" lon="4.3011898"><name>jJCJZob5GnAAVU9t</name><type>Delivery</type><desc>Part of shipment Shipment-36</desc></wpt><wpt lat="50.8194436" lon="4.3374179"><name>4BDKKFdhzVMAn3BR</name><type>Pickup</type><desc>Part of shipment Shipment-22</desc></wpt><wpt lat="50.8570321" lon="4.4159472"><name>hxaEuRELulgwC4Zo</name><type>Delivery</type><desc>Part of shipment Shipment-12</desc></wpt><wpt lat="50.8380819" lon="4.3011898"><name>I0tdrONfFsP3kXpz</name><type>Unvisited</type><desc>Route engine has not provided an explanation</desc></wpt><wpt lat="50.8111409" lon="4.3588481"><name>SPmsQxU2J1sAewSa</name><type>Unvisited</type><desc>Route engine has not provided an explanation</desc></wpt><wpt lat="50.8340559" lon="4.322787"><name>6dzuhoZj8yuKONc2</name><type>Delivery</type><desc>Part of shipment Shipment-10</desc></wpt><wpt lat="50.8430182" lon="4.3677299"><name>Dc2ttIqnmLFZci1M</name><type>Unvisited</type><desc>Route engine has not provided an explanation</desc></wpt><wpt lat="50.8340559" lon="4.322787"><name>6dzuhoZj8yuKONc2</name><type>Unvisited</type><desc>Route engine has not provided an explanation</desc></wpt><wpt lat="50.8372435" lon="4.3967617"><name>XRLtQ6eYsSV88AI2</name><type>Unvisited</type><desc>Route engine has not provided an explanation</desc></wpt><wpt lat="50.8430182" lon="4.3677299"><name>Dc2ttIqnmLFZci1M</name><type>Delivery</type><desc>Part of shipment Shipment-47</desc></wpt><wpt lat="50.8632266" lon="4.3645622"><name>vnHnTSNA5RdACSOB</name><type>Visit</type><desc>Arrival time: 2024-01-19T16:16:00,Part of shipment Shipment-41</desc></wpt><wpt lat="50.8629749" lon="4.3707411"><name>0cUoLr9JUZoZcYNO</name><type>Delivery</type><desc>Part of shipment Shipment-46</desc></wpt><wpt lat="50.8181877" lon="4.4174686"><name>iuKL2bk6MJNBy0uz</name><type>Delivery</type><desc>Part of shipment Shipment-16</desc></wpt><wpt lat="50.8608883" lon="4.3836236"><name>NG5ZDRgi2EHvI5mP</name><type>Pickup</type><desc>Part of shipment Shipment-47</desc></wpt><wpt lat="50.8380819" lon="4.3011898"><name>jJCJZob5GnAAVU9t</name><type>Visit</type><desc>Arrival time: 2024-01-19T11:42:00,Part of shipment Shipment-36</desc></wpt><wpt lat="50.8641253" lon="4.3763804"><name>Ixd24mTZUQH8LwZg</name><type>Visit</type><desc>Part of shipment Shipment-37,Arrival time: 2024-01-19T09:50:00</desc></wpt></gpx>