<?xml version='1.0' encoding='UTF-8'?><gpx name="Route-1" version="1.1" creator="org.metavrp.gpx"><desc/><rte><name>vehicle-0 2024-01-19</name><rtept lat="50.8038077" lon="3.7636437"/><rtept lat="50.927383" lon="4.4378777"/><rtept lat="50.8831407" lon="3.894315"/><rtept lat="51.0110005" lon="3.838409"/><rtept lat="51.1866506" lon="2.8154311"/><rtept lat="51.1866506" lon="2.8154311"/><rtept lat="51.0634194" lon="3.8791517"/><rtept lat="51.1060927" lon="4.3877603"/><rtept lat="51.0208363" lon="4.1201107"/><rtept lat="51.0208363" lon="4.1201107"/><rtept lat="51.2148231" lon="4.3982884"/><rtept lat="51.2258761" lon="4.4265422"/><rtept lat="51.2148231" lon="4.3982884"/><rtept lat="51.1760957" lon="4.3601265"/><rtept lat="51.2120128" lon="3.3847628"/><rtept lat="51.0188625" lon="3.7217039"/><rtept lat="51.193481" lon="4.1848471"/><rtept lat="50.8038077" lon="3.7636437"/></rte><wpt lat="51.0188625" lon="3.7217039"><name>zQvY6N5pMyGPlV6T</name><type>Visit</type><desc>Arrival time: 2024-01-19T19:02:00,Part of shipment Shipment-16</desc></wpt><wpt lat="51.0110005" lon="3.838409"><name>bcHlC3mgn02oWEaX</name><type>Delivery</type><desc>Part of shipment Shipment-34</desc></wpt><wpt lat="51.1286149" lon="2.7571156"><name>LCZ4nGIBTMFDIO9X</name><type>Delivery</type><desc>Part of shipment Shipment-17</desc></wpt><wpt lat="51.2110457" lon="4.3470938"><name>4fYB7UN3Yd9XmjYT</name><type>Unvisited</type><desc>Route engine has not provided an explanation</desc></wpt><wpt lat="51.1788663" lon="4.3870858"><name>GRREwB8dJImBLDyM</name><type>Unvisited</type><desc>Route engine has not provided an explanation</desc></wpt><wpt lat="51.2203192" lon="2.9105751"><name>GxnMinsCx0pnLJNr</name><type>Unvisited</type><desc>Route engine has not provided an explanation</desc></wpt><wpt lat="51.2274766" lon="4.473107"><name>tLonXFwgnCea1EfR</name><type>Pickup</type><desc>Part of shipment Shipment-34</desc></wpt><wpt lat="51.2178354" lon="2.8831705"><name>TPW9XQg2ZQr8E5Uc</name><type>Unvisited</type><desc>Route engine has not provided an explanation</desc></wpt><wpt lat="51.1060927" lon="4.3877603"><name>VX9FvwzrRl676DC2</name><type>Pickup</type><desc>Part of shipment Shipment-5</desc></wpt><wpt lat="50.9069485" lon="4.8745185"><name>9QHxDuJTIGKAODPL</name><type>Delivery</type><desc>Part of shipment Shipment-23</desc></wpt><wpt lat="51.2986514" lon="4.5149834"><name>ZqPjbKTzf1AYJyeK</name><type>Unvisited</type><desc>Route engine has not provided an explanation</desc></wpt><wpt lat="51.073486" lon="5.5260026"><name>M40cPKz1UqFjdERN</name><type>Delivery</type><desc>Part of shipment Shipment-28</desc></wpt><wpt lat="51.1866506" lon="2.8154311"><name>Y00uTMWWcFueZqQP</name><type>Delivery</type><desc>Part of shipment Shipment-36</desc></wpt><wpt lat="51.073486" lon="5.5260026"><name>4Syksc1aKZdWm8ch</name><type>Unvisited</type><desc>Route engine has not provided an explanation</desc></wpt><wpt lat="50.8899344" lon="4.7759757"><name>VgvNVhajRKyoeCYW</name><type>Pickup</type><desc>Part of shipment Shipment-28</desc></wpt><wpt lat="51.1866506" lon="2.8154311"><name>WAv5jGF8aPalhcOG</name><type>Pickup</type><desc>Part of shipment Shipment-49</desc></wpt><wpt lat="51.2986514" lon="4.5149834"><name>ouH4pPR9NckkX3yn</name><type>Pickup</type><desc>Part of shipment Shipment-37</desc></wpt><wpt lat="50.9298202" lon="5.5338341"><name>XF62oOCh1QeR9F5d</name><type>Unvisited</type><desc>Route engine has not provided an explanation</desc></wpt><wpt lat="51.0165315" lon="3.6333627"><name>cqNqqJOodQU26nrU</name><type>Pickup</type><desc>Part of shipment Shipment-46</desc></wpt><wpt lat="51.1788663" lon="4.3870858"><name>GRREwB8dJImBLDyM</name><type>Pickup</type><desc>Part of shipment Shipment-30</desc></wpt><wpt lat="50.8038077" lon="3.7636437"><name>Start location for vehicle-0</name><type>Vehicle Start</type><desc>Cargo Capacity: [1200, 5500]</desc></wpt><wpt lat="51.0634194" lon="3.8791517"><name>NGZxuzFGdKmlS0Rb</name><type>Visit</type><desc>Part of shipment Shipment-29,Arrival time: 2024-01-19T13:15:00</desc></wpt><wpt lat="51.2258761" lon="4.4265422"><name>UphC7huk52qYDb71</name><type>Pickup</type><desc>Part of shipment Shipment-20</desc></wpt><wpt lat="51.1699578" lon="2.7791734"><name>QNUd4jLTWwGBs263</name><type>Delivery</type><desc>Part of shipment Shipment-30</desc></wpt><wpt lat="51.0188625" lon="3.7217039"><name>UFAyW7z4T3iJpIwg</name><type>Unvisited</type><desc>Route engine has not provided an explanation</desc></wpt><wpt lat="51.1699578" lon="2.7791734"><name>j7yP6sRHcQPRXL0e</name><type>Pickup</type><desc>Part of shipment Shipment-9</desc></wpt><wpt lat="50.8899344" lon="4.7759757"><name>VgvNVhajRKyoeCYW</name><type>Unvisited</type><desc>Route engine has not provided an explanation</desc></wpt><wpt lat="51.0208363" lon="4.1201107"><name>R9JcIAHbY9fOlBRo</name><type>Delivery</type><desc>Part of shipment Shipment-29</desc></wpt><wpt lat="51.1952847" lon="4.7224883"><name>PN9qZNOQxxM1JKx0</name><type>Delivery</type><desc>Part of shipment Shipment-8</desc></wpt><wpt lat="51.1760957" lon="4.3601265"><name>cJHVAO1TvvSRuicQ</name><type>Visit</type><desc>Arrival time: 2024-01-19T16:58:00,Part of shipment Shipment-38</desc></wpt><wpt lat="51.2361078" lon="2.9514684"><name>XAAM4lE4wk23WA25</name><type>Pickup</type><desc>Part of shipment Shipment-45</desc></wpt><wpt lat="51.2089459" lon="4.4545671"><name>3nMMEvs5j6bKlKnI</name><type>Delivery</type><desc>Part of shipment Shipment-25</desc></wpt><wpt lat="51.1866506" lon="2.8154311"><name>Nc6SUEYkEC7Tq8jg</name><type>Delivery</type><desc>Part of shipment Shipment-31</desc></wpt><wpt lat="50.927383" lon="4.4378777"><name>eZ434TCrDgSmxR6X</name><type>Pickup</type><desc>Part of shipment Shipment-7</desc></wpt><wpt lat="51.2135683" lon="2.9273288"><name>xkKFwRALMaAgSUmq</name><type>Unvisited</type><desc>Route engine has not provided an explanation</desc></wpt><wpt lat="50.8710365" lon="4.6987828"><name>ogmwng13CNTdbpH4</name><type>Pickup</type><desc>Part of shipment Shipment-40</desc></wpt><wpt lat="51.2298891" lon="3.2445928"><name>randS8XkyfOwtqJU</name><type>Delivery</type><desc>Part of shipment Shipment-2</desc></wpt><wpt lat="51.2258761" lon="4.4265422"><name>lV9mkvfnlyPV86Rg</name><type>Unvisited</type><desc>Route engine has not provided an explanation</desc></wpt><wpt lat="51.1286149" lon="2.7571156"><name>LCZ4nGIBTMFDIO9X</name><type>Unvisited</type><desc>Route engine has not provided an explanation</desc></wpt><wpt lat="50.9111642" lon="3.5718554"><name>eO1LihX4h60LoP32</name><type>Unvisited</type><desc>Route engine has not provided an explanation</desc></wpt><wpt lat="51.0208363" lon="4.1201107"><name>x99I7YYUInaRnw9m</name><type>Delivery</type><desc>Part of shipment Shipment-44</desc></wpt><wpt lat="51.0110005" lon="3.838409"><name>M26h87nckkkryQyx</name><type>Pickup</type><desc>Part of shipment Shipment-31</desc></wpt><wpt lat="51.0165315" lon="3.6333627"><name>NpYXHG9aYgLE3cVK</name><type>Delivery</type><desc>Part of shipment Shipment-26</desc></wpt><wpt lat="51.073486" lon="5.5260026"><name>LNETu4Fh5HTWM2Ql</name><type>Pickup</type><desc>Part of shipment Shipment-21</desc></wpt><wpt lat="50.9111642" lon="3.5718554"><name>eO1LihX4h60LoP32</name><type>Pickup</type><desc>Part of shipment Shipment-3</desc></wpt><wpt lat="51.0188625" lon="3.7217039"><name>UFAyW7z4T3iJpIwg</name><type>Pickup</type><desc>Part of shipment Shipment-1</desc></wpt><wpt lat="51.0165315" lon="3.6333627"><name>NpYXHG9aYgLE3cVK</name><type>Unvisited</type><desc>Route engine has not provided an explanation</desc></wpt><wpt lat="51.0540427" lon="4.9753501"><name>KLSpPF2YJqfj81oC</name><type>Delivery</type><desc>Part of shipment Shipment-43</desc></wpt><wpt lat="51.2148231" lon="4.3982884"><name>kqRRJDr6YdM8VGf2</name><type>Pickup</type><desc>Part of shipment Shipment-17</desc></wpt><wpt lat="50.8918392" lon="4.6999183"><name>iIYF9cQ5yBA3HvHa</name><type>Unvisited</type><desc>Route engine has not provided an explanation</desc></wpt><wpt lat="50.9298202" lon="5.5338341"><name>XF62oOCh1QeR9F5d</name><type>Delivery</type><desc>Part of shipment Shipment-39</desc></wpt><wpt lat="51.2361078" lon="2.9514684"><name>XAAM4lE4wk23WA25</name><type>Unvisited</type><desc>Route engine has not provided an explanation</desc></wpt><wpt lat="50.8918392" lon="4.6999183"><name>iIYF9cQ5yBA3HvHa</name><type>Pickup</type><desc>Part of shipment Shipment-47</desc></wpt><wpt lat="51.0597885" lon="3.7045448"><name>LLlaAymUTc1zfFQL</name><type>Unvisited</type><desc>Route engine has not provided an explanation</desc></wpt><wpt lat="50.8710365" lon="4.6987828"><name>ogmwng13CNTdbpH4</name><type>Unvisited</type><desc>Route engine has not provided an explanation</desc></wpt><wpt lat="51.0540427" lon="4.9753501"><name>pwCw7zqCX84F5Y5u</name><type>Unvisited</type><desc>Route engine has not provided an explanation</desc></wpt><wpt lat="50.9652772" lon="3.9840999"><name>MPpYls0LKzVPa3sW</name><type>Unvisited</type><desc>Route engine has not provided an explanation</desc></wpt><wpt lat="51.1760957" lon="4.3601265"><name>RRcKU3FnCdnAlnII</name><type>Pickup</type><desc>Part of shipment Shipment-23</desc></wpt><wpt lat="51.0188625" lon="3.7217039"><name>mrY3mamjqIUemFjC</name><type>Delivery</type><desc>Part of shipment Shipment-42</desc></wpt><wpt lat="51.2986514" lon="4.5149834"><name>ZqPjbKTzf1AYJyeK</name><type>Delivery</type><desc>Part of shipment Shipment-48</desc></wpt><wpt lat="51.073486" lon="5.5260026"><name>4Syksc1aKZdWm8ch</name><type>Pickup</type><desc>Part of shipment Shipment-33</desc></wpt><wpt lat="50.8427111" lon="4.4945651"><name>X6CrBVm4sP9X7KzS</name><type>Delivery</type><desc>Part of shipment Shipment-41</desc></wpt><wpt lat="51.2274766" lon="4.473107"><name>IHZKlaeXSqdlb8DL</name><type>Pickup</type><desc>Part of shipment Shipment-36</desc></wpt><wpt lat="50.8918392" lon="4.6999183"><name>mE6zWaF37zegBoPC</name><type>Unvisited</type><desc>Route engine has not provided an explanation</desc></wpt><wpt lat="51.193481" lon="4.1848471"><name>yrUtnBRh5BZV1Jxq</name><type>Delivery</type><desc>Part of shipment Shipment-16</desc></wpt><wpt lat="50.9069485" lon="4.8745185"><name>GgHAYBKMJuXk8IcK</name><type>Unvisited</type><desc>Route engine has not provided an explanation</desc></wpt><wpt lat="51.0764967" lon="3.7293421"><name>LLwYxz4o9d9LUMoU</name><type>Pickup</type><desc>Part of shipment Shipment-39</desc></wpt><wpt lat="50.8831407" lon="3.894315"><name>fEjL6E89EaDb5Y3a</name><type>Visit</type><desc>Part of shipment Shipment-7,Arrival time: 2024-01-19T09:57:00</desc></wpt><wpt lat="51.2148231" lon="4.3982884"><name>rTAUVP66Tz8mRJKH</name><type>Delivery</type><desc>Part of shipment Shipment-4</desc></wpt><wpt lat="51.0494459" lon="3.6598382"><name>GK95PDJEPXiVvnPC</name><type>Unvisited</type><desc>Route engine has not provided an explanation</desc></wpt><wpt lat="50.8831407" lon="3.894315"><name>fEjL6E89EaDb5Y3a</name><type>Delivery</type><desc>Part of shipment Shipment-7</desc></wpt><wpt lat="51.0764967" lon="3.7293421"><name>rYPQpnif08uJ0nUN</name><type>Pickup</type><desc>Part of shipment Shipment-41</desc></wpt><wpt lat="51.2274766" lon="4.473107"><name>tLonXFwgnCea1EfR</name><type>Unvisited</type><desc>Route engine has not provided an explanation</desc></wpt><wpt lat="51.2148231" lon="4.3982884"><name>kqRRJDr6YdM8VGf2</name><type>Unvisited</type><desc>Route engine has not provided an explanation</desc></wpt><wpt lat="51.1335228" lon="5.0790415"><name>sR8xYKsty2gGf5eb</name><type>Unvisited</type><desc>Route engine has not provided an explanation</desc></wpt><wpt lat="50.9069485" lon="4.8745185"><name>GgHAYBKMJuXk8IcK</name><type>Delivery</type><desc>Part of shipment Shipment-37</desc></wpt><wpt lat="51.2178354" lon="2.8831705"><name>TPW9XQg2ZQr8E5Uc</name><type>Pickup</type><desc>Part of shipment Shipment-6</desc></wpt><wpt lat="51.1760957" lon="4.3601265"><name>YkUVX2XrE1r4yBFS</name><type>Delivery</type><desc>Part of shipment Shipment-35</desc></wpt><wpt lat="51.1760957" lon="4.3601265"><name>x6DAuCiVRZk787E7</name><type>Pickup</type><desc>Part of shipment Shipment-2</desc></wpt><wpt lat="51.073486" lon="5.5260026"><name>x8BeH43e9t8l30AH</name><type>Unvisited</type><desc>Route engine has not provided an explanation</desc></wpt><wpt lat="51.2120128" lon="3.3847628"><name>0Fk4iZvmJYkuJFLu</name><type>Delivery</type><desc>Part of shipment Shipment-38</desc></wpt><wpt lat="51.0540427" lon="4.9753501"><name>pwCw7zqCX84F5Y5u</name><type>Pickup</type><desc>Part of shipment Shipment-27</desc></wpt><wpt lat="51.1699578" lon="2.7791734"><name>j7yP6sRHcQPRXL0e</name><type>Unvisited</type><desc>Route engine has not provided an explanation</desc></wpt><wpt lat="51.1089972" lon="2.6126407"><name>WauH5pKaHxDE0foQ</name><type>Pickup</type><desc>Part of shipment Shipment-11</desc></wpt><wpt lat="51.1577401" lon="4.9936552"><name>er4TCyndR7kBUm6T</name><type>Unvisited</type><desc>Route engine has not provided an explanation</desc></wpt><wpt lat="50.9069485" lon="4.8745185"><name>9QHxDuJTIGKAODPL</name><type>Unvisited</type><desc>Route engine has not provided an explanation</desc></wpt><wpt lat="51.0110005" lon="3.838409"><name>M26h87nckkkryQyx</name><type>Visit</type><desc>Arrival time: 2024-01-19T10:39:00,Part of shipment Shipment-31</desc></wpt><wpt lat="51.2274766" lon="4.473107"><name>IHZKlaeXSqdlb8DL</name><type>Unvisited</type><desc>Route engine has not provided an explanation</desc></wpt><wpt lat="51.0208363" lon="4.1201107"><name>I49ct8KjE46pBO5a</name><type>Visit</type><desc>Arrival time: 2024-01-19T15:04:00,Part of shipment Shipment-4</desc></wpt><wpt lat="51.0165315" lon="3.6333627"><name>SMinOWMAP3nUYrVO</name><type>Delivery</type><desc>Part of shipment Shipment-19</desc></wpt><wpt lat="51.2361078" lon="2.9514684"><name>HY6BwFFFcMgzv4Hh</name><type>Unvisited</type><desc>Route engine has not provided an explanation</desc></wpt><wpt lat="51.0540427" lon="4.9753501"><name>Nq2yns7xYqfLd2OY</name><type>Delivery</type><desc>Part of shipment Shipment-15</desc></wpt><wpt lat="51.1866506" lon="2.8154311"><name>Y00uTMWWcFueZqQP</name><type>Unvisited</type><desc>Route engine has not provided an explanation</desc></wpt><wpt lat="51.0165315" lon="3.6333627"><name>YKe7U8eqYHLYLDi0</name><type>Unvisited</type><desc>Route engine has not provided an explanation</desc></wpt><wpt lat="51.2148231" lon="4.3982884"><name>TczSCx2EoT965HOH</name><type>Delivery</type><desc>Part of shipment Shipment-20</desc></wpt><wpt lat="51.2135683" lon="2.9273288"><name>YDEvUCNRTrbQiMwd</name><type>Pickup</type><desc>Part of shipment Shipment-48</desc></wpt><wpt lat="51.2298891" lon="3.2445928"><name>hmgG4C7tGYTxINYE</name><type>Unvisited</type><desc>Route engine has not provided an explanation</desc></wpt><wpt lat="51.2298891" lon="3.2445928"><name>randS8XkyfOwtqJU</name><type>Unvisited</type><desc>Route engine has not provided an explanation</desc></wpt><wpt lat="51.073486" lon="5.5260026"><name>x8BeH43e9t8l30AH</name><type>Delivery</type><desc>Part of shipment Shipment-3</desc></wpt><wpt lat="51.1060927" lon="4.3877603"><name>HPR9VXJfLpB5Ci5o</name><type>Pickup</type><desc>Part of shipment Shipment-35</desc></wpt><wpt lat="51.073486" lon="5.5260026"><name>LNETu4Fh5HTWM2Ql</name><type>Unvisited</type><desc>Route engine has not provided an explanation</desc></wpt><wpt lat="51.1952847" lon="4.7224883"><name>PN9qZNOQxxM1JKx0</name><type>Unvisited</type><desc>Route engine has not provided an explanation</desc></wpt><wpt lat="51.1699578" lon="2.7791734"><name>wLtg8ntpyENjiKeP</name><type>Delivery</type><desc>Part of shipment Shipment-27</desc></wpt><wpt lat="51.0597885" lon="3.7045448"><name>LLlaAymUTc1zfFQL</name><type>Delivery</type><desc>Part of shipment Shipment-24</desc></wpt><wpt lat="50.927383" lon="4.4378777"><name>eZ434TCrDgSmxR6X</name><type>Visit</type><desc>Part of shipment Shipment-7,Arrival time: 2024-01-19T09:03:00</desc></wpt><wpt lat="50.9652772" lon="3.9840999"><name>MPpYls0LKzVPa3sW</name><type>Pickup</type><desc>Part of shipment Shipment-10</desc></wpt><wpt lat="50.911607" lon="4.4336001"><name>r9s9hf5ISb3LQ0ej</name><type>Unvisited</type><desc>Route engine has not provided an explanation</desc></wpt><wpt lat="51.2203192" lon="2.9105751"><name>GxnMinsCx0pnLJNr</name><type>Delivery</type><desc>Part of shipment Shipment-40</desc></wpt><wpt lat="51.0764967" lon="3.7293421"><name>LLwYxz4o9d9LUMoU</name><type>Unvisited</type><desc>Route engine has not provided an explanation</desc></wpt><wpt lat="50.8918392" lon="4.6999183"><name>7IUIVhBwZ9TKzxna</name><type>Delivery</type><desc>Part of shipment Shipment-13</desc></wpt><wpt lat="51.2258761" lon="4.4265422"><name>UphC7huk52qYDb71</name><type>Visit</type><desc>Arrival time: 2024-01-19T16:14:00,Part of shipment Shipment-20</desc></wpt><wpt lat="51.1866506" lon="2.8154311"><name>Nc6SUEYkEC7Tq8jg</name><type>Visit</type><desc>Part of shipment Shipment-31,Arrival time: 2024-01-19T11:54:00</desc></wpt><wpt lat="51.2148231" lon="4.3982884"><name>yq5JAb2DnjlBoz1M</name><type>Unvisited</type><desc>Route engine has not provided an explanation</desc></wpt><wpt lat="51.0634194" lon="3.8791517"><name>NGZxuzFGdKmlS0Rb</name><type>Pickup</type><desc>Part of shipment Shipment-29</desc></wpt><wpt lat="51.1760957" lon="4.3601265"><name>cJHVAO1TvvSRuicQ</name><type>Pickup</type><desc>Part of shipment Shipment-38</desc></wpt><wpt lat="51.0764967" lon="3.7293421"><name>rYPQpnif08uJ0nUN</name><type>Unvisited</type><desc>Route engine has not provided an explanation</desc></wpt><wpt lat="51.2148231" lon="4.3982884"><name>rTAUVP66Tz8mRJKH</name><type>Visit</type><desc>Part of shipment Shipment-4,Arrival time: 2024-01-19T15:53:00</desc></wpt><wpt lat="51.1699578" lon="2.7791734"><name>3ZRFNhpBXE9Dp8ZG</name><type>Unvisited</type><desc>Route engine has not provided an explanation</desc></wpt><wpt lat="51.2148231" lon="4.3982884"><name>AJsWMry6Dm3mnLVE</name><type>Unvisited</type><desc>Route engine has not provided an explanation</desc></wpt><wpt lat="51.2298891" lon="3.2445928"><name>bKgD4yjPfUENM9yq</name><type>Unvisited</type><desc>Route engine has not provided an explanation</desc></wpt><wpt lat="51.340518" lon="3.2360484"><name>m9zq9Mi63M32rQ7u</name><type>Pickup</type><desc>Part of shipment Shipment-19</desc></wpt><wpt lat="51.1952847" lon="4.7224883"><name>L9SATxK6g8QaM6Pg</name><type>Unvisited</type><desc>Route engine has not provided an explanation</desc></wpt><wpt lat="51.1866506" lon="2.8154311"><name>RZbXEsziXUU086RW</name><type>Pickup</type><desc>Part of shipment Shipment-42</desc></wpt><wpt lat="51.1866506" lon="2.8154311"><name>WAv5jGF8aPalhcOG</name><type>Visit</type><desc>Arrival time: 2024-01-19T12:04:00,Part of shipment Shipment-49</desc></wpt><wpt lat="51.0540427" lon="4.9753501"><name>8tH8IyJqkhibtdhY</name><type>Delivery</type><desc>Part of shipment Shipment-1</desc></wpt><wpt lat="51.2258761" lon="4.4265422"><name>lV9mkvfnlyPV86Rg</name><type>Pickup</type><desc>Part of shipment Shipment-15</desc></wpt><wpt lat="51.0188625" lon="3.7217039"><name>mrY3mamjqIUemFjC</name><type>Unvisited</type><desc>Route engine has not provided an explanation</desc></wpt><wpt lat="51.1866506" lon="2.8154311"><name>6mb5UWJPS1H6ABFz</name><type>Unvisited</type><desc>Route engine has not provided an explanation</desc></wpt><wpt lat="51.0540427" lon="4.9753501"><name>KLSpPF2YJqfj81oC</name><type>Unvisited</type><desc>Route engine has not provided an explanation</desc></wpt><wpt lat="51.2203192" lon="2.9105751"><name>3EgvSVmavQ9C3QM5</name><type>Unvisited</type><desc>Route engine has not provided an explanation</desc></wpt><wpt lat="51.073486" lon="5.5260026"><name>M40cPKz1UqFjdERN</name><type>Unvisited</type><desc>Route engine has not provided an explanation</desc></wpt><wpt lat="51.1699578" lon="2.7791734"><name>wLtg8ntpyENjiKeP</name><type>Unvisited</type><desc>Route engine has not provided an explanation</desc></wpt><wpt lat="51.2110457" lon="4.3470938"><name>4fYB7UN3Yd9XmjYT</name><type>Delivery</type><desc>Part of shipment Shipment-47</desc></wpt><wpt lat="51.2120128" lon="3.3847628"><name>TFRRTXnNdRDphAo6</name><type>Unvisited</type><desc>Route engine has not provided an explanation</desc></wpt><wpt lat="51.1699578" lon="2.7791734"><name>3ZRFNhpBXE9Dp8ZG</name><type>Delivery</type><desc>Part of shipment Shipment-45</desc></wpt><wpt lat="51.1577401" lon="4.9936552"><name>er4TCyndR7kBUm6T</name><type>Delivery</type><desc>Part of shipment Shipment-0</desc></wpt><wpt lat="51.0208363" lon="4.1201107"><name>I49ct8KjE46pBO5a</name><type>Pickup</type><desc>Part of shipment Shipment-4</desc></wpt><wpt lat="51.2986514" lon="4.5149834"><name>ouH4pPR9NckkX3yn</name><type>Unvisited</type><desc>Route engine has not provided an explanation</desc></wpt><wpt lat="51.2110457" lon="4.3470938"><name>x63SckRKH4NL0CJK</name><type>Pickup</type><desc>Part of shipment Shipment-18</desc></wpt><wpt lat="51.0188625" lon="3.7217039"><name>zQvY6N5pMyGPlV6T</name><type>Pickup</type><desc>Part of shipment Shipment-16</desc></wpt><wpt lat="51.2135683" lon="2.9273288"><name>xkKFwRALMaAgSUmq</name><type>Pickup</type><desc>Part of shipment Shipment-8</desc></wpt><wpt lat="51.2120128" lon="3.3847628"><name>0Fk4iZvmJYkuJFLu</name><type>Visit</type><desc>Arrival time: 2024-01-19T18:12:00,Part of shipment Shipment-38</desc></wpt><wpt lat="51.0110005" lon="3.838409"><name>bcHlC3mgn02oWEaX</name><type>Unvisited</type><desc>Route engine has not provided an explanation</desc></wpt><wpt lat="51.1760957" lon="4.3601265"><name>RRcKU3FnCdnAlnII</name><type>Unvisited</type><desc>Route engine has not provided an explanation</desc></wpt><wpt lat="51.2135683" lon="2.9273288"><name>YDEvUCNRTrbQiMwd</name><type>Unvisited</type><desc>Route engine has not provided an explanation</desc></wpt><wpt lat="51.0165315" lon="3.6333627"><name>SMinOWMAP3nUYrVO</name><type>Unvisited</type><desc>Route engine has not provided an explanation</desc></wpt><wpt lat="51.1060927" lon="4.3877603"><name>VX9FvwzrRl676DC2</name><type>Unvisited</type><desc>Route engine has not provided an explanation</desc></wpt><wpt lat="50.8427111" lon="4.4945651"><name>X6CrBVm4sP9X7KzS</name><type>Unvisited</type><desc>Route engine has not provided an explanation</desc></wpt><wpt lat="51.2361078" lon="2.9514684"><name>HY6BwFFFcMgzv4Hh</name><type>Delivery</type><desc>Part of shipment Shipment-9</desc></wpt><wpt lat="50.9298202" lon="5.5338341"><name>8dpHKmbWMHSl39Bk</name><type>Unvisited</type><desc>Route engine has not provided an explanation</desc></wpt><wpt lat="51.0165315" lon="3.6333627"><name>cqNqqJOodQU26nrU</name><type>Unvisited</type><desc>Route engine has not provided an explanation</desc></wpt><wpt lat="51.0165315" lon="3.6333627"><name>YKe7U8eqYHLYLDi0</name><type>Pickup</type><desc>Part of shipment Shipment-25</desc></wpt><wpt lat="51.0208363" lon="4.1201107"><name>R9JcIAHbY9fOlBRo</name><type>Visit</type><desc>Part of shipment Shipment-29,Arrival time: 2024-01-19T14:54:00</desc></wpt><wpt lat="50.8918392" lon="4.6999183"><name>Ubrztl79vDOLK43j</name><type>Unvisited</type><desc>Route engine has not provided an explanation</desc></wpt><wpt lat="50.8918392" lon="4.6999183"><name>Ubrztl79vDOLK43j</name><type>Pickup</type><desc>Part of shipment Shipment-0</desc></wpt><wpt lat="51.1760957" lon="4.3601265"><name>x6DAuCiVRZk787E7</name><type>Unvisited</type><desc>Route engine has not provided an explanation</desc></wpt><wpt lat="50.8918392" lon="4.6999183"><name>G4BTVujhZyKL6vaP</name><type>Pickup</type><desc>Part of shipment Shipment-32</desc></wpt><wpt lat="50.9069485" lon="4.8745185"><name>P1PFrZt0ytJzgxSX</name><type>Unvisited</type><desc>Route engine has not provided an explanation</desc></wpt><wpt lat="51.2298891" lon="3.2445928"><name>hmgG4C7tGYTxINYE</name><type>Pickup</type><desc>Part of shipment Shipment-24</desc></wpt><wpt lat="51.0110005" lon="3.838409"><name>6a54vwpsMSdJHoY4</name><type>Delivery</type><desc>Part of shipment Shipment-22</desc></wpt><wpt lat="51.2120128" lon="3.3847628"><name>TFRRTXnNdRDphAo6</name><type>Pickup</type><desc>Part of shipment Shipment-22</desc></wpt><wpt lat="51.1760957" lon="4.3601265"><name>YkUVX2XrE1r4yBFS</name><type>Unvisited</type><desc>Route engine has not provided an explanation</desc></wpt><wpt lat="51.2089459" lon="4.4545671"><name>3nMMEvs5j6bKlKnI</name><type>Unvisited</type><desc>Route engine has not provided an explanation</desc></wpt><wpt lat="51.1829383" lon="3.5706859"><name>VwRh2jbyX9UU7B8g</name><type>Delivery</type><desc>Part of shipment Shipment-18</desc></wpt><wpt lat="51.1788663" lon="4.3870858"><name>02Ab6hxenDmHanFD</name><type>Unvisited</type><desc>Route engine has not provided an explanation</desc></wpt><wpt lat="51.2110457" lon="4.3470938"><name>x63SckRKH4NL0CJK</name><type>Unvisited</type><desc>Route engine has not provided an explanation</desc></wpt><wpt lat="50.8918392" lon="4.6999183"><name>7IUIVhBwZ9TKzxna</name><type>Unvisited</type><desc>Route engine has not provided an explanation</desc></wpt><wpt lat="50.9652772" lon="3.9840999"><name>dsxLdfBoZy8PuLRN</name><type>Pickup</type><desc>Part of shipment Shipment-13</desc></wpt><wpt lat="51.1060927" lon="4.3877603"><name>HPR9VXJfLpB5Ci5o</name><type>Unvisited</type><desc>Route engine has not provided an explanation</desc></wpt><wpt lat="51.340518" lon="3.2360484"><name>ABminMSeqIKRe5TY</name><type>Delivery</type><desc>Part of shipment Shipment-33</desc></wpt><wpt lat="51.2203192" lon="2.9105751"><name>3EgvSVmavQ9C3QM5</name><type>Pickup</type><desc>Part of shipment Shipment-26</desc></wpt><wpt lat="51.2148231" lon="4.3982884"><name>yq5JAb2DnjlBoz1M</name><type>Pickup</type><desc>Part of shipment Shipment-43</desc></wpt><wpt lat="51.2148231" lon="4.3982884"><name>AJsWMry6Dm3mnLVE</name><type>Delivery</type><desc>Part of shipment Shipment-21</desc></wpt><wpt lat="50.8918392" lon="4.6999183"><name>G4BTVujhZyKL6vaP</name><type>Unvisited</type><desc>Route engine has not provided an explanation</desc></wpt><wpt lat="50.9652772" lon="3.9840999"><name>dsxLdfBoZy8PuLRN</name><type>Unvisited</type><desc>Route engine has not provided an explanation</desc></wpt><wpt lat="51.1060927" lon="4.3877603"><name>qpBlWqTCRXIwjQvj</name><type>Delivery</type><desc>Part of shipment Shipment-49</desc></wpt><wpt lat="51.2298891" lon="3.2445928"><name>bKgD4yjPfUENM9yq</name><type>Delivery</type><desc>Part of shipment Shipment-32</desc></wpt><wpt lat="50.911607" lon="4.4336001"><name>r9s9hf5ISb3LQ0ej</name><type>Delivery</type><desc>Part of shipment Shipment-11</desc></wpt><wpt lat="51.1788663" lon="4.3870858"><name>02Ab6hxenDmHanFD</name><type>Delivery</type><desc>Part of shipment Shipment-12</desc></wpt><wpt lat="51.1699578" lon="2.7791734"><name>QNUd4jLTWwGBs263</name><type>Unvisited</type><desc>Route engine has not provided an explanation</desc></wpt><wpt lat="51.1089972" lon="2.6126407"><name>4JJp78EXSBA2EJYt</name><type>Unvisited</type><desc>Route engine has not provided an explanation</desc></wpt><wpt lat="51.193481" lon="4.1848471"><name>yrUtnBRh5BZV1Jxq</name><type>Visit</type><desc>Arrival time: 2024-01-19T19:51:00,Part of shipment Shipment-16</desc></wpt><wpt lat="51.0208363" lon="4.1201107"><name>x99I7YYUInaRnw9m</name><type>Unvisited</type><desc>Route engine has not provided an explanation</desc></wpt><wpt lat="51.1866506" lon="2.8154311"><name>RZbXEsziXUU086RW</name><type>Unvisited</type><desc>Route engine has not provided an explanation</desc></wpt><wpt lat="50.8918392" lon="4.6999183"><name>mE6zWaF37zegBoPC</name><type>Pickup</type><desc>Part of shipment Shipment-44</desc></wpt><wpt lat="50.9298202" lon="5.5338341"><name>8dpHKmbWMHSl39Bk</name><type>Delivery</type><desc>Part of shipment Shipment-14</desc></wpt><wpt lat="51.1952847" lon="4.7224883"><name>L9SATxK6g8QaM6Pg</name><type>Delivery</type><desc>Part of shipment Shipment-46</desc></wpt><wpt lat="51.1089972" lon="2.6126407"><name>4JJp78EXSBA2EJYt</name><type>Pickup</type><desc>Part of shipment Shipment-14</desc></wpt><wpt lat="51.340518" lon="3.2360484"><name>ABminMSeqIKRe5TY</name><type>Unvisited</type><desc>Route engine has not provided an explanation</desc></wpt><wpt lat="51.0110005" lon="3.838409"><name>6a54vwpsMSdJHoY4</name><type>Unvisited</type><desc>Route engine has not provided an explanation</desc></wpt><wpt lat="51.1866506" lon="2.8154311"><name>6mb5UWJPS1H6ABFz</name><type>Delivery</type><desc>Part of shipment Shipment-10</desc></wpt><wpt lat="51.0540427" lon="4.9753501"><name>Nq2yns7xYqfLd2OY</name><type>Unvisited</type><desc>Route engine has not provided an explanation</desc></wpt><wpt lat="51.1829383" lon="3.5706859"><name>VwRh2jbyX9UU7B8g</name><type>Unvisited</type><desc>Route engine has not provided an explanation</desc></wpt><wpt lat="50.8038077" lon="3.7636437"><name>End location for vehicle-0</name><type>Vehicle Start</type></wpt><wpt lat="51.1089972" lon="2.6126407"><name>WauH5pKaHxDE0foQ</name><type>Unvisited</type><desc>Route engine has not provided an explanation</desc></wpt><wpt lat="50.9069485" lon="4.8745185"><name>P1PFrZt0ytJzgxSX</name><type>Pickup</type><desc>Part of shipment Shipment-12</desc></wpt><wpt lat="51.1060927" lon="4.3877603"><name>qpBlWqTCRXIwjQvj</name><type>Visit</type><desc>Arrival time: 2024-01-19T14:06:00,Part of shipment Shipment-49</desc></wpt><wpt lat="51.0494459" lon="3.6598382"><name>GK95PDJEPXiVvnPC</name><type>Delivery</type><desc>Part of shipment Shipment-6</desc></wpt><wpt lat="51.1335228" lon="5.0790415"><name>sR8xYKsty2gGf5eb</name><type>Delivery</type><desc>Part of shipment Shipment-5</desc></wpt><wpt lat="51.2148231" lon="4.3982884"><name>TczSCx2EoT965HOH</name><type>Visit</type><desc>Part of shipment Shipment-20,Arrival time: 2024-01-19T16:36:00</desc></wpt><wpt lat="51.0540427" lon="4.9753501"><name>8tH8IyJqkhibtdhY</name><type>Unvisited</type><desc>Route engine has not provided an explanation</desc></wpt><wpt lat="51.340518" lon="3.2360484"><name>m9zq9Mi63M32rQ7u</name><type>Unvisited</type><desc>Route engine has not provided an explanation</desc></wpt></gpx>