<?xml version='1.0' encoding='UTF-8'?><gpx name="Route-1" version="1.1" creator="org.metavrp.gpx"><desc/><rte><name>vehicle-1 2024-01-19</name><rtept lat="51.223855" lon="2.9069615"/><rtept lat="51.0132586" lon="4.4709247"/><rtept lat="51.2102726" lon="3.2252538"/><rtept lat="51.208997" lon="3.2303971"/><rtept lat="51.2184191" lon="4.4249291"/><rtept lat="50.9251704" lon="4.4249236"/><rtept lat="51.3222372" lon="4.9471501"/><rtept lat="51.223855" lon="2.9069615"/></rte><rte><name>vehicle-0 2024-01-19</name><rtept lat="51.2166135" lon="3.6220616"/><rtept lat="50.9323518" lon="4.3724993"/><rtept lat="51.0420666" lon="3.7109168"/><rtept lat="51.2184191" lon="4.4249291"/><rtept lat="50.8459073" lon="2.8711601"/><rtept lat="51.2166135" lon="3.6220616"/></rte><wpt lat="50.9251704" lon="4.4249236"><name>nR43SsR5CsuMQ5vI</name><type>Delivery</type><desc>Part of shipment Shipment-9</desc></wpt><wpt lat="50.9251704" lon="4.4249236"><name>N1UwEiEmqXqhJDkN</name><type>Visit</type><desc>Part of shipment Shipment-3,Arrival time: 2024-01-19T13:55:00</desc></wpt><wpt lat="51.3222372" lon="4.9471501"><name>KKVEMikwE1wfHA1K</name><type>Unvisited</type><desc>Route engine has not provided an explanation</desc></wpt><wpt lat="51.208997" lon="3.2303971"><name>J7NqdiWrGi1NCPRO</name><type>Unvisited</type><desc>Route engine has not provided an explanation</desc></wpt><wpt lat="50.9334114" lon="5.3401158"><name>AQQmbwAPTsnXXk6O</name><type>Pickup</type><desc>Part of shipment Shipment-1</desc></wpt><wpt lat="50.8459073" lon="2.8711601"><name>ohej5jKxi0jocTBw</name><type>Unvisited</type><desc>Route engine has not provided an explanation</desc></wpt><wpt lat="51.0420666" lon="3.7109168"><name>DfkX4WVWNgEJVztI</name><type>Delivery</type><desc>Part of shipment Shipment-19</desc></wpt><wpt lat="50.8467493" lon="3.4070716"><name>KhUQWgofRRfZDKsW</name><type>Delivery</type><desc>Part of shipment Shipment-15</desc></wpt><wpt lat="50.8459073" lon="2.8711601"><name>o0aqm2fYGb5PDaPS</name><type>Delivery</type><desc>Part of shipment Shipment-7</desc></wpt><wpt lat="51.2102726" lon="3.2252538"><name>8RWe3Uj2pOTr4DKs</name><type>Unvisited</type><desc>Route engine has not provided an explanation</desc></wpt><wpt lat="50.9251704" lon="4.4249236"><name>1gaFgP2afCsgNbib</name><type>Unvisited</type><desc>Route engine has not provided an explanation</desc></wpt><wpt lat="50.9251704" lon="4.4249236"><name>nR43SsR5CsuMQ5vI</name><type>Unvisited</type><desc>Route engine has not provided an explanation</desc></wpt><wpt lat="51.223855" lon="2.9069615"><name>End location for vehicle-1</name><type>Vehicle Start</type></wpt><wpt lat="51.3222372" lon="4.9471501"><name>9QiFPl9hLLVUrwy9</name><type>Delivery</type><desc>Part of shipment Shipment-3</desc></wpt><wpt lat="51.0132586" lon="4.4709247"><name>v9x3HINHxg9NPHmm</name><type>Unvisited</type><desc>Route engine has not provided an explanation</desc></wpt><wpt lat="51.2102726" lon="3.2252538"><name>itfsVl4HKtUao7AH</name><type>Delivery</type><desc>Part of shipment Shipment-2</desc></wpt><wpt lat="51.208997" lon="3.2303971"><name>QRRROBnOQAdsL0EJ</name><type>Pickup</type><desc>Part of shipment Shipment-0</desc></wpt><wpt lat="50.8459073" lon="2.8711601"><name>ohej5jKxi0jocTBw</name><type>Delivery</type><desc>Part of shipment Shipment-12</desc></wpt><wpt lat="50.9684204" lon="3.5125553"><name>pfBLtebxRO32hRJE</name><type>Unvisited</type><desc>Route engine has not provided an explanation</desc></wpt><wpt lat="50.9323518" lon="4.3724993"><name>SB1uztYFhybtKmXO</name><type>Pickup</type><desc>Part of shipment Shipment-14</desc></wpt><wpt lat="50.8467493" lon="3.4070716"><name>KhUQWgofRRfZDKsW</name><type>Unvisited</type><desc>Route engine has not provided an explanation</desc></wpt><wpt lat="50.8068475" lon="3.7649678"><name>sQXV7cv6EEznSgbO</name><type>Pickup</type><desc>Part of shipment Shipment-12</desc></wpt><wpt lat="51.0881746" lon="4.1381125"><name>60iix6Y0D74rOjMb</name><type>Pickup</type><desc>Part of shipment Shipment-15</desc></wpt><wpt lat="51.2184191" lon="4.4249291"><name>mIkc9BNUcAO4sC2D</name><type>Delivery</type><desc>Part of shipment Shipment-16</desc></wpt><wpt lat="51.0881746" lon="4.1381125"><name>60iix6Y0D74rOjMb</name><type>Unvisited</type><desc>Route engine has not provided an explanation</desc></wpt><wpt lat="50.9251704" lon="4.4249236"><name>N1UwEiEmqXqhJDkN</name><type>Pickup</type><desc>Part of shipment Shipment-3</desc></wpt><wpt lat="50.9323518" lon="4.3724993"><name>VNMTUdINwk3LZbVm</name><type>Unvisited</type><desc>Route engine has not provided an explanation</desc></wpt><wpt lat="50.9042273" lon="5.4763846"><name>n7bioR1b4EOXI4Ox</name><type>Unvisited</type><desc>Route engine has not provided an explanation</desc></wpt><wpt lat="50.8857677" lon="5.2952705"><name>uJtwSFPvkilsEonQ</name><type>Delivery</type><desc>Part of shipment Shipment-18</desc></wpt><wpt lat="51.2102726" lon="3.2252538"><name>8RWe3Uj2pOTr4DKs</name><type>Delivery</type><desc>Part of shipment Shipment-5</desc></wpt><wpt lat="51.0420666" lon="3.7109168"><name>DfkX4WVWNgEJVztI</name><type>Visit</type><desc>Part of shipment Shipment-19,Arrival time: 2024-01-19T10:04:00</desc></wpt><wpt lat="50.9251704" lon="4.4249236"><name>aRltJ8qlnkIqoHFl</name><type>Pickup</type><desc>Part of shipment Shipment-13</desc></wpt><wpt lat="51.0132586" lon="4.4709247"><name>ANKwAPsnziJcIWLY</name><type>Visit</type><desc>Part of shipment Shipment-2,Arrival time: 2024-01-19T09:34:00</desc></wpt><wpt lat="51.208997" lon="3.2303971"><name>J7NqdiWrGi1NCPRO</name><type>Pickup</type><desc>Part of shipment Shipment-9</desc></wpt><wpt lat="51.082606" lon="3.7815927"><name>YxPDoL5seMGamKtK</name><type>Pickup</type><desc>Part of shipment Shipment-8</desc></wpt><wpt lat="51.0132586" lon="4.4709247"><name>v9x3HINHxg9NPHmm</name><type>Delivery</type><desc>Part of shipment Shipment-10</desc></wpt><wpt lat="50.9684204" lon="3.5125553"><name>Bn0mlJi698fzfmaV</name><type>Unvisited</type><desc>Route engine has not provided an explanation</desc></wpt><wpt lat="50.8459073" lon="2.8711601"><name>o0aqm2fYGb5PDaPS</name><type>Visit</type><desc>Part of shipment Shipment-7,Arrival time: 2024-01-19T12:57:00</desc></wpt><wpt lat="51.3222372" lon="4.9471501"><name>KKVEMikwE1wfHA1K</name><type>Delivery</type><desc>Part of shipment Shipment-13</desc></wpt><wpt lat="50.9684204" lon="3.5125553"><name>Bn0mlJi698fzfmaV</name><type>Pickup</type><desc>Part of shipment Shipment-10</desc></wpt><wpt lat="51.0132586" lon="4.4709247"><name>ANKwAPsnziJcIWLY</name><type>Pickup</type><desc>Part of shipment Shipment-2</desc></wpt><wpt lat="50.8467493" lon="3.4070716"><name>2N7j7QjyHjkT62PK</name><type>Delivery</type><desc>Part of shipment Shipment-6</desc></wpt><wpt lat="51.2184191" lon="4.4249291"><name>HnmdznYHi0Hb3Y0j</name><type>Visit</type><desc>Part of shipment Shipment-7,Arrival time: 2024-01-19T11:08:00</desc></wpt><wpt lat="50.9251704" lon="4.4249236"><name>aRltJ8qlnkIqoHFl</name><type>Unvisited</type><desc>Route engine has not provided an explanation</desc></wpt><wpt lat="50.9684204" lon="3.5125553"><name>pfBLtebxRO32hRJE</name><type>Pickup</type><desc>Part of shipment Shipment-17</desc></wpt><wpt lat="50.9251704" lon="4.4249236"><name>A4IhW9xLWxs49Z7X</name><type>Unvisited</type><desc>Route engine has not provided an explanation</desc></wpt><wpt lat="51.2102726" lon="3.2252538"><name>itfsVl4HKtUao7AH</name><type>Visit</type><desc>Arrival time: 2024-01-19T11:24:00,Part of shipment Shipment-2</desc></wpt><wpt lat="51.0132586" lon="4.4709247"><name>As6D4KhmNI84U3W8</name><type>Pickup</type><desc>Part of shipment Shipment-16</desc></wpt><wpt lat="51.2166135" lon="3.6220616"><name>Start location for vehicle-0</name><type>Vehicle Start</type><desc>Cargo Capacity: [1200, 5500]</desc></wpt><wpt lat="51.3222372" lon="4.9471501"><name>n7WLW6tDJO3EpRTF</name><type>Unvisited</type><desc>Route engine has not provided an explanation</desc></wpt><wpt lat="51.0420666" lon="3.7109168"><name>pXsOzYGr1eB5BlEl</name><type>Pickup</type><desc>Part of shipment Shipment-11</desc></wpt><wpt lat="51.2166135" lon="3.6220616"><name>End location for vehicle-0</name><type>Vehicle Start</type></wpt><wpt lat="51.208997" lon="3.2303971"><name>3nYNWHAZnRfu1bf9</name><type>Unvisited</type><desc>Route engine has not provided an explanation</desc></wpt><wpt lat="51.082606" lon="3.7815927"><name>YxPDoL5seMGamKtK</name><type>Unvisited</type><desc>Route engine has not provided an explanation</desc></wpt><wpt lat="51.3222372" lon="4.9471501"><name>9QiFPl9hLLVUrwy9</name><type>Visit</type><desc>Part of shipment Shipment-3,Arrival time: 2024-01-19T15:08:00</desc></wpt><wpt lat="51.0420666" lon="3.7109168"><name>V8aAukkbh1L2Glh6</name><type>Pickup</type><desc>Part of shipment Shipment-18</desc></wpt><wpt lat="51.0132586" lon="4.4709247"><name>As6D4KhmNI84U3W8</name><type>Unvisited</type><desc>Route engine has not provided an explanation</desc></wpt><wpt lat="51.3222372" lon="4.9471501"><name>cdo8lTlqU7lREFTB</name><type>Delivery</type><desc>Part of shipment Shipment-14</desc></wpt><wpt lat="51.3222372" lon="4.9471501"><name>n7WLW6tDJO3EpRTF</name><type>Pickup</type><desc>Part of shipment Shipment-6</desc></wpt><wpt lat="51.2241921" lon="4.4148456"><name>8uRpSQmreS7LutdB</name><type>Unvisited</type><desc>Route engine has not provided an explanation</desc></wpt><wpt lat="50.9334114" lon="5.3401158"><name>AQQmbwAPTsnXXk6O</name><type>Unvisited</type><desc>Route engine has not provided an explanation</desc></wpt><wpt lat="50.9323518" lon="4.3724993"><name>U0GQ2WiBnx8d4nmI</name><type>Unvisited</type><desc>Route engine has not provided an explanation</desc></wpt><wpt lat="51.0420666" lon="3.7109168"><name>V8aAukkbh1L2Glh6</name><type>Unvisited</type><desc>Route engine has not provided an explanation</desc></wpt><wpt lat="51.208997" lon="3.2303971"><name>3nYNWHAZnRfu1bf9</name><type>Delivery</type><desc>Part of shipment Shipment-1</desc></wpt><wpt lat="51.3222372" lon="4.9471501"><name>cdo8lTlqU7lREFTB</name><type>Unvisited</type><desc>Route engine has not provided an explanation</desc></wpt><wpt lat="50.9323518" lon="4.3724993"><name>U0GQ2WiBnx8d4nmI</name><type>Delivery</type><desc>Part of shipment Shipment-8</desc></wpt><wpt lat="51.2184191" lon="4.4249291"><name>mIkc9BNUcAO4sC2D</name><type>Unvisited</type><desc>Route engine has not provided an explanation</desc></wpt><wpt lat="50.8467493" lon="3.4070716"><name>2N7j7QjyHjkT62PK</name><type>Unvisited</type><desc>Route engine has not provided an explanation</desc></wpt><wpt lat="50.9323518" lon="4.3724993"><name>VNMTUdINwk3LZbVm</name><type>Delivery</type><desc>Part of shipment Shipment-4</desc></wpt><wpt lat="51.2241921" lon="4.4148456"><name>8uRpSQmreS7LutdB</name><type>Delivery</type><desc>Part of shipment Shipment-17</desc></wpt><wpt lat="50.9042273" lon="5.4763846"><name>n7bioR1b4EOXI4Ox</name><type>Pickup</type><desc>Part of shipment Shipment-5</desc></wpt><wpt lat="51.2184191" lon="4.4249291"><name>QZsSvgE317MWXCTg</name><type>Delivery</type><desc>Part of shipment Shipment-0</desc></wpt><wpt lat="50.8068475" lon="3.7649678"><name>sQXV7cv6EEznSgbO</name><type>Unvisited</type><desc>Route engine has not provided an explanation</desc></wpt><wpt lat="51.2184191" lon="4.4249291"><name>QZsSvgE317MWXCTg</name><type>Visit</type><desc>Arrival time: 2024-01-19T13:10:00,Part of shipment Shipment-0</desc></wpt><wpt lat="51.2184191" lon="4.4249291"><name>HnmdznYHi0Hb3Y0j</name><type>Pickup</type><desc>Part of shipment Shipment-7</desc></wpt><wpt lat="50.9251704" lon="4.4249236"><name>1gaFgP2afCsgNbib</name><type>Pickup</type><desc>Part of shipment Shipment-4</desc></wpt><wpt lat="51.223855" lon="2.9069615"><name>Start location for vehicle-1</name><type>Vehicle Start</type><desc>Cargo Capacity: [1200, 5500]</desc></wpt><wpt lat="50.8857677" lon="5.2952705"><name>uJtwSFPvkilsEonQ</name><type>Unvisited</type><desc>Route engine has not provided an explanation</desc></wpt><wpt lat="51.0420666" lon="3.7109168"><name>pXsOzYGr1eB5BlEl</name><type>Unvisited</type><desc>Route engine has not provided an explanation</desc></wpt><wpt lat="50.9323518" lon="4.3724993"><name>SB1uztYFhybtKmXO</name><type>Unvisited</type><desc>Route engine has not provided an explanation</desc></wpt><wpt lat="50.9323518" lon="4.3724993"><name>q8TSNEYEXQiOiJdo</name><type>Pickup</type><desc>Part of shipment Shipment-19</desc></wpt><wpt lat="51.208997" lon="3.2303971"><name>QRRROBnOQAdsL0EJ</name><type>Visit</type><desc>Part of shipment Shipment-0,Arrival time: 2024-01-19T11:38:00</desc></wpt><wpt lat="50.9323518" lon="4.3724993"><name>q8TSNEYEXQiOiJdo</name><type>Visit</type><desc>Part of shipment Shipment-19,Arrival time: 2024-01-19T09:08:00</desc></wpt><wpt lat="50.9251704" lon="4.4249236"><name>A4IhW9xLWxs49Z7X</name><type>Delivery</type><desc>Part of shipment Shipment-11</desc></wpt></gpx>