<?xml version='1.0' encoding='UTF-8'?><gpx name="Route-1" version="1.1" creator="org.metavrp.gpx"><desc/><rte><name>vehicle-0 2024-01-19</name><rtept lat="51.2909877" lon="3.1552084"/><rtept lat="51.0458284" lon="4.4947075"/><rtept lat="51.3302922" lon="4.9528374"/><rtept lat="51.2909877" lon="3.1552084"/></rte><wpt lat="51.0458284" lon="4.4947075"><name>4x0GKT5nKasN8nbN</name><type>Visit</type><desc>Part of shipment Shipment-4,Arrival time: 2024-01-19T09:35:00</desc></wpt><wpt lat="51.1684497" lon="3.8588267"><name>gsRZLXqZc0B2t2ml</name><type>Unvisited</type><desc>Route engine has not provided an explanation</desc></wpt><wpt lat="51.1684497" lon="3.8588267"><name>gcLkSFRmNEXbVR6c</name><type>Unvisited</type><desc>Route engine has not provided an explanation</desc></wpt><wpt lat="51.2909877" lon="3.1552084"><name>End location for vehicle-0</name><type>Vehicle Start</type></wpt><wpt lat="51.0458284" lon="4.4947075"><name>4x0GKT5nKasN8nbN</name><type>Pickup</type><desc>Part of shipment Shipment-4</desc></wpt><wpt lat="51.3302922" lon="4.9528374"><name>ByySLzVQqefij71d</name><type>Pickup</type><desc>Part of shipment Shipment-3</desc></wpt><wpt lat="50.9208303" lon="3.6813932"><name>Hd3oacbuEcfB6m4u</name><type>Delivery</type><desc>Part of shipment Shipment-2</desc></wpt><wpt lat="51.1684497" lon="3.8588267"><name>VZJVN9PfpCAT6NeX</name><type>Delivery</type><desc>Part of shipment Shipment-3</desc></wpt><wpt lat="51.3302922" lon="4.9528374"><name>oBToQaTRNfQ2ggp4</name><type>Delivery</type><desc>Part of shipment Shipment-4</desc></wpt><wpt lat="50.9208303" lon="3.6813932"><name>Hd3oacbuEcfB6m4u</name><type>Unvisited</type><desc>Route engine has not provided an explanation</desc></wpt><wpt lat="50.9208303" lon="3.6813932"><name>Ez06TGufsZTfXJRN</name><type>Unvisited</type><desc>Route engine has not provided an explanation</desc></wpt><wpt lat="51.3302922" lon="4.9528374"><name>IagS9VAFf38SV4xe</name><type>Unvisited</type><desc>Route engine has not provided an explanation</desc></wpt><wpt lat="51.1684497" lon="3.8588267"><name>gcLkSFRmNEXbVR6c</name><type>Delivery</type><desc>Part of shipment Shipment-0</desc></wpt><wpt lat="51.0458284" lon="4.4947075"><name>JMkQ4rdakdX7hAiK</name><type>Unvisited</type><desc>Route engine has not provided an explanation</desc></wpt><wpt lat="51.2909877" lon="3.1552084"><name>Start location for vehicle-0</name><type>Vehicle Start</type><desc>Cargo Capacity: [1200, 5500]</desc></wpt><wpt lat="51.3302922" lon="4.9528374"><name>ByySLzVQqefij71d</name><type>Unvisited</type><desc>Route engine has not provided an explanation</desc></wpt><wpt lat="51.3302922" lon="4.9528374"><name>IagS9VAFf38SV4xe</name><type>Pickup</type><desc>Part of shipment Shipment-0</desc></wpt><wpt lat="51.0458284" lon="4.4947075"><name>JMkQ4rdakdX7hAiK</name><type>Pickup</type><desc>Part of shipment Shipment-1</desc></wpt><wpt lat="50.9208303" lon="3.6813932"><name>Ez06TGufsZTfXJRN</name><type>Delivery</type><desc>Part of shipment Shipment-1</desc></wpt><wpt lat="51.3302922" lon="4.9528374"><name>oBToQaTRNfQ2ggp4</name><type>Visit</type><desc>Arrival time: 2024-01-19T10:39:00,Part of shipment Shipment-4</desc></wpt><wpt lat="51.1684497" lon="3.8588267"><name>VZJVN9PfpCAT6NeX</name><type>Unvisited</type><desc>Route engine has not provided an explanation</desc></wpt><wpt lat="51.1684497" lon="3.8588267"><name>gsRZLXqZc0B2t2ml</name><type>Pickup</type><desc>Part of shipment Shipment-2</desc></wpt></gpx>