<?xml version='1.0' encoding='UTF-8'?><gpx name="Route-1" version="1.1" creator="org.metavrp.gpx"><desc/><rte><name>vehicle-0 2024-01-19</name><rtept lat="50.8509271" lon="4.3470538"/><rtept lat="50.8217248" lon="4.2927974"/><rtept lat="50.8067584" lon="4.4020776"/><rtept lat="50.8790605" lon="4.3095575"/><rtept lat="50.7962852" lon="4.3332344"/><rtept lat="50.8803502" lon="4.3504225"/><rtept lat="50.8398628" lon="4.288424"/><rtept lat="50.8282375" lon="4.4186288"/><rtept lat="50.8028212" lon="4.4013229"/><rtept lat="50.8217248" lon="4.2927974"/><rtept lat="50.7962852" lon="4.3332344"/><rtept lat="50.8509271" lon="4.3470538"/></rte><wpt lat="50.8279158" lon="4.3706113"><name>ZOQ1rgTJ4mMp6e7K</name><type>Unvisited</type><desc>Route engine has not provided an explanation</desc></wpt><wpt lat="50.8217248" lon="4.2927974"><name>XaQvldQcEzmZWEjf</name><type>Pickup</type><desc>Part of shipment Shipment-11</desc></wpt><wpt lat="50.8790605" lon="4.3095575"><name>Y7pV8BGiOVcouPAg</name><type>Delivery</type><desc>Part of shipment Shipment-9</desc></wpt><wpt lat="50.8735167" lon="4.3153753"><name>igP04tcdCBekOemi</name><type>Unvisited</type><desc>Route engine has not provided an explanation</desc></wpt><wpt lat="50.8790605" lon="4.3095575"><name>kJDxKeHmPkFk6Hka</name><type>Visit</type><desc>Part of shipment Shipment-10,Arrival time: 2024-01-19T09:31:00</desc></wpt><wpt lat="50.8279158" lon="4.3706113"><name>ZOQ1rgTJ4mMp6e7K</name><type>Pickup</type><desc>Part of shipment Shipment-5</desc></wpt><wpt lat="50.8398628" lon="4.288424"><name>LovQ3ri19GWNNvv7</name><type>Visit</type><desc>Part of shipment Shipment-18,Arrival time: 2024-01-19T11:11:00</desc></wpt><wpt lat="50.8282375" lon="4.4186288"><name>3l9Idxy5v8Hj2WW4</name><type>Unvisited</type><desc>Route engine has not provided an explanation</desc></wpt><wpt lat="50.8790605" lon="4.3095575"><name>S0MslyzrYIadkFfG</name><type>Unvisited</type><desc>Route engine has not provided an explanation</desc></wpt><wpt lat="50.8143753" lon="4.3451119"><name>ULMYZ191mGzTH9Sj</name><type>Pickup</type><desc>Part of shipment Shipment-2</desc></wpt><wpt lat="50.8028212" lon="4.4013229"><name>LzcYB8J0i829oMYj</name><type>Delivery</type><desc>Part of shipment Shipment-6</desc></wpt><wpt lat="50.8790605" lon="4.3095575"><name>S0MslyzrYIadkFfG</name><type>Pickup</type><desc>Part of shipment Shipment-12</desc></wpt><wpt lat="50.8803502" lon="4.3504225"><name>j9DxGdisVT73Azf7</name><type>Visit</type><desc>Part of shipment Shipment-18,Arrival time: 2024-01-19T10:42:00</desc></wpt><wpt lat="50.8143753" lon="4.3451119"><name>ULMYZ191mGzTH9Sj</name><type>Unvisited</type><desc>Route engine has not provided an explanation</desc></wpt><wpt lat="50.8282375" lon="4.4186288"><name>fUKT6yrR4DYkv37Y</name><type>Pickup</type><desc>Part of shipment Shipment-13</desc></wpt><wpt lat="50.8790605" lon="4.3095575"><name>bXnku33SWy3QbGc2</name><type>Unvisited</type><desc>Route engine has not provided an explanation</desc></wpt><wpt lat="50.8790605" lon="4.3095575"><name>i2rP9w8lMnlXj8dh</name><type>Pickup</type><desc>Part of shipment Shipment-19</desc></wpt><wpt lat="50.8734267" lon="4.341517"><name>I65PKNs7D8jeRWCK</name><type>Delivery</type><desc>Part of shipment Shipment-13</desc></wpt><wpt lat="50.806366" lon="4.3474283"><name>RL5FxYNDQ9GnCJ6O</name><type>Unvisited</type><desc>Route engine has not provided an explanation</desc></wpt><wpt lat="50.8143753" lon="4.3451119"><name>fjiOICDtLyLowDYl</name><type>Unvisited</type><desc>Route engine has not provided an explanation</desc></wpt><wpt lat="50.8282375" lon="4.4186288"><name>fUKT6yrR4DYkv37Y</name><type>Unvisited</type><desc>Route engine has not provided an explanation</desc></wpt><wpt lat="50.8217248" lon="4.2927974"><name>NOTU5AQDiy1gAPGs</name><type>Pickup</type><desc>Part of shipment Shipment-7</desc></wpt><wpt lat="50.8282375" lon="4.4186288"><name>3l9Idxy5v8Hj2WW4</name><type>Pickup</type><desc>Part of shipment Shipment-9</desc></wpt><wpt lat="50.8282375" lon="4.4186288"><name>P379dO6H9sf8oBgw</name><type>Unvisited</type><desc>Route engine has not provided an explanation</desc></wpt><wpt lat="50.8509271" lon="4.3470538"><name>End location for vehicle-0</name><type>Vehicle Start</type></wpt><wpt lat="50.8780662" lon="4.3897249"><name>1unb5ZoxsAAUReep</name><type>Unvisited</type><desc>Route engine has not provided an explanation</desc></wpt><wpt lat="50.8022756" lon="4.4363192"><name>yhoim6p4UJvbf32W</name><type>Pickup</type><desc>Part of shipment Shipment-14</desc></wpt><wpt lat="50.8509271" lon="4.3470538"><name>Start location for vehicle-0</name><type>Vehicle Start</type><desc>Cargo Capacity: [1200, 5500]</desc></wpt><wpt lat="50.8365531" lon="4.3483946"><name>KrwSxXXT4zXsl6Fg</name><type>Pickup</type><desc>Part of shipment Shipment-16</desc></wpt><wpt lat="50.8217248" lon="4.2927974"><name>uI1oxUXaQK9NIaS8</name><type>Visit</type><desc>Arrival time: 2024-01-19T08:18:00,Part of shipment Shipment-1</desc></wpt><wpt lat="50.8217248" lon="4.2927974"><name>XaQvldQcEzmZWEjf</name><type>Unvisited</type><desc>Route engine has not provided an explanation</desc></wpt><wpt lat="50.870397" lon="4.395546"><name>cDwVmfH7oTtATRcK</name><type>Unvisited</type><desc>Route engine has not provided an explanation</desc></wpt><wpt lat="50.7962852" lon="4.3332344"><name>4236MqeOeMLYg18K</name><type>Visit</type><desc>Part of shipment Shipment-7,Arrival time: 2024-01-19T13:08:00</desc></wpt><wpt lat="50.8734267" lon="4.341517"><name>I65PKNs7D8jeRWCK</name><type>Unvisited</type><desc>Route engine has not provided an explanation</desc></wpt><wpt lat="50.8022756" lon="4.4363192"><name>Gful5ir9lJ2PqeBa</name><type>Unvisited</type><desc>Route engine has not provided an explanation</desc></wpt><wpt lat="50.870397" lon="4.395546"><name>cDwVmfH7oTtATRcK</name><type>Delivery</type><desc>Part of shipment Shipment-19</desc></wpt><wpt lat="50.8803502" lon="4.3504225"><name>j9DxGdisVT73Azf7</name><type>Pickup</type><desc>Part of shipment Shipment-18</desc></wpt><wpt lat="50.8217248" lon="4.2927974"><name>uI1oxUXaQK9NIaS8</name><type>Pickup</type><desc>Part of shipment Shipment-1</desc></wpt><wpt lat="50.8365531" lon="4.3483946"><name>C58xjtnXeO43hMeR</name><type>Unvisited</type><desc>Route engine has not provided an explanation</desc></wpt><wpt lat="50.8398628" lon="4.288424"><name>LovQ3ri19GWNNvv7</name><type>Delivery</type><desc>Part of shipment Shipment-18</desc></wpt><wpt lat="50.8143753" lon="4.3451119"><name>fjiOICDtLyLowDYl</name><type>Delivery</type><desc>Part of shipment Shipment-11</desc></wpt><wpt lat="50.8790605" lon="4.3095575"><name>bXnku33SWy3QbGc2</name><type>Pickup</type><desc>Part of shipment Shipment-15</desc></wpt><wpt lat="50.8022756" lon="4.4363192"><name>YpND6qbz92i0HpH6</name><type>Delivery</type><desc>Part of shipment Shipment-5</desc></wpt><wpt lat="50.7962852" lon="4.3332344"><name>npV3Dr6WyNHGXDqs</name><type>Unvisited</type><desc>Route engine has not provided an explanation</desc></wpt><wpt lat="50.8734267" lon="4.341517"><name>4dZsNZhA3d86Nkcc</name><type>Unvisited</type><desc>Route engine has not provided an explanation</desc></wpt><wpt lat="50.8067584" lon="4.4020776"><name>C0PdFl6Cwwheg0Ft</name><type>Visit</type><desc>Arrival time: 2024-01-19T08:54:00,Part of shipment Shipment-1</desc></wpt><wpt lat="50.780295" lon="4.3423919"><name>zfsLNEcx2f1xh05h</name><type>Pickup</type><desc>Part of shipment Shipment-0</desc></wpt><wpt lat="50.8282375" lon="4.4186288"><name>ma35pI2pTnGXmFKG</name><type>Delivery</type><desc>Part of shipment Shipment-17</desc></wpt><wpt lat="50.7962852" lon="4.3332344"><name>4236MqeOeMLYg18K</name><type>Delivery</type><desc>Part of shipment Shipment-7</desc></wpt><wpt lat="50.8282375" lon="4.4186288"><name>ZMjUNl4XL6nI9fN9</name><type>Visit</type><desc>Part of shipment Shipment-6,Arrival time: 2024-01-19T11:47:00</desc></wpt><wpt lat="50.8734267" lon="4.341517"><name>CYJDUbV7NisnhbAN</name><type>Delivery</type><desc>Part of shipment Shipment-14</desc></wpt><wpt lat="50.8734267" lon="4.341517"><name>CYJDUbV7NisnhbAN</name><type>Unvisited</type><desc>Route engine has not provided an explanation</desc></wpt><wpt lat="50.7962852" lon="4.3332344"><name>5xtejO4A2gQ2BXtO</name><type>Visit</type><desc>Part of shipment Shipment-10,Arrival time: 2024-01-19T10:05:00</desc></wpt><wpt lat="50.8217248" lon="4.2927974"><name>NOTU5AQDiy1gAPGs</name><type>Visit</type><desc>Part of shipment Shipment-7,Arrival time: 2024-01-19T12:46:00</desc></wpt><wpt lat="50.8780662" lon="4.3897249"><name>EALtXJeezVuAn7xh</name><type>Delivery</type><desc>Part of shipment Shipment-15</desc></wpt><wpt lat="50.7962852" lon="4.3332344"><name>5xtejO4A2gQ2BXtO</name><type>Delivery</type><desc>Part of shipment Shipment-10</desc></wpt><wpt lat="50.8067584" lon="4.4020776"><name>C0PdFl6Cwwheg0Ft</name><type>Delivery</type><desc>Part of shipment Shipment-1</desc></wpt><wpt lat="50.8022756" lon="4.4363192"><name>Gful5ir9lJ2PqeBa</name><type>Delivery</type><desc>Part of shipment Shipment-0</desc></wpt><wpt lat="50.8282375" lon="4.4186288"><name>ma35pI2pTnGXmFKG</name><type>Unvisited</type><desc>Route engine has not provided an explanation</desc></wpt><wpt lat="50.7962852" lon="4.3332344"><name>ayCSEJyCoO5gbStX</name><type>Unvisited</type><desc>Route engine has not provided an explanation</desc></wpt><wpt lat="50.8282375" lon="4.4186288"><name>P379dO6H9sf8oBgw</name><type>Delivery</type><desc>Part of shipment Shipment-12</desc></wpt><wpt lat="50.8365531" lon="4.3483946"><name>C58xjtnXeO43hMeR</name><type>Pickup</type><desc>Part of shipment Shipment-8</desc></wpt><wpt lat="50.8780662" lon="4.3897249"><name>1unb5ZoxsAAUReep</name><type>Pickup</type><desc>Part of shipment Shipment-17</desc></wpt><wpt lat="50.8734267" lon="4.341517"><name>4dZsNZhA3d86Nkcc</name><type>Delivery</type><desc>Part of shipment Shipment-3</desc></wpt><wpt lat="50.806366" lon="4.3474283"><name>e08XTP3kFLZ9e8KA</name><type>Unvisited</type><desc>Route engine has not provided an explanation</desc></wpt><wpt lat="50.8790605" lon="4.3095575"><name>Y7pV8BGiOVcouPAg</name><type>Unvisited</type><desc>Route engine has not provided an explanation</desc></wpt><wpt lat="50.8022756" lon="4.4363192"><name>YpND6qbz92i0HpH6</name><type>Unvisited</type><desc>Route engine has not provided an explanation</desc></wpt><wpt lat="50.806366" lon="4.3474283"><name>RL5FxYNDQ9GnCJ6O</name><type>Pickup</type><desc>Part of shipment Shipment-3</desc></wpt><wpt lat="50.8398628" lon="4.288424"><name>1nc8LoFggUKrAVnQ</name><type>Delivery</type><desc>Part of shipment Shipment-8</desc></wpt><wpt lat="50.7962852" lon="4.3332344"><name>npV3Dr6WyNHGXDqs</name><type>Delivery</type><desc>Part of shipment Shipment-16</desc></wpt><wpt lat="50.780295" lon="4.3423919"><name>zfsLNEcx2f1xh05h</name><type>Unvisited</type><desc>Route engine has not provided an explanation</desc></wpt><wpt lat="50.8790605" lon="4.3095575"><name>i2rP9w8lMnlXj8dh</name><type>Unvisited</type><desc>Route engine has not provided an explanation</desc></wpt><wpt lat="50.8790605" lon="4.3095575"><name>kJDxKeHmPkFk6Hka</name><type>Pickup</type><desc>Part of shipment Shipment-10</desc></wpt><wpt lat="50.8022756" lon="4.4363192"><name>yhoim6p4UJvbf32W</name><type>Unvisited</type><desc>Route engine has not provided an explanation</desc></wpt><wpt lat="50.8365531" lon="4.3483946"><name>KrwSxXXT4zXsl6Fg</name><type>Unvisited</type><desc>Route engine has not provided an explanation</desc></wpt><wpt lat="50.8780662" lon="4.3897249"><name>EALtXJeezVuAn7xh</name><type>Unvisited</type><desc>Route engine has not provided an explanation</desc></wpt><wpt lat="50.806366" lon="4.3474283"><name>e08XTP3kFLZ9e8KA</name><type>Delivery</type><desc>Part of shipment Shipment-4</desc></wpt><wpt lat="50.8282375" lon="4.4186288"><name>ZMjUNl4XL6nI9fN9</name><type>Pickup</type><desc>Part of shipment Shipment-6</desc></wpt><wpt lat="50.7962852" lon="4.3332344"><name>ayCSEJyCoO5gbStX</name><type>Delivery</type><desc>Part of shipment Shipment-2</desc></wpt><wpt lat="50.8398628" lon="4.288424"><name>1nc8LoFggUKrAVnQ</name><type>Unvisited</type><desc>Route engine has not provided an explanation</desc></wpt><wpt lat="50.8028212" lon="4.4013229"><name>LzcYB8J0i829oMYj</name><type>Visit</type><desc>Part of shipment Shipment-6,Arrival time: 2024-01-19T12:11:00</desc></wpt><wpt lat="50.8735167" lon="4.3153753"><name>igP04tcdCBekOemi</name><type>Pickup</type><desc>Part of shipment Shipment-4</desc></wpt></gpx>