<?xml version='1.0' encoding='UTF-8'?><gpx name="Route-1" version="1.1" creator="org.metavrp.gpx"><desc/><rte><name>vehicle-0 2024-01-19</name><rtept lat="51.2909877" lon="3.1552084"/></rte><rte><name>vehicle-2 2024-01-19</name><rtept lat="50.8821005" lon="4.6838064"/></rte><rte><name>vehicle-3 2024-01-19</name><rtept lat="51.2155438" lon="4.4399172"/><rtept lat="51.1470669" lon="4.8211093"/><rtept lat="51.1901247" lon="3.2332776"/><rtept lat="50.8788795" lon="4.45758"/><rtept lat="50.7486723" lon="5.4432285"/><rtept lat="50.7486723" lon="5.4432285"/><rtept lat="50.869844" lon="4.1499604"/><rtept lat="50.869844" lon="4.1499604"/><rtept lat="50.9198753" lon="4.1857824"/><rtept lat="51.2204941" lon="4.1291551"/><rtept lat="51.2524776" lon="4.0818396"/><rtept lat="51.1951606" lon="4.4230137"/><rtept lat="51.1951606" lon="4.4230137"/><rtept lat="51.2155438" lon="4.4399172"/></rte><rte><name>vehicle-1 2024-01-19</name><rtept lat="50.7428911" lon="4.2295545"/></rte><wpt lat="51.2155438" lon="4.4399172"><name>Start location for vehicle-3</name><type>Vehicle Start</type><desc>Cargo Capacity: [3000, 6000]</desc></wpt><wpt lat="51.4373683" lon="4.4470142"><name>Z3J8BLXCFkXnd7OH</name><type>Pickup</type><desc>Part of shipment Shipment-32</desc></wpt><wpt lat="50.7592166" lon="5.3641818"><name>UN0up5gGE63QBZW0</name><type>Unvisited</type><desc>Route engine has not provided an explanation</desc></wpt><wpt lat="50.9535588" lon="5.2708402"><name>vmXIiKT7B4th3fKz</name><type>Delivery</type><desc>Part of shipment Shipment-40</desc></wpt><wpt lat="51.2204941" lon="4.1291551"><name>sn36JW2Fjym2mntA</name><type>Delivery</type><desc>Part of shipment Shipment-35</desc></wpt><wpt lat="51.2155438" lon="4.4399172"><name>End location for vehicle-3</name><type>Vehicle Start</type></wpt><wpt lat="51.0149222" lon="4.3064897"><name>qdO7DAsbMb84qJ1R</name><type>Unvisited</type><desc>Route engine has not provided an explanation</desc></wpt><wpt lat="50.9330451" lon="5.4344481"><name>0QdpeZ2TRlykpcKj</name><type>Unvisited</type><desc>Route engine has not provided an explanation</desc></wpt><wpt lat="51.1684497" lon="3.8588267"><name>jLfmWoZX3uAgN7mm</name><type>Unvisited</type><desc>Route engine has not provided an explanation</desc></wpt><wpt lat="50.9581899" lon="5.3482758"><name>6QZ0cqLxXcaqdTy0</name><type>Unvisited</type><desc>Route engine has not provided an explanation</desc></wpt><wpt lat="50.8803562" lon="3.4070951"><name>d39Oqfxvja4k2FK0</name><type>Pickup</type><desc>Part of shipment Shipment-31</desc></wpt><wpt lat="50.8367728" lon="5.4226943"><name>tZGwSw8qfJwOGREJ</name><type>Delivery</type><desc>Part of shipment Shipment-0</desc></wpt><wpt lat="51.1901247" lon="3.2332776"><name>9Gx6IoR47CKyHPAe</name><type>Unvisited</type><desc>Route engine has not provided an explanation</desc></wpt><wpt lat="50.9330451" lon="5.4344481"><name>Ux6eeT5uqDc9MH0R</name><type>Pickup</type><desc>Part of shipment Shipment-22</desc></wpt><wpt lat="51.1329137" lon="4.0722238"><name>jCMEDqVNx30ExmbH</name><type>Unvisited</type><desc>Route engine has not provided an explanation</desc></wpt><wpt lat="50.9073263" lon="3.4588321"><name>qDljbw9tF8y7IjMD</name><type>Unvisited</type><desc>Route engine has not provided an explanation</desc></wpt><wpt lat="51.0458284" lon="4.4947075"><name>Dm4nm3uB6AJ8W3xf</name><type>Pickup</type><desc>Part of shipment Shipment-38</desc></wpt><wpt lat="50.7486723" lon="5.4432285"><name>OXEiVD3SKonFVyAv</name><type>Delivery</type><desc>Part of shipment Shipment-27</desc></wpt><wpt lat="51.2110796" lon="3.2465557"><name>7vUAz5nrMZnp38zt</name><type>Delivery</type><desc>Part of shipment Shipment-19</desc></wpt><wpt lat="51.1470669" lon="4.8211093"><name>wgL87nel78MK18N5</name><type>Pickup</type><desc>Part of shipment Shipment-28</desc></wpt><wpt lat="51.1901247" lon="3.2332776"><name>9Gx6IoR47CKyHPAe</name><type>Delivery</type><desc>Part of shipment Shipment-22</desc></wpt><wpt lat="50.9581899" lon="5.3482758"><name>Rfz5Hy0ExG0bgVdu</name><type>Delivery</type><desc>Part of shipment Shipment-43</desc></wpt><wpt lat="50.7486723" lon="5.4432285"><name>fz5pkq5c2RTsTj6I</name><type>Pickup</type><desc>Part of shipment Shipment-26</desc></wpt><wpt lat="51.0458284" lon="4.4947075"><name>Dm4nm3uB6AJ8W3xf</name><type>Unvisited</type><desc>Route engine has not provided an explanation</desc></wpt><wpt lat="51.2222937" lon="4.4043421"><name>d3ZgsYZILZqbiXU8</name><type>Pickup</type><desc>Part of shipment Shipment-1</desc></wpt><wpt lat="51.1951606" lon="4.4230137"><name>gMOgf3l6oI8bzsOG</name><type>Delivery</type><desc>Part of shipment Shipment-26</desc></wpt><wpt lat="50.9630137" lon="4.9440278"><name>fzHF3UtfdnZ5pgCz</name><type>Pickup</type><desc>Part of shipment Shipment-45</desc></wpt><wpt lat="51.3251924" lon="4.9544569"><name>i6kfNkcxfk10mGYy</name><type>Unvisited</type><desc>Route engine has not provided an explanation</desc></wpt><wpt lat="51.0074095" lon="3.6257475"><name>nWUgWOljIeK4DwmK</name><type>Unvisited</type><desc>Route engine has not provided an explanation</desc></wpt><wpt lat="50.7486723" lon="5.4432285"><name>fz5pkq5c2RTsTj6I</name><type>Visit</type><desc>Arrival time: 2024-01-19T12:57:00,Part of shipment Shipment-26</desc></wpt><wpt lat="51.4373683" lon="4.4470142"><name>UAwheZRvAiSHxpVs</name><type>Delivery</type><desc>Part of shipment Shipment-20</desc></wpt><wpt lat="50.9535588" lon="5.2708402"><name>HsrSuchFBn8DImmv</name><type>Pickup</type><desc>Part of shipment Shipment-46</desc></wpt><wpt lat="50.9303226" lon="4.0410227"><name>EmYWuVN5BuU8Zv8B</name><type>Unvisited</type><desc>Route engine has not provided an explanation</desc></wpt><wpt lat="51.3251924" lon="4.9544569"><name>yVBfyN2q6xPRFGPX</name><type>Unvisited</type><desc>Route engine has not provided an explanation</desc></wpt><wpt lat="51.2204941" lon="4.1291551"><name>sn36JW2Fjym2mntA</name><type>Visit</type><desc>Part of shipment Shipment-35,Arrival time: 2024-01-19T16:05:00</desc></wpt><wpt lat="51.1470669" lon="4.8211093"><name>ZGDZH2fTYmnE5xPS</name><type>Unvisited</type><desc>Route engine has not provided an explanation</desc></wpt><wpt lat="51.0267727" lon="3.6746011"><name>VXhljbdf6sdCoMZD</name><type>Delivery</type><desc>Part of shipment Shipment-14</desc></wpt><wpt lat="51.2110796" lon="3.2465557"><name>8vTicZhT4kk1MbJ5</name><type>Delivery</type><desc>Part of shipment Shipment-45</desc></wpt><wpt lat="51.1684497" lon="3.8588267"><name>jLfmWoZX3uAgN7mm</name><type>Pickup</type><desc>Part of shipment Shipment-10</desc></wpt><wpt lat="51.2524776" lon="4.0818396"><name>GXH7pfHCQd7Nprv7</name><type>Delivery</type><desc>Part of shipment Shipment-44</desc></wpt><wpt lat="51.2909877" lon="3.1552084"><name>Start location for vehicle-0</name><type>Vehicle Start</type><desc>Cargo Capacity: [1500, 3000]</desc></wpt><wpt lat="50.9073263" lon="3.4588321"><name>oEy00GIYpDc931gt</name><type>Unvisited</type><desc>Route engine has not provided an explanation</desc></wpt><wpt lat="50.869844" lon="4.1499604"><name>MGqSE5qqSHOFGnH8</name><type>Pickup</type><desc>Part of shipment Shipment-37</desc></wpt><wpt lat="50.8646276" lon="5.190629"><name>EStjiTKlCUYtSo9l</name><type>Pickup</type><desc>Part of shipment Shipment-48</desc></wpt><wpt lat="51.1951606" lon="4.4230137"><name>muHbxmi4QABv4R3m</name><type>Unvisited</type><desc>Route engine has not provided an explanation</desc></wpt><wpt lat="50.9608802" lon="3.5165784"><name>K2m41L0IVVjRn5ay</name><type>Pickup</type><desc>Part of shipment Shipment-36</desc></wpt><wpt lat="51.1265639" lon="4.2142791"><name>15l0xZUCF19sJwbF</name><type>Delivery</type><desc>Part of shipment Shipment-12</desc></wpt><wpt lat="51.1901247" lon="3.2332776"><name>z3tkdJdp1f8tZrnc</name><type>Delivery</type><desc>Part of shipment Shipment-41</desc></wpt><wpt lat="50.8646276" lon="5.190629"><name>Ly3UFPuAnfQtYGn3</name><type>Unvisited</type><desc>Route engine has not provided an explanation</desc></wpt><wpt lat="50.9608802" lon="3.5165784"><name>K2m41L0IVVjRn5ay</name><type>Unvisited</type><desc>Route engine has not provided an explanation</desc></wpt><wpt lat="50.9608802" lon="3.5165784"><name>IU2Rj0rWVVg07fvB</name><type>Pickup</type><desc>Part of shipment Shipment-19</desc></wpt><wpt lat="51.0458284" lon="4.4947075"><name>DgskqX5m8hZHfJpu</name><type>Pickup</type><desc>Part of shipment Shipment-8</desc></wpt><wpt lat="50.7428911" lon="4.2295545"><name>End location for vehicle-1</name><type>Vehicle Start</type></wpt><wpt lat="51.0267727" lon="3.6746011"><name>YPgHm9ctUKSUOaPl</name><type>Unvisited</type><desc>Route engine has not provided an explanation</desc></wpt><wpt lat="51.3251924" lon="4.9544569"><name>yVBfyN2q6xPRFGPX</name><type>Delivery</type><desc>Part of shipment Shipment-47</desc></wpt><wpt lat="50.9535588" lon="5.2708402"><name>HsrSuchFBn8DImmv</name><type>Unvisited</type><desc>Route engine has not provided an explanation</desc></wpt><wpt lat="51.1329137" lon="4.0722238"><name>jCMEDqVNx30ExmbH</name><type>Delivery</type><desc>Part of shipment Shipment-29</desc></wpt><wpt lat="50.8367728" lon="5.4226943"><name>tZGwSw8qfJwOGREJ</name><type>Unvisited</type><desc>Route engine has not provided an explanation</desc></wpt><wpt lat="50.8821005" lon="4.6838064"><name>Start location for vehicle-2</name><type>Vehicle Start</type><desc>Cargo Capacity: [3000, 6000]</desc></wpt><wpt lat="50.9581899" lon="5.3482758"><name>Rfz5Hy0ExG0bgVdu</name><type>Unvisited</type><desc>Route engine has not provided an explanation</desc></wpt><wpt lat="50.8341421" lon="3.6060018"><name>eNoWRx9rIwiErfXO</name><type>Delivery</type><desc>Part of shipment Shipment-36</desc></wpt><wpt lat="50.9198753" lon="4.1857824"><name>ygFnRRUodCrTLLCy</name><type>Visit</type><desc>Arrival time: 2024-01-19T15:00:00,Part of shipment Shipment-35</desc></wpt><wpt lat="50.8646276" lon="5.190629"><name>EStjiTKlCUYtSo9l</name><type>Unvisited</type><desc>Route engine has not provided an explanation</desc></wpt><wpt lat="50.7592166" lon="5.3641818"><name>lVTnws0s1tjkXD8M</name><type>Pickup</type><desc>Part of shipment Shipment-5</desc></wpt><wpt lat="51.3302922" lon="4.9528374"><name>jU4FnFA6enWxHqrE</name><type>Delivery</type><desc>Part of shipment Shipment-17</desc></wpt><wpt lat="50.9208303" lon="3.6813932"><name>htAJMRwZeKTCiB8W</name><type>Delivery</type><desc>Part of shipment Shipment-16</desc></wpt><wpt lat="51.0149222" lon="4.3064897"><name>NQnVXrLu6O4fHoTx</name><type>Unvisited</type><desc>Route engine has not provided an explanation</desc></wpt><wpt lat="51.1470669" lon="4.8211093"><name>O2LzjSjoroNIHloo</name><type>Visit</type><desc>Part of shipment Shipment-41,Arrival time: 2024-01-19T08:25:00</desc></wpt><wpt lat="51.2909877" lon="3.1552084"><name>End location for vehicle-0</name><type>Vehicle Start</type></wpt><wpt lat="50.9073263" lon="3.4588321"><name>2wpvGM2mLliknZxM</name><type>Pickup</type><desc>Part of shipment Shipment-33</desc></wpt><wpt lat="51.3251924" lon="4.9544569"><name>8WTa3MVj42jDcb7O</name><type>Pickup</type><desc>Part of shipment Shipment-2</desc></wpt><wpt lat="50.7592166" lon="5.3641818"><name>UN0up5gGE63QBZW0</name><type>Pickup</type><desc>Part of shipment Shipment-13</desc></wpt><wpt lat="51.0267727" lon="3.6746011"><name>tTAkZtEuWSuWEACI</name><type>Pickup</type><desc>Part of shipment Shipment-30</desc></wpt><wpt lat="50.9073263" lon="3.4588321"><name>qDljbw9tF8y7IjMD</name><type>Delivery</type><desc>Part of shipment Shipment-46</desc></wpt><wpt lat="51.0673143" lon="5.0066273"><name>pk95cE0Va0Y2GMAY</name><type>Delivery</type><desc>Part of shipment Shipment-9</desc></wpt><wpt lat="51.0149222" lon="4.3064897"><name>GDeDxZJrV6pK8ZBO</name><type>Unvisited</type><desc>Route engine has not provided an explanation</desc></wpt><wpt lat="50.8788795" lon="4.45758"><name>pB0SYMLTOTbtvalU</name><type>Unvisited</type><desc>Route engine has not provided an explanation</desc></wpt><wpt lat="50.8788795" lon="4.45758"><name>n9waWjTreF1JUIT4</name><type>Visit</type><desc>Part of shipment Shipment-42,Arrival time: 2024-01-19T11:38:00</desc></wpt><wpt lat="50.9535588" lon="5.2708402"><name>O6B6tE8qcq0qChGr</name><type>Pickup</type><desc>Part of shipment Shipment-29</desc></wpt><wpt lat="51.0722719" lon="3.7108181"><name>5Nj30OFE7GRDpKar</name><type>Delivery</type><desc>Part of shipment Shipment-13</desc></wpt><wpt lat="50.7592166" lon="5.3641818"><name>lbv6mEQLUBp520hy</name><type>Unvisited</type><desc>Route engine has not provided an explanation</desc></wpt><wpt lat="50.9208303" lon="3.6813932"><name>htAJMRwZeKTCiB8W</name><type>Unvisited</type><desc>Route engine has not provided an explanation</desc></wpt><wpt lat="50.9608802" lon="3.5165784"><name>IU2Rj0rWVVg07fvB</name><type>Unvisited</type><desc>Route engine has not provided an explanation</desc></wpt><wpt lat="51.1470669" lon="4.8211093"><name>A5wl8sA0OE5GcgL8</name><type>Pickup</type><desc>Part of shipment Shipment-20</desc></wpt><wpt lat="50.9303226" lon="4.0410227"><name>M71AfgMZmd8qHqlN</name><type>Pickup</type><desc>Part of shipment Shipment-25</desc></wpt><wpt lat="51.1684497" lon="3.8588267"><name>nJpKoyT5PXWWZNm0</name><type>Pickup</type><desc>Part of shipment Shipment-14</desc></wpt><wpt lat="51.0722719" lon="3.7108181"><name>5Nj30OFE7GRDpKar</name><type>Unvisited</type><desc>Route engine has not provided an explanation</desc></wpt><wpt lat="51.1265639" lon="4.2142791"><name>15l0xZUCF19sJwbF</name><type>Unvisited</type><desc>Route engine has not provided an explanation</desc></wpt><wpt lat="50.7592166" lon="5.3641818"><name>lbv6mEQLUBp520hy</name><type>Delivery</type><desc>Part of shipment Shipment-31</desc></wpt><wpt lat="51.1684497" lon="3.8588267"><name>nJpKoyT5PXWWZNm0</name><type>Unvisited</type><desc>Route engine has not provided an explanation</desc></wpt><wpt lat="51.1470669" lon="4.8211093"><name>O2LzjSjoroNIHloo</name><type>Pickup</type><desc>Part of shipment Shipment-41</desc></wpt><wpt lat="50.9581899" lon="5.3482758"><name>PGw6JVklwCrNrONr</name><type>Unvisited</type><desc>Route engine has not provided an explanation</desc></wpt><wpt lat="51.4373683" lon="4.4470142"><name>e6tQoIIWbeBnTlxM</name><type>Pickup</type><desc>Part of shipment Shipment-47</desc></wpt><wpt lat="51.2222937" lon="4.4043421"><name>d3ZgsYZILZqbiXU8</name><type>Unvisited</type><desc>Route engine has not provided an explanation</desc></wpt><wpt lat="50.9581899" lon="5.3482758"><name>6QZ0cqLxXcaqdTy0</name><type>Pickup</type><desc>Part of shipment Shipment-21</desc></wpt><wpt lat="51.1262653" lon="4.4670892"><name>1F0zJ41ZLsFrS3vW</name><type>Delivery</type><desc>Part of shipment Shipment-2</desc></wpt><wpt lat="51.2110796" lon="3.2465557"><name>KaIsLBtZMQ3g4NkI</name><type>Unvisited</type><desc>Route engine has not provided an explanation</desc></wpt><wpt lat="51.2222941" lon="4.4666895"><name>BRZzrMixMbNwYlm2</name><type>Unvisited</type><desc>Route engine has not provided an explanation</desc></wpt><wpt lat="51.206674" lon="2.9315028"><name>EF1GYB9kNvblmH1X</name><type>Pickup</type><desc>Part of shipment Shipment-23</desc></wpt><wpt lat="50.9303226" lon="4.0410227"><name>M71AfgMZmd8qHqlN</name><type>Unvisited</type><desc>Route engine has not provided an explanation</desc></wpt><wpt lat="51.4373683" lon="4.4470142"><name>uClRv1DACRpHdL8O</name><type>Unvisited</type><desc>Route engine has not provided an explanation</desc></wpt><wpt lat="50.8367728" lon="5.4226943"><name>1IXtSFb1Zwdtj9ff</name><type>Delivery</type><desc>Part of shipment Shipment-5</desc></wpt><wpt lat="51.1329137" lon="4.0722238"><name>AX5hZF1Ln9cKrOGl</name><type>Unvisited</type><desc>Route engine has not provided an explanation</desc></wpt><wpt lat="51.0673143" lon="5.0066273"><name>pk95cE0Va0Y2GMAY</name><type>Unvisited</type><desc>Route engine has not provided an explanation</desc></wpt><wpt lat="50.9311494" lon="5.5930171"><name>Hu4TRiiCWYbi69LR</name><type>Unvisited</type><desc>Route engine has not provided an explanation</desc></wpt><wpt lat="50.9330451" lon="5.4344481"><name>Ux6eeT5uqDc9MH0R</name><type>Unvisited</type><desc>Route engine has not provided an explanation</desc></wpt><wpt lat="50.9330451" lon="5.4344481"><name>0QdpeZ2TRlykpcKj</name><type>Pickup</type><desc>Part of shipment Shipment-43</desc></wpt><wpt lat="50.8788795" lon="4.45758"><name>pB0SYMLTOTbtvalU</name><type>Delivery</type><desc>Part of shipment Shipment-48</desc></wpt><wpt lat="51.3251924" lon="4.9544569"><name>ypvQqeTwNFIn5xVy</name><type>Unvisited</type><desc>Route engine has not provided an explanation</desc></wpt><wpt lat="50.7486723" lon="5.4432285"><name>FtEjTR3kKQB3tQmn</name><type>Delivery</type><desc>Part of shipment Shipment-42</desc></wpt><wpt lat="51.1262653" lon="4.4670892"><name>1F0zJ41ZLsFrS3vW</name><type>Unvisited</type><desc>Route engine has not provided an explanation</desc></wpt><wpt lat="50.8341421" lon="3.6060018"><name>eNoWRx9rIwiErfXO</name><type>Unvisited</type><desc>Route engine has not provided an explanation</desc></wpt><wpt lat="51.3302922" lon="4.9528374"><name>jU4FnFA6enWxHqrE</name><type>Unvisited</type><desc>Route engine has not provided an explanation</desc></wpt><wpt lat="50.8367728" lon="5.4226943"><name>1IXtSFb1Zwdtj9ff</name><type>Unvisited</type><desc>Route engine has not provided an explanation</desc></wpt><wpt lat="51.1901247" lon="3.2332776"><name>oufaATizgt7b3IKH</name><type>Unvisited</type><desc>Route engine has not provided an explanation</desc></wpt><wpt lat="50.9208303" lon="3.6813932"><name>rarq3IYg0Da12bLY</name><type>Unvisited</type><desc>Route engine has not provided an explanation</desc></wpt><wpt lat="50.7592166" lon="5.3641818"><name>lVTnws0s1tjkXD8M</name><type>Unvisited</type><desc>Route engine has not provided an explanation</desc></wpt><wpt lat="51.206674" lon="2.9315028"><name>EF1GYB9kNvblmH1X</name><type>Unvisited</type><desc>Route engine has not provided an explanation</desc></wpt><wpt lat="50.9630137" lon="4.9440278"><name>fzHF3UtfdnZ5pgCz</name><type>Unvisited</type><desc>Route engine has not provided an explanation</desc></wpt><wpt lat="50.9494048" lon="3.2796391"><name>OCu76fFG1CvCrUkG</name><type>Pickup</type><desc>Part of shipment Shipment-24</desc></wpt><wpt lat="51.0770171" lon="3.4650384"><name>n1e71TCF8VsxNCPy</name><type>Pickup</type><desc>Part of shipment Shipment-18</desc></wpt><wpt lat="50.7428911" lon="4.2295545"><name>Start location for vehicle-1</name><type>Vehicle Start</type><desc>Cargo Capacity: [3000, 6000]</desc></wpt><wpt lat="51.2204941" lon="4.1291551"><name>uRa3rrDJJn0nzj1P</name><type>Pickup</type><desc>Part of shipment Shipment-12</desc></wpt><wpt lat="50.9535588" lon="5.2708402"><name>vmXIiKT7B4th3fKz</name><type>Unvisited</type><desc>Route engine has not provided an explanation</desc></wpt><wpt lat="50.9311494" lon="5.5930171"><name>Hu4TRiiCWYbi69LR</name><type>Pickup</type><desc>Part of shipment Shipment-11</desc></wpt><wpt lat="51.2110796" lon="3.2465557"><name>KaIsLBtZMQ3g4NkI</name><type>Delivery</type><desc>Part of shipment Shipment-23</desc></wpt><wpt lat="50.869844" lon="4.1499604"><name>MGqSE5qqSHOFGnH8</name><type>Unvisited</type><desc>Route engine has not provided an explanation</desc></wpt><wpt lat="51.0770171" lon="3.4650384"><name>MXTeijMdcalD8rvo</name><type>Unvisited</type><desc>Route engine has not provided an explanation</desc></wpt><wpt lat="50.9208303" lon="3.6813932"><name>rarq3IYg0Da12bLY</name><type>Pickup</type><desc>Part of shipment Shipment-4</desc></wpt><wpt lat="51.4373683" lon="4.4470142"><name>lP4zg3XEDka8vn82</name><type>Pickup</type><desc>Part of shipment Shipment-3</desc></wpt><wpt lat="51.1470669" lon="4.8211093"><name>ZGDZH2fTYmnE5xPS</name><type>Pickup</type><desc>Part of shipment Shipment-40</desc></wpt><wpt lat="51.4373683" lon="4.4470142"><name>Z3J8BLXCFkXnd7OH</name><type>Unvisited</type><desc>Route engine has not provided an explanation</desc></wpt><wpt lat="50.9494048" lon="3.2796391"><name>OCu76fFG1CvCrUkG</name><type>Unvisited</type><desc>Route engine has not provided an explanation</desc></wpt><wpt lat="50.7486723" lon="5.4432285"><name>OXEiVD3SKonFVyAv</name><type>Unvisited</type><desc>Route engine has not provided an explanation</desc></wpt><wpt lat="51.0074095" lon="3.6257475"><name>c0DpP4cuFoZH63YW</name><type>Unvisited</type><desc>Route engine has not provided an explanation</desc></wpt><wpt lat="51.0149222" lon="4.3064897"><name>qdO7DAsbMb84qJ1R</name><type>Delivery</type><desc>Part of shipment Shipment-11</desc></wpt><wpt lat="51.0267727" lon="3.6746011"><name>YPgHm9ctUKSUOaPl</name><type>Delivery</type><desc>Part of shipment Shipment-4</desc></wpt><wpt lat="51.0149222" lon="4.3064897"><name>GDeDxZJrV6pK8ZBO</name><type>Pickup</type><desc>Part of shipment Shipment-15</desc></wpt><wpt lat="51.0267727" lon="3.6746011"><name>Ucwt9wFqGByxkPUz</name><type>Pickup</type><desc>Part of shipment Shipment-34</desc></wpt><wpt lat="51.2222937" lon="4.4043421"><name>LyXi9Yzuq7ZahSz4</name><type>Unvisited</type><desc>Route engine has not provided an explanation</desc></wpt><wpt lat="51.1951606" lon="4.4230137"><name>fEKcOEF5ENyD6tOR</name><type>Delivery</type><desc>Part of shipment Shipment-39</desc></wpt><wpt lat="50.8803562" lon="3.4070951"><name>d39Oqfxvja4k2FK0</name><type>Unvisited</type><desc>Route engine has not provided an explanation</desc></wpt><wpt lat="50.9581899" lon="5.3482758"><name>PGw6JVklwCrNrONr</name><type>Delivery</type><desc>Part of shipment Shipment-28</desc></wpt><wpt lat="51.2222941" lon="4.4666895"><name>BRZzrMixMbNwYlm2</name><type>Pickup</type><desc>Part of shipment Shipment-7</desc></wpt><wpt lat="51.3251924" lon="4.9544569"><name>8WTa3MVj42jDcb7O</name><type>Unvisited</type><desc>Route engine has not provided an explanation</desc></wpt><wpt lat="50.8341421" lon="3.6060018"><name>YzqVRa6RH72AH4rf</name><type>Unvisited</type><desc>Route engine has not provided an explanation</desc></wpt><wpt lat="51.2222941" lon="4.4666895"><name>CMvtOffrDEKAHumL</name><type>Unvisited</type><desc>Route engine has not provided an explanation</desc></wpt><wpt lat="51.4373683" lon="4.4470142"><name>uClRv1DACRpHdL8O</name><type>Pickup</type><desc>Part of shipment Shipment-0</desc></wpt><wpt lat="51.2222941" lon="4.4666895"><name>CMvtOffrDEKAHumL</name><type>Delivery</type><desc>Part of shipment Shipment-33</desc></wpt><wpt lat="51.206674" lon="2.9315028"><name>rdfxHtn2ca1F2DEp</name><type>Pickup</type><desc>Part of shipment Shipment-6</desc></wpt><wpt lat="51.0149222" lon="4.3064897"><name>NQnVXrLu6O4fHoTx</name><type>Delivery</type><desc>Part of shipment Shipment-49</desc></wpt><wpt lat="51.0770171" lon="3.4650384"><name>n1e71TCF8VsxNCPy</name><type>Unvisited</type><desc>Route engine has not provided an explanation</desc></wpt><wpt lat="50.9330451" lon="5.4344481"><name>B0i33UKO8N5Eh2Ia</name><type>Unvisited</type><desc>Route engine has not provided an explanation</desc></wpt><wpt lat="50.869844" lon="4.1499604"><name>bosfw5FIZhSz6tVc</name><type>Pickup</type><desc>Part of shipment Shipment-44</desc></wpt><wpt lat="51.1901247" lon="3.2332776"><name>z65W9nDBi20Hdmrw</name><type>Delivery</type><desc>Part of shipment Shipment-37</desc></wpt><wpt lat="51.2222937" lon="4.4043421"><name>LyXi9Yzuq7ZahSz4</name><type>Delivery</type><desc>Part of shipment Shipment-3</desc></wpt><wpt lat="51.1470669" lon="4.8211093"><name>wgL87nel78MK18N5</name><type>Unvisited</type><desc>Route engine has not provided an explanation</desc></wpt><wpt lat="50.9073263" lon="3.4588321"><name>oEy00GIYpDc931gt</name><type>Delivery</type><desc>Part of shipment Shipment-24</desc></wpt><wpt lat="51.206674" lon="2.9315028"><name>rdfxHtn2ca1F2DEp</name><type>Unvisited</type><desc>Route engine has not provided an explanation</desc></wpt><wpt lat="51.1372225" lon="4.6356542"><name>7DT92W2ZYWm8RNRJ</name><type>Delivery</type><desc>Part of shipment Shipment-21</desc></wpt><wpt lat="50.8803562" lon="3.4070951"><name>E3X0jneOBMBcWXCE</name><type>Unvisited</type><desc>Route engine has not provided an explanation</desc></wpt><wpt lat="51.113309" lon="4.1407415"><name>zl5JiM69MnUes0Wn</name><type>Unvisited</type><desc>Route engine has not provided an explanation</desc></wpt><wpt lat="51.0074095" lon="3.6257475"><name>c0DpP4cuFoZH63YW</name><type>Delivery</type><desc>Part of shipment Shipment-15</desc></wpt><wpt lat="50.869844" lon="4.1499604"><name>PrOkkjf77wmCu6Ou</name><type>Pickup</type><desc>Part of shipment Shipment-39</desc></wpt><wpt lat="51.1372225" lon="4.6356542"><name>7DT92W2ZYWm8RNRJ</name><type>Unvisited</type><desc>Route engine has not provided an explanation</desc></wpt><wpt lat="51.2110796" lon="3.2465557"><name>8vTicZhT4kk1MbJ5</name><type>Unvisited</type><desc>Route engine has not provided an explanation</desc></wpt><wpt lat="51.0267727" lon="3.6746011"><name>Ucwt9wFqGByxkPUz</name><type>Unvisited</type><desc>Route engine has not provided an explanation</desc></wpt><wpt lat="50.9303226" lon="4.0410227"><name>EmYWuVN5BuU8Zv8B</name><type>Delivery</type><desc>Part of shipment Shipment-7</desc></wpt><wpt lat="50.8821005" lon="4.6838064"><name>End location for vehicle-2</name><type>Vehicle Start</type></wpt><wpt lat="51.0629618" lon="5.275901"><name>tQWrgiGfzlymqmAS</name><type>Unvisited</type><desc>Route engine has not provided an explanation</desc></wpt><wpt lat="51.0770171" lon="3.4650384"><name>MXTeijMdcalD8rvo</name><type>Delivery</type><desc>Part of shipment Shipment-10</desc></wpt><wpt lat="51.4373683" lon="4.4470142"><name>lP4zg3XEDka8vn82</name><type>Unvisited</type><desc>Route engine has not provided an explanation</desc></wpt><wpt lat="50.8646276" lon="5.190629"><name>aLxISNS0bxutmBl2</name><type>Delivery</type><desc>Part of shipment Shipment-6</desc></wpt><wpt lat="51.0267727" lon="3.6746011"><name>tTAkZtEuWSuWEACI</name><type>Unvisited</type><desc>Route engine has not provided an explanation</desc></wpt><wpt lat="50.8341421" lon="3.6060018"><name>YzqVRa6RH72AH4rf</name><type>Delivery</type><desc>Part of shipment Shipment-30</desc></wpt><wpt lat="50.8788795" lon="4.45758"><name>n9waWjTreF1JUIT4</name><type>Pickup</type><desc>Part of shipment Shipment-42</desc></wpt><wpt lat="51.2204941" lon="4.1291551"><name>uRa3rrDJJn0nzj1P</name><type>Unvisited</type><desc>Route engine has not provided an explanation</desc></wpt><wpt lat="50.8803562" lon="3.4070951"><name>E3X0jneOBMBcWXCE</name><type>Delivery</type><desc>Part of shipment Shipment-25</desc></wpt><wpt lat="51.0267727" lon="3.6746011"><name>VXhljbdf6sdCoMZD</name><type>Unvisited</type><desc>Route engine has not provided an explanation</desc></wpt><wpt lat="51.3251924" lon="4.9544569"><name>i6kfNkcxfk10mGYy</name><type>Pickup</type><desc>Part of shipment Shipment-16</desc></wpt><wpt lat="51.2524776" lon="4.0818396"><name>GXH7pfHCQd7Nprv7</name><type>Visit</type><desc>Arrival time: 2024-01-19T16:25:00,Part of shipment Shipment-44</desc></wpt><wpt lat="50.9198753" lon="4.1857824"><name>ygFnRRUodCrTLLCy</name><type>Pickup</type><desc>Part of shipment Shipment-35</desc></wpt><wpt lat="51.1901247" lon="3.2332776"><name>z65W9nDBi20Hdmrw</name><type>Unvisited</type><desc>Route engine has not provided an explanation</desc></wpt><wpt lat="51.1951606" lon="4.4230137"><name>muHbxmi4QABv4R3m</name><type>Pickup</type><desc>Part of shipment Shipment-9</desc></wpt><wpt lat="50.8646276" lon="5.190629"><name>Ly3UFPuAnfQtYGn3</name><type>Pickup</type><desc>Part of shipment Shipment-27</desc></wpt><wpt lat="51.4373683" lon="4.4470142"><name>e6tQoIIWbeBnTlxM</name><type>Unvisited</type><desc>Route engine has not provided an explanation</desc></wpt><wpt lat="50.9330451" lon="5.4344481"><name>B0i33UKO8N5Eh2Ia</name><type>Pickup</type><desc>Part of shipment Shipment-17</desc></wpt><wpt lat="51.1470669" lon="4.8211093"><name>A5wl8sA0OE5GcgL8</name><type>Unvisited</type><desc>Route engine has not provided an explanation</desc></wpt><wpt lat="51.1329137" lon="4.0722238"><name>AX5hZF1Ln9cKrOGl</name><type>Delivery</type><desc>Part of shipment Shipment-32</desc></wpt><wpt lat="50.9073263" lon="3.4588321"><name>2wpvGM2mLliknZxM</name><type>Unvisited</type><desc>Route engine has not provided an explanation</desc></wpt><wpt lat="51.1951606" lon="4.4230137"><name>gMOgf3l6oI8bzsOG</name><type>Visit</type><desc>Arrival time: 2024-01-19T17:15:00,Part of shipment Shipment-26</desc></wpt><wpt lat="51.0458284" lon="4.4947075"><name>LFTMF30TIbJnn2pd</name><type>Unvisited</type><desc>Route engine has not provided an explanation</desc></wpt><wpt lat="50.8646276" lon="5.190629"><name>aLxISNS0bxutmBl2</name><type>Unvisited</type><desc>Route engine has not provided an explanation</desc></wpt><wpt lat="51.1951606" lon="4.4230137"><name>fEKcOEF5ENyD6tOR</name><type>Visit</type><desc>Arrival time: 2024-01-19T17:05:00,Part of shipment Shipment-39</desc></wpt><wpt lat="50.7486723" lon="5.4432285"><name>FtEjTR3kKQB3tQmn</name><type>Visit</type><desc>Part of shipment Shipment-42,Arrival time: 2024-01-19T12:47:00</desc></wpt><wpt lat="51.0458284" lon="4.4947075"><name>DgskqX5m8hZHfJpu</name><type>Unvisited</type><desc>Route engine has not provided an explanation</desc></wpt><wpt lat="50.869844" lon="4.1499604"><name>bosfw5FIZhSz6tVc</name><type>Visit</type><desc>Arrival time: 2024-01-19T14:36:00,Part of shipment Shipment-44</desc></wpt><wpt lat="51.4373683" lon="4.4470142"><name>UAwheZRvAiSHxpVs</name><type>Unvisited</type><desc>Route engine has not provided an explanation</desc></wpt><wpt lat="51.0629618" lon="5.275901"><name>tQWrgiGfzlymqmAS</name><type>Delivery</type><desc>Part of shipment Shipment-1</desc></wpt><wpt lat="50.9535588" lon="5.2708402"><name>O6B6tE8qcq0qChGr</name><type>Unvisited</type><desc>Route engine has not provided an explanation</desc></wpt><wpt lat="51.2110796" lon="3.2465557"><name>7vUAz5nrMZnp38zt</name><type>Unvisited</type><desc>Route engine has not provided an explanation</desc></wpt><wpt lat="51.113309" lon="4.1407415"><name>zl5JiM69MnUes0Wn</name><type>Delivery</type><desc>Part of shipment Shipment-34</desc></wpt><wpt lat="51.0458284" lon="4.4947075"><name>LFTMF30TIbJnn2pd</name><type>Delivery</type><desc>Part of shipment Shipment-18</desc></wpt><wpt lat="50.869844" lon="4.1499604"><name>PrOkkjf77wmCu6Ou</name><type>Visit</type><desc>Arrival time: 2024-01-19T14:26:00,Part of shipment Shipment-39</desc></wpt><wpt lat="51.0074095" lon="3.6257475"><name>nWUgWOljIeK4DwmK</name><type>Delivery</type><desc>Part of shipment Shipment-38</desc></wpt><wpt lat="51.1901247" lon="3.2332776"><name>oufaATizgt7b3IKH</name><type>Pickup</type><desc>Part of shipment Shipment-49</desc></wpt><wpt lat="51.3251924" lon="4.9544569"><name>ypvQqeTwNFIn5xVy</name><type>Delivery</type><desc>Part of shipment Shipment-8</desc></wpt><wpt lat="51.1901247" lon="3.2332776"><name>z3tkdJdp1f8tZrnc</name><type>Visit</type><desc>Part of shipment Shipment-41,Arrival time: 2024-01-19T10:11:00</desc></wpt></gpx>