<?xml version='1.0' encoding='UTF-8'?><gpx name="Route-1" version="1.1" creator="org.metavrp.gpx"><desc/><rte><name>vehicle-0 2024-01-19</name><rtept lat="50.8942728" lon="5.6597421"/><rtept lat="51.2421019" lon="4.8973012"/><rtept lat="51.1685317" lon="4.1683878"/><rtept lat="50.8890291" lon="4.9489463"/><rtept lat="50.9076309" lon="4.3540653"/><rtept lat="50.9625551" lon="4.0080834"/><rtept lat="51.2334936" lon="5.3330972"/><rtept lat="50.7389076" lon="5.8377935"/><rtept lat="50.7810777" lon="5.4636785"/><rtept lat="51.1323616" lon="4.2928751"/><rtept lat="51.2175218" lon="4.3980371"/><rtept lat="51.1323616" lon="4.2928751"/><rtept lat="50.9076309" lon="4.3540653"/><rtept lat="51.2030925" lon="4.4333058"/><rtept lat="51.2046893" lon="4.7887422"/><rtept lat="50.7389076" lon="5.8377935"/><rtept lat="51.2030925" lon="4.4333058"/><rtept lat="50.9419963" lon="4.0187048"/><rtept lat="51.1707463" lon="4.146673"/><rtept lat="51.2175218" lon="4.3980371"/><rtept lat="51.1605143" lon="4.355005"/><rtept lat="51.3171646" lon="4.926024"/><rtept lat="51.1303135" lon="3.0285744"/><rtept lat="50.8942728" lon="5.6597421"/></rte><wpt lat="51.1551938" lon="5.4142872"><name>Be9VfZtjFhEB3Qc8</name><type>Unvisited</type><desc>Route engine has not provided an explanation</desc></wpt><wpt lat="50.9306079" lon="3.3965257"><name>xC4kqNUxx3fiYyUR</name><type>Unvisited</type><desc>Route engine has not provided an explanation</desc></wpt><wpt lat="51.1303135" lon="3.0285744"><name>Va6bOvpcQvA2mNPf</name><type>Delivery</type><desc>Part of shipment Shipment-45</desc></wpt><wpt lat="51.2421019" lon="4.8973012"><name>eW7bF0NJ97AgWNLQ</name><type>Pickup</type><desc>Part of shipment Shipment-42</desc></wpt><wpt lat="51.2421019" lon="4.8973012"><name>eW7bF0NJ97AgWNLQ</name><type>Unvisited</type><desc>Route engine has not provided an explanation</desc></wpt><wpt lat="51.2030925" lon="4.4333058"><name>0LgReuiUQ0OXCsaU</name><type>Unvisited</type><desc>Route engine has not provided an explanation</desc></wpt><wpt lat="51.1303135" lon="3.0285744"><name>PQgrUgz0DDyYq5tK</name><type>Delivery</type><desc>Part of shipment Shipment-43</desc></wpt><wpt lat="51.2286413" lon="4.4620844"><name>JTFPj6GvfQJiETf5</name><type>Unvisited</type><desc>Route engine has not provided an explanation</desc></wpt><wpt lat="51.2046893" lon="4.7887422"><name>JBbZPKaUcWQEr4tb</name><type>Visit</type><desc>Arrival time: 2024-01-19T23:09:00,Part of shipment Shipment-46</desc></wpt><wpt lat="51.2286413" lon="4.4620844"><name>iF3M7FHpLXISAgmR</name><type>Pickup</type><desc>Part of shipment Shipment-40</desc></wpt><wpt lat="50.8942728" lon="5.6597421"><name>End location for vehicle-0</name><type>Vehicle Start</type></wpt><wpt lat="50.8291476" lon="4.9913152"><name>xSEOBaM3gbMnUGTg</name><type>Pickup</type><desc>Part of shipment Shipment-17</desc></wpt><wpt lat="50.8942728" lon="5.6597421"><name>Start location for vehicle-0</name><type>Vehicle Start</type><desc>Cargo Capacity: [1200, 5500]</desc></wpt><wpt lat="50.9082591" lon="3.2179229"><name>cO0cwwZvoLLKvSRD</name><type>Unvisited</type><desc>Route engine has not provided an explanation</desc></wpt><wpt lat="50.9625551" lon="4.0080834"><name>ri1DJEbWcfDAaQOh</name><type>Pickup</type><desc>Part of shipment Shipment-32</desc></wpt><wpt lat="50.7389076" lon="5.8377935"><name>EVq6Rj4th5Mjc0W4</name><type>Unvisited</type><desc>Route engine has not provided an explanation</desc></wpt><wpt lat="51.3162396" lon="4.9326885"><name>LqY46SAOcfeUh6Al</name><type>Delivery</type><desc>Part of shipment Shipment-1</desc></wpt><wpt lat="51.0293863" lon="5.5378206"><name>fGM7ZOngtXGZarXG</name><type>Unvisited</type><desc>Route engine has not provided an explanation</desc></wpt><wpt lat="51.0533616" lon="4.759399"><name>bFmNzjdANl5kP9ha</name><type>Unvisited</type><desc>Route engine has not provided an explanation</desc></wpt><wpt lat="51.2464552" lon="4.4452016"><name>en7NDGeVvfhOMUHt</name><type>Delivery</type><desc>Part of shipment Shipment-3</desc></wpt><wpt lat="51.2334936" lon="5.3330972"><name>VmVK5dCEItBM6NZR</name><type>Delivery</type><desc>Part of shipment Shipment-5</desc></wpt><wpt lat="51.2286413" lon="4.4620844"><name>JTFPj6GvfQJiETf5</name><type>Delivery</type><desc>Part of shipment Shipment-15</desc></wpt><wpt lat="51.0217819" lon="5.7269191"><name>WzQFw2xr1Gr1dW1q</name><type>Pickup</type><desc>Part of shipment Shipment-7</desc></wpt><wpt lat="51.0164348" lon="4.1120604"><name>kXs3jDRAgQdpMgRL</name><type>Delivery</type><desc>Part of shipment Shipment-25</desc></wpt><wpt lat="50.9306079" lon="3.3965257"><name>fgjWgMAKJgQvs2F5</name><type>Unvisited</type><desc>Route engine has not provided an explanation</desc></wpt><wpt lat="50.9076309" lon="4.3540653"><name>mlORab8V4PgiXc2P</name><type>Unvisited</type><desc>Route engine has not provided an explanation</desc></wpt><wpt lat="51.3162396" lon="4.9326885"><name>QRyXWCL6RGXThlVt</name><type>Unvisited</type><desc>Route engine has not provided an explanation</desc></wpt><wpt lat="51.2334936" lon="5.3330972"><name>VmVK5dCEItBM6NZR</name><type>Unvisited</type><desc>Route engine has not provided an explanation</desc></wpt><wpt lat="50.9625551" lon="4.0080834"><name>dFuCtVGwjbE6Eu4p</name><type>Visit</type><desc>Part of shipment Shipment-33,Arrival time: 2024-01-19T13:35:00</desc></wpt><wpt lat="51.0472881" lon="4.5328556"><name>weCl8dE3boe41Dc2</name><type>Delivery</type><desc>Part of shipment Shipment-20</desc></wpt><wpt lat="50.7389076" lon="5.8377935"><name>14YbRnBSJzRpG4Ao</name><type>Pickup</type><desc>Part of shipment Shipment-34</desc></wpt><wpt lat="51.1605143" lon="4.355005"><name>O5XkoGSkQzm8cGGH</name><type>Visit</type><desc>Part of shipment Shipment-8,Arrival time: 2024-01-19T05:50:00</desc></wpt><wpt lat="50.9709995" lon="3.537154"><name>y6OZcDlWjYh3jQvZ</name><type>Delivery</type><desc>Part of shipment Shipment-0</desc></wpt><wpt lat="51.1950882" lon="4.4888687"><name>cNMWDXlmNpsY1yK7</name><type>Unvisited</type><desc>Route engine has not provided an explanation</desc></wpt><wpt lat="51.1707463" lon="4.146673"><name>RgQlksuCn3aIxRtZ</name><type>Visit</type><desc>Part of shipment Shipment-6,Arrival time: 2024-01-19T04:46:00</desc></wpt><wpt lat="50.9306079" lon="3.3965257"><name>QmTXW6PUgScg2aYs</name><type>Pickup</type><desc>Part of shipment Shipment-16</desc></wpt><wpt lat="51.3162396" lon="4.9326885"><name>QRyXWCL6RGXThlVt</name><type>Delivery</type><desc>Part of shipment Shipment-24</desc></wpt><wpt lat="51.1950882" lon="4.4888687"><name>YO5CNPlK2png1aoO</name><type>Pickup</type><desc>Part of shipment Shipment-39</desc></wpt><wpt lat="51.3171646" lon="4.926024"><name>SzXGRuVIc4ELIabj</name><type>Unvisited</type><desc>Route engine has not provided an explanation</desc></wpt><wpt lat="51.2464552" lon="4.4452016"><name>5bJnddqvSGR8FISD</name><type>Unvisited</type><desc>Route engine has not provided an explanation</desc></wpt><wpt lat="51.0257396" lon="3.142936"><name>LGM7ZHqJLzI0eRje</name><type>Unvisited</type><desc>Route engine has not provided an explanation</desc></wpt><wpt lat="51.2334936" lon="5.3330972"><name>cps4UW90o3X7Opy3</name><type>Visit</type><desc>Part of shipment Shipment-33,Arrival time: 2024-01-19T15:35:00</desc></wpt><wpt lat="51.1303135" lon="3.0285744"><name>Va6bOvpcQvA2mNPf</name><type>Unvisited</type><desc>Route engine has not provided an explanation</desc></wpt><wpt lat="50.7810777" lon="5.4636785"><name>1TFhAhA8VYhILkWR</name><type>Delivery</type><desc>Part of shipment Shipment-30</desc></wpt><wpt lat="50.9616817" lon="4.4504749"><name>UajjhinxqRSn1iDR</name><type>Delivery</type><desc>Part of shipment Shipment-31</desc></wpt><wpt lat="51.1827741" lon="3.5712197"><name>3XtW98tViOCUDmnz</name><type>Unvisited</type><desc>Route engine has not provided an explanation</desc></wpt><wpt lat="50.9082591" lon="3.2179229"><name>YNDjeXLH0yFNEX9l</name><type>Pickup</type><desc>Part of shipment Shipment-5</desc></wpt><wpt lat="50.9625551" lon="4.0080834"><name>dFuCtVGwjbE6Eu4p</name><type>Pickup</type><desc>Part of shipment Shipment-33</desc></wpt><wpt lat="50.9306079" lon="3.3965257"><name>fgjWgMAKJgQvs2F5</name><type>Pickup</type><desc>Part of shipment Shipment-3</desc></wpt><wpt lat="51.0217819" lon="5.7269191"><name>pe9eysjvTDUYeL92</name><type>Delivery</type><desc>Part of shipment Shipment-18</desc></wpt><wpt lat="51.2046893" lon="4.7887422"><name>n32Bmc8wDywipJc5</name><type>Pickup</type><desc>Part of shipment Shipment-21</desc></wpt><wpt lat="51.3162396" lon="4.9326885"><name>LqY46SAOcfeUh6Al</name><type>Unvisited</type><desc>Route engine has not provided an explanation</desc></wpt><wpt lat="51.2286413" lon="4.4620844"><name>iF3M7FHpLXISAgmR</name><type>Unvisited</type><desc>Route engine has not provided an explanation</desc></wpt><wpt lat="50.9616817" lon="4.4504749"><name>UajjhinxqRSn1iDR</name><type>Unvisited</type><desc>Route engine has not provided an explanation</desc></wpt><wpt lat="51.2604622" lon="4.5557356"><name>gpwZr1gF2P494X1S</name><type>Unvisited</type><desc>Route engine has not provided an explanation</desc></wpt><wpt lat="50.9709995" lon="3.537154"><name>y6OZcDlWjYh3jQvZ</name><type>Unvisited</type><desc>Route engine has not provided an explanation</desc></wpt><wpt lat="50.9076309" lon="4.3540653"><name>dvfM4DmGLU5LrDFs</name><type>Delivery</type><desc>Part of shipment Shipment-27</desc></wpt><wpt lat="51.0533616" lon="4.759399"><name>HUASLtSPaUvDlYbM</name><type>Pickup</type><desc>Part of shipment Shipment-18</desc></wpt><wpt lat="51.2046893" lon="4.7887422"><name>JBbZPKaUcWQEr4tb</name><type>Delivery</type><desc>Part of shipment Shipment-46</desc></wpt><wpt lat="51.1551938" lon="5.4142872"><name>pvCOpCXcjD6jOiEZ</name><type>Unvisited</type><desc>Route engine has not provided an explanation</desc></wpt><wpt lat="50.7389076" lon="5.8377935"><name>TBMcnpFxpjskx1wW</name><type>Pickup</type><desc>Part of shipment Shipment-44</desc></wpt><wpt lat="51.1551938" lon="5.4142872"><name>b0IzZVkHB5GbKFUy</name><type>Delivery</type><desc>Part of shipment Shipment-35</desc></wpt><wpt lat="51.2046893" lon="4.7887422"><name>xLoivWy2gXooPpmm</name><type>Delivery</type><desc>Part of shipment Shipment-32</desc></wpt><wpt lat="51.0533616" lon="4.759399"><name>izEN2gPJG29uXx6X</name><type>Unvisited</type><desc>Route engine has not provided an explanation</desc></wpt><wpt lat="51.0217819" lon="5.7269191"><name>pe9eysjvTDUYeL92</name><type>Unvisited</type><desc>Route engine has not provided an explanation</desc></wpt><wpt lat="50.9875305" lon="2.9915465"><name>zkZwOjcZ14bCRTwL</name><type>Unvisited</type><desc>Route engine has not provided an explanation</desc></wpt><wpt lat="51.1605143" lon="4.355005"><name>DxSiOt8QBz87c9pZ</name><type>Delivery</type><desc>Part of shipment Shipment-13</desc></wpt><wpt lat="51.1854777" lon="4.1641321"><name>hDEJQ62cIho8c1VB</name><type>Delivery</type><desc>Part of shipment Shipment-39</desc></wpt><wpt lat="51.0293863" lon="5.5378206"><name>f76dFWR2NIxLVjUo</name><type>Delivery</type><desc>Part of shipment Shipment-47</desc></wpt><wpt lat="50.9076309" lon="4.3540653"><name>J1o3n1t2HWioZnhp</name><type>Unvisited</type><desc>Route engine has not provided an explanation</desc></wpt><wpt lat="51.1605143" lon="4.355005"><name>YXXV0bO9bi2LHrcg</name><type>Unvisited</type><desc>Route engine has not provided an explanation</desc></wpt><wpt lat="51.0533616" lon="4.759399"><name>HUASLtSPaUvDlYbM</name><type>Unvisited</type><desc>Route engine has not provided an explanation</desc></wpt><wpt lat="50.9076309" lon="4.3540653"><name>YD68JcW80D7WWflK</name><type>Unvisited</type><desc>Route engine has not provided an explanation</desc></wpt><wpt lat="51.0293863" lon="5.5378206"><name>fGM7ZOngtXGZarXG</name><type>Pickup</type><desc>Part of shipment Shipment-12</desc></wpt><wpt lat="50.9076309" lon="4.3540653"><name>fUARDghzg23yLpnD</name><type>Delivery</type><desc>Part of shipment Shipment-16</desc></wpt><wpt lat="51.2604622" lon="4.5557356"><name>gpwZr1gF2P494X1S</name><type>Delivery</type><desc>Part of shipment Shipment-9</desc></wpt><wpt lat="51.1588447" lon="3.0422212"><name>ywqqY30ymTT3Hg7L</name><type>Unvisited</type><desc>Route engine has not provided an explanation</desc></wpt><wpt lat="50.8866489" lon="4.2683871"><name>UbFq07TrGHBTCeUO</name><type>Unvisited</type><desc>Route engine has not provided an explanation</desc></wpt><wpt lat="51.1323616" lon="4.2928751"><name>XgIZBcWS1UVZtDGr</name><type>Pickup</type><desc>Part of shipment Shipment-38</desc></wpt><wpt lat="51.0472881" lon="4.5328556"><name>weCl8dE3boe41Dc2</name><type>Unvisited</type><desc>Route engine has not provided an explanation</desc></wpt><wpt lat="51.1685317" lon="4.1683878"><name>vEl9a7mtsmkjWBA7</name><type>Visit</type><desc>Part of shipment Shipment-14,Arrival time: 2024-01-19T10:17:00</desc></wpt><wpt lat="51.1303135" lon="3.0285744"><name>PQgrUgz0DDyYq5tK</name><type>Visit</type><desc>Arrival time: 2024-01-19T08:47:00,Part of shipment Shipment-43</desc></wpt><wpt lat="50.9076309" lon="4.3540653"><name>x3z9K8mvEZJs9ekA</name><type>Unvisited</type><desc>Route engine has not provided an explanation</desc></wpt><wpt lat="51.0533616" lon="4.759399"><name>izEN2gPJG29uXx6X</name><type>Pickup</type><desc>Part of shipment Shipment-23</desc></wpt><wpt lat="50.9709995" lon="3.537154"><name>5CRZ3sNjAa2T4ziC</name><type>Unvisited</type><desc>Route engine has not provided an explanation</desc></wpt><wpt lat="50.9625551" lon="4.0080834"><name>ri1DJEbWcfDAaQOh</name><type>Unvisited</type><desc>Route engine has not provided an explanation</desc></wpt><wpt lat="51.1707463" lon="4.146673"><name>RgQlksuCn3aIxRtZ</name><type>Delivery</type><desc>Part of shipment Shipment-6</desc></wpt><wpt lat="51.1323616" lon="4.2928751"><name>T2wNfXeqZ3xetnbg</name><type>Visit</type><desc>Part of shipment Shipment-4,Arrival time: 2024-01-19T20:54:00</desc></wpt><wpt lat="50.8291476" lon="4.9913152"><name>2iSW2ipDOI3JV0eZ</name><type>Delivery</type><desc>Part of shipment Shipment-36</desc></wpt><wpt lat="51.0533616" lon="4.759399"><name>bFmNzjdANl5kP9ha</name><type>Pickup</type><desc>Part of shipment Shipment-49</desc></wpt><wpt lat="50.9306079" lon="3.3965257"><name>xC4kqNUxx3fiYyUR</name><type>Delivery</type><desc>Part of shipment Shipment-44</desc></wpt><wpt lat="51.1588447" lon="3.0422212"><name>RzOUx3VgW8hfNEU8</name><type>Pickup</type><desc>Part of shipment Shipment-41</desc></wpt><wpt lat="51.1854777" lon="4.1641321"><name>hDEJQ62cIho8c1VB</name><type>Unvisited</type><desc>Route engine has not provided an explanation</desc></wpt><wpt lat="50.8890291" lon="4.9489463"><name>qJ9QxFFQ0JtfuQ9I</name><type>Visit</type><desc>Arrival time: 2024-01-19T11:51:00,Part of shipment Shipment-27</desc></wpt><wpt lat="51.2286413" lon="4.4620844"><name>PLC06s8lV3Z18sUp</name><type>Pickup</type><desc>Part of shipment Shipment-35</desc></wpt><wpt lat="51.1588447" lon="3.0422212"><name>RzOUx3VgW8hfNEU8</name><type>Unvisited</type><desc>Route engine has not provided an explanation</desc></wpt><wpt lat="51.0533616" lon="4.759399"><name>NPBY717YZYE3boWB</name><type>Pickup</type><desc>Part of shipment Shipment-0</desc></wpt><wpt lat="50.9076309" lon="4.3540653"><name>dvfM4DmGLU5LrDFs</name><type>Visit</type><desc>Arrival time: 2024-01-19T12:53:00,Part of shipment Shipment-27</desc></wpt><wpt lat="50.7810777" lon="5.4636785"><name>JTpk6aUxDTV2lrAy</name><type>Delivery</type><desc>Part of shipment Shipment-34</desc></wpt><wpt lat="51.1323616" lon="4.2928751"><name>d0EkQysXH1dgc6gR</name><type>Unvisited</type><desc>Route engine has not provided an explanation</desc></wpt><wpt lat="51.0217819" lon="5.7269191"><name>WzQFw2xr1Gr1dW1q</name><type>Unvisited</type><desc>Route engine has not provided an explanation</desc></wpt><wpt lat="50.8866489" lon="4.2683871"><name>UbFq07TrGHBTCeUO</name><type>Delivery</type><desc>Part of shipment Shipment-21</desc></wpt><wpt lat="50.9076309" lon="4.3540653"><name>x3z9K8mvEZJs9ekA</name><type>Pickup</type><desc>Part of shipment Shipment-48</desc></wpt><wpt lat="51.2464552" lon="4.4452016"><name>en7NDGeVvfhOMUHt</name><type>Unvisited</type><desc>Route engine has not provided an explanation</desc></wpt><wpt lat="50.7810777" lon="5.4636785"><name>JTpk6aUxDTV2lrAy</name><type>Visit</type><desc>Arrival time: 2024-01-19T18:06:00,Part of shipment Shipment-34</desc></wpt><wpt lat="51.2175218" lon="4.3980371"><name>LX7DSZigLbiAC8X8</name><type>Pickup</type><desc>Part of shipment Shipment-8</desc></wpt><wpt lat="51.2030925" lon="4.4333058"><name>0LgReuiUQ0OXCsaU</name><type>Delivery</type><desc>Part of shipment Shipment-2</desc></wpt><wpt lat="50.9076309" lon="4.3540653"><name>J1o3n1t2HWioZnhp</name><type>Pickup</type><desc>Part of shipment Shipment-22</desc></wpt><wpt lat="50.9709995" lon="3.537154"><name>VgATMJksacMPN7gq</name><type>Unvisited</type><desc>Route engine has not provided an explanation</desc></wpt><wpt lat="50.7389076" lon="5.8377935"><name>14YbRnBSJzRpG4Ao</name><type>Visit</type><desc>Arrival time: 2024-01-19T17:09:00,Part of shipment Shipment-34</desc></wpt><wpt lat="51.2030925" lon="4.4333058"><name>tkBfUTTq5xRi0qfD</name><type>Visit</type><desc>Arrival time: 2024-01-19T22:26:00,Part of shipment Shipment-46</desc></wpt><wpt lat="50.9076309" lon="4.3540653"><name>s5E521UpPTNSj4Kk</name><type>Visit</type><desc>Part of shipment Shipment-4,Arrival time: 2024-01-19T21:42:00</desc></wpt><wpt lat="51.1685317" lon="4.1683878"><name>zMib25CfRARVEqRN</name><type>Pickup</type><desc>Part of shipment Shipment-24</desc></wpt><wpt lat="50.7389076" lon="5.8377935"><name>dY676x9IleFKfbJr</name><type>Unvisited</type><desc>Route engine has not provided an explanation</desc></wpt><wpt lat="51.2030925" lon="4.4333058"><name>B8MTwot4EA1oFGp6</name><type>Visit</type><desc>Part of shipment Shipment-29,Arrival time: 2024-01-19T02:49:00</desc></wpt><wpt lat="51.2030925" lon="4.4333058"><name>tkBfUTTq5xRi0qfD</name><type>Pickup</type><desc>Part of shipment Shipment-46</desc></wpt><wpt lat="50.7810777" lon="5.4636785"><name>kwr9kTjidda8mBQu</name><type>Delivery</type><desc>Part of shipment Shipment-26</desc></wpt><wpt lat="51.0293863" lon="5.5378206"><name>f76dFWR2NIxLVjUo</name><type>Unvisited</type><desc>Route engine has not provided an explanation</desc></wpt><wpt lat="51.1707463" lon="4.146673"><name>twlO9R6Bwuu60fsp</name><type>Unvisited</type><desc>Route engine has not provided an explanation</desc></wpt><wpt lat="51.1685317" lon="4.1683878"><name>zMib25CfRARVEqRN</name><type>Unvisited</type><desc>Route engine has not provided an explanation</desc></wpt><wpt lat="51.1685317" lon="4.1683878"><name>vEl9a7mtsmkjWBA7</name><type>Delivery</type><desc>Part of shipment Shipment-14</desc></wpt><wpt lat="50.7389076" lon="5.8377935"><name>TBMcnpFxpjskx1wW</name><type>Unvisited</type><desc>Route engine has not provided an explanation</desc></wpt><wpt lat="50.9625551" lon="4.0080834"><name>sodLCpkbMp1fU628</name><type>Unvisited</type><desc>Route engine has not provided an explanation</desc></wpt><wpt lat="51.1323616" lon="4.2928751"><name>XgIZBcWS1UVZtDGr</name><type>Visit</type><desc>Arrival time: 2024-01-19T19:47:00,Part of shipment Shipment-38</desc></wpt><wpt lat="50.9616817" lon="4.4504749"><name>XobEVusNeagTtYBM</name><type>Pickup</type><desc>Part of shipment Shipment-45</desc></wpt><wpt lat="50.9076309" lon="4.3540653"><name>fUARDghzg23yLpnD</name><type>Unvisited</type><desc>Route engine has not provided an explanation</desc></wpt><wpt lat="51.0164348" lon="4.1120604"><name>kXs3jDRAgQdpMgRL</name><type>Unvisited</type><desc>Route engine has not provided an explanation</desc></wpt><wpt lat="51.3171646" lon="4.926024"><name>0sx2PFcXjT7Tn52a</name><type>Unvisited</type><desc>Route engine has not provided an explanation</desc></wpt><wpt lat="51.2046893" lon="4.7887422"><name>UqrFNfEvl1Jnl0Xi</name><type>Unvisited</type><desc>Route engine has not provided an explanation</desc></wpt><wpt lat="50.9625551" lon="4.0080834"><name>sodLCpkbMp1fU628</name><type>Delivery</type><desc>Part of shipment Shipment-22</desc></wpt><wpt lat="50.7389076" lon="5.8377935"><name>dY676x9IleFKfbJr</name><type>Pickup</type><desc>Part of shipment Shipment-15</desc></wpt><wpt lat="50.9082591" lon="3.2179229"><name>cO0cwwZvoLLKvSRD</name><type>Pickup</type><desc>Part of shipment Shipment-10</desc></wpt><wpt lat="51.3171646" lon="4.926024"><name>SzXGRuVIc4ELIabj</name><type>Pickup</type><desc>Part of shipment Shipment-37</desc></wpt><wpt lat="50.7389076" lon="5.8377935"><name>L60Riz0JGzDjn6sl</name><type>Visit</type><desc>Part of shipment Shipment-29,Arrival time: 2024-01-19T00:56:00</desc></wpt><wpt lat="51.1950882" lon="4.4888687"><name>YO5CNPlK2png1aoO</name><type>Unvisited</type><desc>Route engine has not provided an explanation</desc></wpt><wpt lat="51.1605143" lon="4.355005"><name>DxSiOt8QBz87c9pZ</name><type>Unvisited</type><desc>Route engine has not provided an explanation</desc></wpt><wpt lat="51.1551938" lon="5.4142872"><name>P8hVu3ZMhzQbN6Xu</name><type>Delivery</type><desc>Part of shipment Shipment-42</desc></wpt><wpt lat="51.1605143" lon="4.355005"><name>YXXV0bO9bi2LHrcg</name><type>Pickup</type><desc>Part of shipment Shipment-25</desc></wpt><wpt lat="50.9306079" lon="3.3965257"><name>47u3iXHWOAJr6PMP</name><type>Unvisited</type><desc>Route engine has not provided an explanation</desc></wpt><wpt lat="51.1323616" lon="4.2928751"><name>d0EkQysXH1dgc6gR</name><type>Pickup</type><desc>Part of shipment Shipment-28</desc></wpt><wpt lat="50.9616817" lon="4.4504749"><name>XobEVusNeagTtYBM</name><type>Unvisited</type><desc>Route engine has not provided an explanation</desc></wpt><wpt lat="51.2464552" lon="4.4452016"><name>5bJnddqvSGR8FISD</name><type>Delivery</type><desc>Part of shipment Shipment-23</desc></wpt><wpt lat="51.1303135" lon="3.0285744"><name>LDOsuvZQdcgx4lBn</name><type>Unvisited</type><desc>Route engine has not provided an explanation</desc></wpt><wpt lat="51.1551938" lon="5.4142872"><name>b0IzZVkHB5GbKFUy</name><type>Unvisited</type><desc>Route engine has not provided an explanation</desc></wpt><wpt lat="51.2421019" lon="4.8973012"><name>WgfiDTAqC5exZTAR</name><type>Visit</type><desc>Arrival time: 2024-01-19T09:11:00,Part of shipment Shipment-14</desc></wpt><wpt lat="51.1588447" lon="3.0422212"><name>ywqqY30ymTT3Hg7L</name><type>Delivery</type><desc>Part of shipment Shipment-48</desc></wpt><wpt lat="51.0472881" lon="4.5328556"><name>LrsRXKRqxsZwVxIL</name><type>Unvisited</type><desc>Route engine has not provided an explanation</desc></wpt><wpt lat="51.2175218" lon="4.3980371"><name>LX7DSZigLbiAC8X8</name><type>Visit</type><desc>Part of shipment Shipment-8,Arrival time: 2024-01-19T05:24:00</desc></wpt><wpt lat="50.9709995" lon="3.537154"><name>5CRZ3sNjAa2T4ziC</name><type>Pickup</type><desc>Part of shipment Shipment-26</desc></wpt><wpt lat="51.2030925" lon="4.4333058"><name>B8MTwot4EA1oFGp6</name><type>Delivery</type><desc>Part of shipment Shipment-29</desc></wpt><wpt lat="51.3162396" lon="4.9326885"><name>xAMiXAExyDodFQbB</name><type>Pickup</type><desc>Part of shipment Shipment-31</desc></wpt><wpt lat="50.8545798" lon="2.7220045"><name>zeYMnr4gZ568S3KS</name><type>Pickup</type><desc>Part of shipment Shipment-13</desc></wpt><wpt lat="51.2421019" lon="4.8973012"><name>WgfiDTAqC5exZTAR</name><type>Pickup</type><desc>Part of shipment Shipment-14</desc></wpt><wpt lat="51.1323616" lon="4.2928751"><name>T2wNfXeqZ3xetnbg</name><type>Pickup</type><desc>Part of shipment Shipment-4</desc></wpt><wpt lat="50.8291476" lon="4.9913152"><name>xSEOBaM3gbMnUGTg</name><type>Unvisited</type><desc>Route engine has not provided an explanation</desc></wpt><wpt lat="51.1854777" lon="4.1641321"><name>4E9Led33hKROvxib</name><type>Delivery</type><desc>Part of shipment Shipment-41</desc></wpt><wpt lat="50.8545798" lon="2.7220045"><name>zeYMnr4gZ568S3KS</name><type>Unvisited</type><desc>Route engine has not provided an explanation</desc></wpt><wpt lat="51.0257396" lon="3.142936"><name>LGM7ZHqJLzI0eRje</name><type>Pickup</type><desc>Part of shipment Shipment-1</desc></wpt><wpt lat="50.7389076" lon="5.8377935"><name>L60Riz0JGzDjn6sl</name><type>Pickup</type><desc>Part of shipment Shipment-29</desc></wpt><wpt lat="51.1551938" lon="5.4142872"><name>Be9VfZtjFhEB3Qc8</name><type>Pickup</type><desc>Part of shipment Shipment-30</desc></wpt><wpt lat="51.3171646" lon="4.926024"><name>buQoDu1MKA8GJPyH</name><type>Pickup</type><desc>Part of shipment Shipment-43</desc></wpt><wpt lat="50.9419963" lon="4.0187048"><name>DrFkZg4StxVbHCxK</name><type>Visit</type><desc>Part of shipment Shipment-6,Arrival time: 2024-01-19T03:50:00</desc></wpt><wpt lat="51.2046893" lon="4.7887422"><name>n32Bmc8wDywipJc5</name><type>Unvisited</type><desc>Route engine has not provided an explanation</desc></wpt><wpt lat="51.2286413" lon="4.4620844"><name>PLC06s8lV3Z18sUp</name><type>Unvisited</type><desc>Route engine has not provided an explanation</desc></wpt><wpt lat="50.9076309" lon="4.3540653"><name>mlORab8V4PgiXc2P</name><type>Delivery</type><desc>Part of shipment Shipment-10</desc></wpt><wpt lat="50.9419963" lon="4.0187048"><name>DrFkZg4StxVbHCxK</name><type>Pickup</type><desc>Part of shipment Shipment-6</desc></wpt><wpt lat="50.9616817" lon="4.4504749"><name>9tZv7IwzMN8SPYN4</name><type>Unvisited</type><desc>Route engine has not provided an explanation</desc></wpt><wpt lat="50.7389076" lon="5.8377935"><name>EVq6Rj4th5Mjc0W4</name><type>Pickup</type><desc>Part of shipment Shipment-36</desc></wpt><wpt lat="51.3171646" lon="4.926024"><name>0sx2PFcXjT7Tn52a</name><type>Delivery</type><desc>Part of shipment Shipment-12</desc></wpt><wpt lat="51.3162396" lon="4.9326885"><name>xAMiXAExyDodFQbB</name><type>Unvisited</type><desc>Route engine has not provided an explanation</desc></wpt><wpt lat="51.1605143" lon="4.355005"><name>O5XkoGSkQzm8cGGH</name><type>Delivery</type><desc>Part of shipment Shipment-8</desc></wpt><wpt lat="51.1950882" lon="4.4888687"><name>cNMWDXlmNpsY1yK7</name><type>Delivery</type><desc>Part of shipment Shipment-37</desc></wpt><wpt lat="51.3171646" lon="4.926024"><name>buQoDu1MKA8GJPyH</name><type>Visit</type><desc>Arrival time: 2024-01-19T06:41:00,Part of shipment Shipment-43</desc></wpt><wpt lat="51.1551938" lon="5.4142872"><name>P8hVu3ZMhzQbN6Xu</name><type>Unvisited</type><desc>Route engine has not provided an explanation</desc></wpt><wpt lat="50.9076309" lon="4.3540653"><name>s5E521UpPTNSj4Kk</name><type>Delivery</type><desc>Part of shipment Shipment-4</desc></wpt><wpt lat="51.2334936" lon="5.3330972"><name>cps4UW90o3X7Opy3</name><type>Delivery</type><desc>Part of shipment Shipment-33</desc></wpt><wpt lat="51.3171646" lon="4.926024"><name>OR3nNWBCjvJe8ZCr</name><type>Pickup</type><desc>Part of shipment Shipment-11</desc></wpt><wpt lat="51.0472881" lon="4.5328556"><name>LrsRXKRqxsZwVxIL</name><type>Delivery</type><desc>Part of shipment Shipment-40</desc></wpt><wpt lat="50.9082591" lon="3.2179229"><name>YNDjeXLH0yFNEX9l</name><type>Unvisited</type><desc>Route engine has not provided an explanation</desc></wpt><wpt lat="51.1551938" lon="5.4142872"><name>pvCOpCXcjD6jOiEZ</name><type>Pickup</type><desc>Part of shipment Shipment-2</desc></wpt><wpt lat="51.0533616" lon="4.759399"><name>NPBY717YZYE3boWB</name><type>Unvisited</type><desc>Route engine has not provided an explanation</desc></wpt><wpt lat="50.7810777" lon="5.4636785"><name>1TFhAhA8VYhILkWR</name><type>Unvisited</type><desc>Route engine has not provided an explanation</desc></wpt><wpt lat="50.8291476" lon="4.9913152"><name>2iSW2ipDOI3JV0eZ</name><type>Unvisited</type><desc>Route engine has not provided an explanation</desc></wpt><wpt lat="50.9306079" lon="3.3965257"><name>QmTXW6PUgScg2aYs</name><type>Unvisited</type><desc>Route engine has not provided an explanation</desc></wpt><wpt lat="51.1707463" lon="4.146673"><name>twlO9R6Bwuu60fsp</name><type>Delivery</type><desc>Part of shipment Shipment-7</desc></wpt><wpt lat="51.3171646" lon="4.926024"><name>OR3nNWBCjvJe8ZCr</name><type>Unvisited</type><desc>Route engine has not provided an explanation</desc></wpt><wpt lat="50.9076309" lon="4.3540653"><name>YD68JcW80D7WWflK</name><type>Pickup</type><desc>Part of shipment Shipment-20</desc></wpt><wpt lat="51.1854777" lon="4.1641321"><name>4E9Led33hKROvxib</name><type>Unvisited</type><desc>Route engine has not provided an explanation</desc></wpt><wpt lat="51.2175218" lon="4.3980371"><name>k4WigCwskKAW9sWl</name><type>Visit</type><desc>Arrival time: 2024-01-19T20:20:00,Part of shipment Shipment-38</desc></wpt><wpt lat="51.1303135" lon="3.0285744"><name>LDOsuvZQdcgx4lBn</name><type>Delivery</type><desc>Part of shipment Shipment-28</desc></wpt><wpt lat="50.9875305" lon="2.9915465"><name>zkZwOjcZ14bCRTwL</name><type>Delivery</type><desc>Part of shipment Shipment-19</desc></wpt><wpt lat="51.2046893" lon="4.7887422"><name>xLoivWy2gXooPpmm</name><type>Unvisited</type><desc>Route engine has not provided an explanation</desc></wpt><wpt lat="50.8890291" lon="4.9489463"><name>qJ9QxFFQ0JtfuQ9I</name><type>Pickup</type><desc>Part of shipment Shipment-27</desc></wpt><wpt lat="50.9306079" lon="3.3965257"><name>47u3iXHWOAJr6PMP</name><type>Delivery</type><desc>Part of shipment Shipment-11</desc></wpt><wpt lat="50.9709995" lon="3.537154"><name>VgATMJksacMPN7gq</name><type>Pickup</type><desc>Part of shipment Shipment-47</desc></wpt><wpt lat="50.9616817" lon="4.4504749"><name>9tZv7IwzMN8SPYN4</name><type>Pickup</type><desc>Part of shipment Shipment-19</desc></wpt><wpt lat="51.21102" lon="4.4525526"><name>QpFzym5HlJcmHrJt</name><type>Pickup</type><desc>Part of shipment Shipment-9</desc></wpt><wpt lat="51.1827741" lon="3.5712197"><name>3XtW98tViOCUDmnz</name><type>Delivery</type><desc>Part of shipment Shipment-49</desc></wpt><wpt lat="50.7810777" lon="5.4636785"><name>kwr9kTjidda8mBQu</name><type>Unvisited</type><desc>Route engine has not provided an explanation</desc></wpt><wpt lat="51.21102" lon="4.4525526"><name>QpFzym5HlJcmHrJt</name><type>Unvisited</type><desc>Route engine has not provided an explanation</desc></wpt><wpt lat="51.2175218" lon="4.3980371"><name>k4WigCwskKAW9sWl</name><type>Delivery</type><desc>Part of shipment Shipment-38</desc></wpt><wpt lat="51.2046893" lon="4.7887422"><name>UqrFNfEvl1Jnl0Xi</name><type>Delivery</type><desc>Part of shipment Shipment-17</desc></wpt></gpx>