<?xml version='1.0' encoding='UTF-8'?><gpx name="Route-1" version="1.1" creator="org.metavrp.gpx"><desc/><rte><name>vehicle-0 2024-01-21</name><rtept lat="51.0160094" lon="4.7725869"/><rtept lat="50.9470043" lon="5.2269229"/><rtept lat="50.8127469" lon="3.8281845"/><rtept lat="51.0160094" lon="4.7725869"/></rte><wpt lat="50.8967134" lon="4.5461668"><name>sp0Lsqeg9I1FtSf3</name><type>Unvisited</type><desc>Route engine has not provided an explanation</desc></wpt><wpt lat="50.8127469" lon="3.8281845"><name>xyD20LhTtyyk9YZ9</name><type>Unvisited</type><desc>Route engine has not provided an explanation</desc></wpt><wpt lat="51.2049139" lon="3.2040751"><name>uFDLEFhtqYSLEZYZ</name><type>Unvisited</type><desc>Route engine has not provided an explanation</desc></wpt><wpt lat="50.8967134" lon="4.5461668"><name>H5mHMhwtlUhestSJ</name><type>Unvisited</type><desc>Route engine has not provided an explanation</desc></wpt><wpt lat="50.9470043" lon="5.2269229"><name>oq4ZGSFPghO1pNeO</name><type>Visit</type><desc>Arrival time: 2024-01-21T08:39:00,Part of shipment Shipment-1</desc></wpt><wpt lat="51.0969446" lon="5.207136"><name>KJVvCod29trqKbUK</name><type>Delivery</type><desc>Part of shipment Shipment-0</desc></wpt><wpt lat="51.0160094" lon="4.7725869"><name>Start location for vehicle-0</name><type>Vehicle Start</type><desc>Cargo Capacity: [1200, 5500]</desc></wpt><wpt lat="50.9470043" lon="5.2269229"><name>oq4ZGSFPghO1pNeO</name><type>Pickup</type><desc>Part of shipment Shipment-1</desc></wpt><wpt lat="50.8127469" lon="3.8281845"><name>qnh6GH3ooQ0A5RhR</name><type>Delivery</type><desc>Part of shipment Shipment-1</desc></wpt><wpt lat="50.8967134" lon="4.5461668"><name>sp0Lsqeg9I1FtSf3</name><type>Delivery</type><desc>Part of shipment Shipment-2</desc></wpt><wpt lat="51.0969446" lon="5.207136"><name>KJVvCod29trqKbUK</name><type>Unvisited</type><desc>Route engine has not provided an explanation</desc></wpt><wpt lat="51.0160094" lon="4.7725869"><name>End location for vehicle-0</name><type>Vehicle Start</type></wpt><wpt lat="51.0969446" lon="5.207136"><name>CxawNbqzTiZCxlWH</name><type>Unvisited</type><desc>Route engine has not provided an explanation</desc></wpt><wpt lat="50.8967134" lon="4.5461668"><name>H5mHMhwtlUhestSJ</name><type>Pickup</type><desc>Part of shipment Shipment-4</desc></wpt><wpt lat="50.8127469" lon="3.8281845"><name>xyD20LhTtyyk9YZ9</name><type>Pickup</type><desc>Part of shipment Shipment-3</desc></wpt><wpt lat="51.2049139" lon="3.2040751"><name>7HGhya218YKfr05d</name><type>Delivery</type><desc>Part of shipment Shipment-3</desc></wpt><wpt lat="51.0969446" lon="5.207136"><name>CxawNbqzTiZCxlWH</name><type>Delivery</type><desc>Part of shipment Shipment-4</desc></wpt><wpt lat="50.8127469" lon="3.8281845"><name>sTYP0pSfVMKBUbzS</name><type>Unvisited</type><desc>Route engine has not provided an explanation</desc></wpt><wpt lat="50.8127469" lon="3.8281845"><name>sTYP0pSfVMKBUbzS</name><type>Pickup</type><desc>Part of shipment Shipment-2</desc></wpt><wpt lat="51.2049139" lon="3.2040751"><name>uFDLEFhtqYSLEZYZ</name><type>Pickup</type><desc>Part of shipment Shipment-0</desc></wpt><wpt lat="50.8127469" lon="3.8281845"><name>qnh6GH3ooQ0A5RhR</name><type>Visit</type><desc>Arrival time: 2024-01-21T10:25:00,Part of shipment Shipment-1</desc></wpt><wpt lat="51.2049139" lon="3.2040751"><name>7HGhya218YKfr05d</name><type>Unvisited</type><desc>Route engine has not provided an explanation</desc></wpt></gpx>