<?xml version='1.0' encoding='UTF-8'?><gpx name="Route-1" version="1.1" creator="org.metavrp.gpx"><desc/><rte><name>vehicle-0 2024-01-19</name><rtept lat="50.856062" lon="4.3669345"/><rtept lat="50.8576761" lon="4.3988478"/><rtept lat="50.8393808" lon="4.4045573"/><rtept lat="50.8179283" lon="4.3640405"/><rtept lat="50.8427288" lon="4.3473982"/><rtept lat="50.8570042" lon="4.3878973"/><rtept lat="50.8746516" lon="4.3555536"/><rtept lat="50.8238644" lon="4.3303472"/><rtept lat="50.8354504" lon="4.2779832"/><rtept lat="50.8631094" lon="4.3772466"/><rtept lat="50.8553591" lon="4.4361122"/><rtept lat="50.8746516" lon="4.3555536"/><rtept lat="50.8660196" lon="4.39364"/><rtept lat="50.8660196" lon="4.39364"/><rtept lat="50.877676" lon="4.3316964"/><rtept lat="50.8136445" lon="4.3341581"/><rtept lat="50.8238644" lon="4.3303472"/><rtept lat="50.8576761" lon="4.3988478"/><rtept lat="50.8157209" lon="4.4254691"/><rtept lat="50.8044921" lon="4.3310153"/><rtept lat="50.8763626" lon="4.3286142"/><rtept lat="50.8303606" lon="4.3779216"/><rtept lat="50.853491" lon="4.3678576"/><rtept lat="50.8708605" lon="4.326914"/><rtept lat="50.8788789" lon="4.3264239"/><rtept lat="50.856062" lon="4.3669345"/></rte><wpt lat="50.8763626" lon="4.3286142"><name>C7SzmUeDJXL0XQvF</name><type>Unvisited</type><desc>Route engine has not provided an explanation</desc></wpt><wpt lat="50.8631094" lon="4.3772466"><name>qGUfkKP7yXTr65F6</name><type>Unvisited</type><desc>Route engine has not provided an explanation</desc></wpt><wpt lat="50.853491" lon="4.3678576"><name>Pk8yd68Ptfz3FBjW</name><type>Delivery</type><desc>Part of shipment Shipment-7</desc></wpt><wpt lat="50.8354504" lon="4.2779832"><name>M7x4NCVfzH7voEFt</name><type>Pickup</type><desc>Part of shipment Shipment-31</desc></wpt><wpt lat="50.8427288" lon="4.3473982"><name>6d3GRt5WTLYEHhO9</name><type>Unvisited</type><desc>Route engine has not provided an explanation</desc></wpt><wpt lat="50.8162833" lon="4.3653036"><name>azQJUVH8b28DaFLn</name><type>Unvisited</type><desc>Route engine has not provided an explanation</desc></wpt><wpt lat="50.8157439" lon="4.3682693"><name>fdoHjVcKIBq41zQ3</name><type>Pickup</type><desc>Part of shipment Shipment-44</desc></wpt><wpt lat="50.8116981" lon="4.3572021"><name>eQdW5oG82CtigXMS</name><type>Unvisited</type><desc>Route engine has not provided an explanation</desc></wpt><wpt lat="50.8660196" lon="4.39364"><name>jpHs3hHJBAyC6fGZ</name><type>Visit</type><desc>Arrival time: 2024-01-19T12:45:00,Part of shipment Shipment-42</desc></wpt><wpt lat="50.8436883" lon="4.312569"><name>Y5lduRgmBmD0v0zf</name><type>Pickup</type><desc>Part of shipment Shipment-27</desc></wpt><wpt lat="50.856062" lon="4.3669345"><name>Start location for vehicle-0</name><type>Vehicle Start</type><desc>Cargo Capacity: [1200, 5500]</desc></wpt><wpt lat="50.8304393" lon="4.3432304"><name>wFEXQvMFOCsFFtaz</name><type>Pickup</type><desc>Part of shipment Shipment-49</desc></wpt><wpt lat="50.8117864" lon="4.3902477"><name>Cid7e3Z4Gli3xieT</name><type>Unvisited</type><desc>Route engine has not provided an explanation</desc></wpt><wpt lat="50.8701816" lon="4.3938269"><name>Nqjq6J3PsqaJT9bh</name><type>Pickup</type><desc>Part of shipment Shipment-11</desc></wpt><wpt lat="50.8124983" lon="4.3586917"><name>SWyrMeufDNHkgsi7</name><type>Unvisited</type><desc>Route engine has not provided an explanation</desc></wpt><wpt lat="50.8427288" lon="4.3473982"><name>6d3GRt5WTLYEHhO9</name><type>Delivery</type><desc>Part of shipment Shipment-23</desc></wpt><wpt lat="50.8393808" lon="4.4045573"><name>6ftsqphJFLEvHNXS</name><type>Unvisited</type><desc>Route engine has not provided an explanation</desc></wpt><wpt lat="50.8179283" lon="4.3640405"><name>939ukpAIQ96k1sjv</name><type>Unvisited</type><desc>Route engine has not provided an explanation</desc></wpt><wpt lat="50.858958" lon="4.3055489"><name>jI32Y4T3GRQ6QWbz</name><type>Delivery</type><desc>Part of shipment Shipment-6</desc></wpt><wpt lat="50.873057" lon="4.3371698"><name>vacCNz6a9YyHrzRn</name><type>Delivery</type><desc>Part of shipment Shipment-38</desc></wpt><wpt lat="50.8157209" lon="4.4254691"><name>DnFPI9Zjd0fDT14n</name><type>Delivery</type><desc>Part of shipment Shipment-39</desc></wpt><wpt lat="50.8303606" lon="4.3779216"><name>viPfGtmBIq1jM0sK</name><type>Pickup</type><desc>Part of shipment Shipment-43</desc></wpt><wpt lat="50.847962" lon="4.3787915"><name>vy0vNGgIZzZXz1Ix</name><type>Delivery</type><desc>Part of shipment Shipment-10</desc></wpt><wpt lat="50.847962" lon="4.3787915"><name>vy0vNGgIZzZXz1Ix</name><type>Unvisited</type><desc>Route engine has not provided an explanation</desc></wpt><wpt lat="50.872287" lon="4.3012406"><name>0vAh8aC7oCRdQTAM</name><type>Unvisited</type><desc>Route engine has not provided an explanation</desc></wpt><wpt lat="50.8475967" lon="4.406154"><name>YdwenHlCGEQKhWC0</name><type>Unvisited</type><desc>Route engine has not provided an explanation</desc></wpt><wpt lat="50.8356647" lon="4.3632582"><name>B3V8aQ3e7QQbiSDe</name><type>Unvisited</type><desc>Route engine has not provided an explanation</desc></wpt><wpt lat="50.8427288" lon="4.3473982"><name>42es3i3amVMEIwyF</name><type>Visit</type><desc>Part of shipment Shipment-33,Arrival time: 2024-01-19T09:12:00</desc></wpt><wpt lat="50.8475967" lon="4.406154"><name>mGILKIOdxUUiFzZT</name><type>Delivery</type><desc>Part of shipment Shipment-26</desc></wpt><wpt lat="50.8124983" lon="4.3586917"><name>OyBXlMijzG9jbEOk</name><type>Pickup</type><desc>Part of shipment Shipment-35</desc></wpt><wpt lat="50.8044921" lon="4.3310153"><name>ub5AryXM9BUAIXAd</name><type>Visit</type><desc>Part of shipment Shipment-45,Arrival time: 2024-01-19T15:26:00</desc></wpt><wpt lat="50.8356647" lon="4.3632582"><name>B3V8aQ3e7QQbiSDe</name><type>Delivery</type><desc>Part of shipment Shipment-2</desc></wpt><wpt lat="50.873057" lon="4.3371698"><name>vacCNz6a9YyHrzRn</name><type>Unvisited</type><desc>Route engine has not provided an explanation</desc></wpt><wpt lat="50.8576761" lon="4.3988478"><name>Eyh7KM3d4PxMU9Ln</name><type>Visit</type><desc>Part of shipment Shipment-5,Arrival time: 2024-01-19T14:32:00</desc></wpt><wpt lat="50.8335231" lon="4.3454859"><name>v5s7JGzo2VTpi0cV</name><type>Pickup</type><desc>Part of shipment Shipment-14</desc></wpt><wpt lat="50.8124983" lon="4.3586917"><name>SWyrMeufDNHkgsi7</name><type>Delivery</type><desc>Part of shipment Shipment-18</desc></wpt><wpt lat="50.8308909" lon="4.4605199"><name>Cnf9xIY2cywXjtc0</name><type>Delivery</type><desc>Part of shipment Shipment-30</desc></wpt><wpt lat="50.8746516" lon="4.3555536"><name>q6WPKyoaf6txGSAd</name><type>Pickup</type><desc>Part of shipment Shipment-41</desc></wpt><wpt lat="50.8446807" lon="4.4155512"><name>VOf8xbNDAVx44sw4</name><type>Delivery</type><desc>Part of shipment Shipment-25</desc></wpt><wpt lat="50.8377259" lon="4.2922891"><name>AQXvpufEZjOI9EEF</name><type>Unvisited</type><desc>Route engine has not provided an explanation</desc></wpt><wpt lat="50.8157439" lon="4.3682693"><name>fdoHjVcKIBq41zQ3</name><type>Unvisited</type><desc>Route engine has not provided an explanation</desc></wpt><wpt lat="50.8157209" lon="4.4254691"><name>JDXFsrVpMnO4kRiO</name><type>Unvisited</type><desc>Route engine has not provided an explanation</desc></wpt><wpt lat="50.8570042" lon="4.3878973"><name>CsST21qZ0QpnEEDY</name><type>Visit</type><desc>Arrival time: 2024-01-19T09:38:00,Part of shipment Shipment-36</desc></wpt><wpt lat="50.8559947" lon="4.4002953"><name>AR6owim37jp4kj05</name><type>Pickup</type><desc>Part of shipment Shipment-25</desc></wpt><wpt lat="50.8179283" lon="4.3640405"><name>T7h6ZrOSJwJSDVvZ</name><type>Unvisited</type><desc>Route engine has not provided an explanation</desc></wpt><wpt lat="50.872287" lon="4.3012406"><name>iINRFNpcLrYFpEZb</name><type>Delivery</type><desc>Part of shipment Shipment-34</desc></wpt><wpt lat="50.8559947" lon="4.4002953"><name>SYmL8NQKjaG3NBia</name><type>Delivery</type><desc>Part of shipment Shipment-28</desc></wpt><wpt lat="50.8446807" lon="4.4155512"><name>VOf8xbNDAVx44sw4</name><type>Unvisited</type><desc>Route engine has not provided an explanation</desc></wpt><wpt lat="50.8335231" lon="4.3454859"><name>12iG8bh2qRhfhRof</name><type>Pickup</type><desc>Part of shipment Shipment-38</desc></wpt><wpt lat="50.8788789" lon="4.3264239"><name>mn1KRI38Bpi4dif0</name><type>Pickup</type><desc>Part of shipment Shipment-16</desc></wpt><wpt lat="50.8611141" lon="4.3715506"><name>N4ucIifAm7eecUlU</name><type>Pickup</type><desc>Part of shipment Shipment-6</desc></wpt><wpt lat="50.8117864" lon="4.3902477"><name>Cid7e3Z4Gli3xieT</name><type>Delivery</type><desc>Part of shipment Shipment-20</desc></wpt><wpt lat="50.8304393" lon="4.3432304"><name>wFEXQvMFOCsFFtaz</name><type>Unvisited</type><desc>Route engine has not provided an explanation</desc></wpt><wpt lat="50.8475967" lon="4.406154"><name>ZYnLRuJVSQsE7F3M</name><type>Unvisited</type><desc>Route engine has not provided an explanation</desc></wpt><wpt lat="50.8044921" lon="4.3310153"><name>NX19DGk1Yl8tiSXw</name><type>Unvisited</type><desc>Route engine has not provided an explanation</desc></wpt><wpt lat="50.8356647" lon="4.3632582"><name>V2Qx2h7JjiTlb9Pc</name><type>Unvisited</type><desc>Route engine has not provided an explanation</desc></wpt><wpt lat="50.8162833" lon="4.3653036"><name>tKS2sL2NmMSUi3bO</name><type>Unvisited</type><desc>Route engine has not provided an explanation</desc></wpt><wpt lat="50.8393808" lon="4.4045573"><name>yrG4pH0TLjFkQjfQ</name><type>Delivery</type><desc>Part of shipment Shipment-29</desc></wpt><wpt lat="50.8162833" lon="4.3653036"><name>azQJUVH8b28DaFLn</name><type>Pickup</type><desc>Part of shipment Shipment-20</desc></wpt><wpt lat="50.835557" lon="4.3032944"><name>DYZivzOjBFxs7zk8</name><type>Delivery</type><desc>Part of shipment Shipment-15</desc></wpt><wpt lat="50.8611141" lon="4.3715506"><name>N4ucIifAm7eecUlU</name><type>Unvisited</type><desc>Route engine has not provided an explanation</desc></wpt><wpt lat="50.8238644" lon="4.3303472"><name>UZGI3Lm3wW1htlE9</name><type>Pickup</type><desc>Part of shipment Shipment-22</desc></wpt><wpt lat="50.8044921" lon="4.3310153"><name>L5eAkmAipoRciD00</name><type>Delivery</type><desc>Part of shipment Shipment-9</desc></wpt><wpt lat="50.8124983" lon="4.3586917"><name>LcojVrcPACsWanwh</name><type>Delivery</type><desc>Part of shipment Shipment-11</desc></wpt><wpt lat="50.8157439" lon="4.3682693"><name>LvzbpPAqJ4keE06U</name><type>Unvisited</type><desc>Route engine has not provided an explanation</desc></wpt><wpt lat="50.8475967" lon="4.406154"><name>mGILKIOdxUUiFzZT</name><type>Unvisited</type><desc>Route engine has not provided an explanation</desc></wpt><wpt lat="50.8441404" lon="4.3493144"><name>amdIFew9cLsrNu5E</name><type>Unvisited</type><desc>Route engine has not provided an explanation</desc></wpt><wpt lat="50.8354504" lon="4.2779832"><name>RXHN9VT73lDcOM7i</name><type>Delivery</type><desc>Part of shipment Shipment-4</desc></wpt><wpt lat="50.8660196" lon="4.39364"><name>xCbakMEeB34PgjJ4</name><type>Delivery</type><desc>Part of shipment Shipment-41</desc></wpt><wpt lat="50.8763626" lon="4.3286142"><name>eUlPxF09js1yx0ce</name><type>Delivery</type><desc>Part of shipment Shipment-45</desc></wpt><wpt lat="50.835557" lon="4.3032944"><name>5doomSJ5I0lUEzBZ</name><type>Unvisited</type><desc>Route engine has not provided an explanation</desc></wpt><wpt lat="50.8238644" lon="4.3303472"><name>UZGI3Lm3wW1htlE9</name><type>Unvisited</type><desc>Route engine has not provided an explanation</desc></wpt><wpt lat="50.8446807" lon="4.4155512"><name>m4CAPVDtSIaMwejG</name><type>Unvisited</type><desc>Route engine has not provided an explanation</desc></wpt><wpt lat="50.8559947" lon="4.4002953"><name>AvnPfVvXW1xBfYue</name><type>Unvisited</type><desc>Route engine has not provided an explanation</desc></wpt><wpt lat="50.8308909" lon="4.4605199"><name>NxAaZsZVLdOydxFL</name><type>Pickup</type><desc>Part of shipment Shipment-46</desc></wpt><wpt lat="50.8763626" lon="4.3286142"><name>BEl2ieu2L03fmWgc</name><type>Delivery</type><desc>Part of shipment Shipment-14</desc></wpt><wpt lat="50.8157439" lon="4.3682693"><name>LvzbpPAqJ4keE06U</name><type>Delivery</type><desc>Part of shipment Shipment-1</desc></wpt><wpt lat="50.873057" lon="4.3371698"><name>mUVyEkHKw7Wch32d</name><type>Unvisited</type><desc>Route engine has not provided an explanation</desc></wpt><wpt lat="50.858958" lon="4.3055489"><name>jI32Y4T3GRQ6QWbz</name><type>Unvisited</type><desc>Route engine has not provided an explanation</desc></wpt><wpt lat="50.8179283" lon="4.3640405"><name>Q5kcuq1RYObzrdnd</name><type>Pickup</type><desc>Part of shipment Shipment-33</desc></wpt><wpt lat="50.872287" lon="4.3012406"><name>i4xnsPOLF60QHgAL</name><type>Unvisited</type><desc>Route engine has not provided an explanation</desc></wpt><wpt lat="50.8576761" lon="4.3988478"><name>PLUijI2tfglMZaJw</name><type>Visit</type><desc>Part of shipment Shipment-29,Arrival time: 2024-01-19T08:10:00</desc></wpt><wpt lat="50.8303606" lon="4.3779216"><name>viPfGtmBIq1jM0sK</name><type>Visit</type><desc>Arrival time: 2024-01-19T16:29:00,Part of shipment Shipment-43</desc></wpt><wpt lat="50.8354504" lon="4.2779832"><name>qd1yM7IVUMhcdx9R</name><type>Delivery</type><desc>Part of shipment Shipment-44</desc></wpt><wpt lat="50.8660196" lon="4.39364"><name>rPAwthUEQjs0klfy</name><type>Unvisited</type><desc>Route engine has not provided an explanation</desc></wpt><wpt lat="50.8576761" lon="4.3988478"><name>Eyh7KM3d4PxMU9Ln</name><type>Pickup</type><desc>Part of shipment Shipment-5</desc></wpt><wpt lat="50.8766191" lon="4.3474117"><name>n1PsaVUo4UYhsQiI</name><type>Unvisited</type><desc>Route engine has not provided an explanation</desc></wpt><wpt lat="50.8124983" lon="4.3586917"><name>LcojVrcPACsWanwh</name><type>Unvisited</type><desc>Route engine has not provided an explanation</desc></wpt><wpt lat="50.8766191" lon="4.3474117"><name>MRK754No7kNt0edH</name><type>Delivery</type><desc>Part of shipment Shipment-37</desc></wpt><wpt lat="50.8553591" lon="4.4361122"><name>5bLkmtjC90B4afTm</name><type>Visit</type><desc>Arrival time: 2024-01-19T11:44:00,Part of shipment Shipment-40</desc></wpt><wpt lat="50.8763626" lon="4.3286142"><name>C7SzmUeDJXL0XQvF</name><type>Delivery</type><desc>Part of shipment Shipment-13</desc></wpt><wpt lat="50.858958" lon="4.3055489"><name>ulrH1xlkeOOV1R5S</name><type>Pickup</type><desc>Part of shipment Shipment-8</desc></wpt><wpt lat="50.8335231" lon="4.3454859"><name>L0199cX0q56AoDgr</name><type>Delivery</type><desc>Part of shipment Shipment-22</desc></wpt><wpt lat="50.853491" lon="4.3678576"><name>ujR2T1lpYSJLvN9T</name><type>Visit</type><desc>Arrival time: 2024-01-19T16:48:00,Part of shipment Shipment-43</desc></wpt><wpt lat="50.8475967" lon="4.406154"><name>ZYnLRuJVSQsE7F3M</name><type>Pickup</type><desc>Part of shipment Shipment-17</desc></wpt><wpt lat="50.8304393" lon="4.3432304"><name>03WBq0J9DepNn8mE</name><type>Unvisited</type><desc>Route engine has not provided an explanation</desc></wpt><wpt lat="50.8393808" lon="4.4045573"><name>yrG4pH0TLjFkQjfQ</name><type>Visit</type><desc>Part of shipment Shipment-29,Arrival time: 2024-01-19T08:28:00</desc></wpt><wpt lat="50.8117864" lon="4.3902477"><name>nLzB9e1WyGIVuzPz</name><type>Pickup</type><desc>Part of shipment Shipment-9</desc></wpt><wpt lat="50.8701816" lon="4.3938269"><name>Nqjq6J3PsqaJT9bh</name><type>Unvisited</type><desc>Route engine has not provided an explanation</desc></wpt><wpt lat="50.8393808" lon="4.4045573"><name>6ftsqphJFLEvHNXS</name><type>Pickup</type><desc>Part of shipment Shipment-2</desc></wpt><wpt lat="50.8179283" lon="4.3640405"><name>Q5kcuq1RYObzrdnd</name><type>Visit</type><desc>Arrival time: 2024-01-19T08:50:00,Part of shipment Shipment-33</desc></wpt><wpt lat="50.8763626" lon="4.3286142"><name>crJZ7MSF4bZ2QTRL</name><type>Delivery</type><desc>Part of shipment Shipment-35</desc></wpt><wpt lat="50.8157439" lon="4.3682693"><name>UjLqD5mmfXdBNVf9</name><type>Unvisited</type><desc>Route engine has not provided an explanation</desc></wpt><wpt lat="50.8436883" lon="4.312569"><name>ngzE8McCYVoJhCmz</name><type>Unvisited</type><desc>Route engine has not provided an explanation</desc></wpt><wpt lat="50.8136445" lon="4.3341581"><name>THpLrwxZQkwBDaWy</name><type>Pickup</type><desc>Part of shipment Shipment-47</desc></wpt><wpt lat="50.858958" lon="4.3055489"><name>ulrH1xlkeOOV1R5S</name><type>Unvisited</type><desc>Route engine has not provided an explanation</desc></wpt><wpt lat="50.8238644" lon="4.3303472"><name>a8uXuLvCUBufc2xp</name><type>Visit</type><desc>Part of shipment Shipment-4,Arrival time: 2024-01-19T10:28:00</desc></wpt><wpt lat="50.835557" lon="4.3032944"><name>5doomSJ5I0lUEzBZ</name><type>Pickup</type><desc>Part of shipment Shipment-48</desc></wpt><wpt lat="50.8044921" lon="4.3310153"><name>NX19DGk1Yl8tiSXw</name><type>Pickup</type><desc>Part of shipment Shipment-30</desc></wpt><wpt lat="50.8788789" lon="4.3264239"><name>GiEfUg10spkkrc3C</name><type>Pickup</type><desc>Part of shipment Shipment-0</desc></wpt><wpt lat="50.8117864" lon="4.3902477"><name>nLzB9e1WyGIVuzPz</name><type>Unvisited</type><desc>Route engine has not provided an explanation</desc></wpt><wpt lat="50.8746516" lon="4.3555536"><name>3bXeWaZiY0pBXwD7</name><type>Visit</type><desc>Arrival time: 2024-01-19T09:59:00,Part of shipment Shipment-36</desc></wpt><wpt lat="50.8660196" lon="4.39364"><name>xCbakMEeB34PgjJ4</name><type>Visit</type><desc>Part of shipment Shipment-41,Arrival time: 2024-01-19T12:35:00</desc></wpt><wpt lat="50.8746516" lon="4.3555536"><name>q6WPKyoaf6txGSAd</name><type>Visit</type><desc>Part of shipment Shipment-41,Arrival time: 2024-01-19T12:12:00</desc></wpt><wpt lat="50.8559947" lon="4.4002953"><name>iavYxN18AMS6wGk5</name><type>Pickup</type><desc>Part of shipment Shipment-18</desc></wpt><wpt lat="50.8335231" lon="4.3454859"><name>L0199cX0q56AoDgr</name><type>Unvisited</type><desc>Route engine has not provided an explanation</desc></wpt><wpt lat="50.8136445" lon="4.3341581"><name>THpLrwxZQkwBDaWy</name><type>Visit</type><desc>Part of shipment Shipment-47,Arrival time: 2024-01-19T13:46:00</desc></wpt><wpt lat="50.8441404" lon="4.3493144"><name>amdIFew9cLsrNu5E</name><type>Pickup</type><desc>Part of shipment Shipment-15</desc></wpt><wpt lat="50.8436883" lon="4.312569"><name>ngzE8McCYVoJhCmz</name><type>Delivery</type><desc>Part of shipment Shipment-24</desc></wpt><wpt lat="50.8170084" lon="4.4213413"><name>jPAEhUkYk297pTrN</name><type>Unvisited</type><desc>Route engine has not provided an explanation</desc></wpt><wpt lat="50.872287" lon="4.3012406"><name>iINRFNpcLrYFpEZb</name><type>Unvisited</type><desc>Route engine has not provided an explanation</desc></wpt><wpt lat="50.8766191" lon="4.3474117"><name>uHpMA1tDOPON9Ts3</name><type>Unvisited</type><desc>Route engine has not provided an explanation</desc></wpt><wpt lat="50.877676" lon="4.3316964"><name>xJAq0XW7ONuPGs11</name><type>Delivery</type><desc>Part of shipment Shipment-42</desc></wpt><wpt lat="50.8436883" lon="4.312569"><name>Y5lduRgmBmD0v0zf</name><type>Unvisited</type><desc>Route engine has not provided an explanation</desc></wpt><wpt lat="50.8354504" lon="4.2779832"><name>RXHN9VT73lDcOM7i</name><type>Visit</type><desc>Arrival time: 2024-01-19T10:51:00,Part of shipment Shipment-4</desc></wpt><wpt lat="50.8436883" lon="4.312569"><name>9GJ2wtsQEP2jicGR</name><type>Pickup</type><desc>Part of shipment Shipment-7</desc></wpt><wpt lat="50.8354504" lon="4.2779832"><name>M7x4NCVfzH7voEFt</name><type>Unvisited</type><desc>Route engine has not provided an explanation</desc></wpt><wpt lat="50.8124983" lon="4.3586917"><name>OyBXlMijzG9jbEOk</name><type>Unvisited</type><desc>Route engine has not provided an explanation</desc></wpt><wpt lat="50.8766191" lon="4.3474117"><name>MRK754No7kNt0edH</name><type>Unvisited</type><desc>Route engine has not provided an explanation</desc></wpt><wpt lat="50.8170084" lon="4.4213413"><name>MCPyqA6PYq4kTNIu</name><type>Delivery</type><desc>Part of shipment Shipment-0</desc></wpt><wpt lat="50.8475967" lon="4.406154"><name>YdwenHlCGEQKhWC0</name><type>Pickup</type><desc>Part of shipment Shipment-39</desc></wpt><wpt lat="50.8708605" lon="4.326914"><name>irmpbPHePHIhQhnv</name><type>Pickup</type><desc>Part of shipment Shipment-12</desc></wpt><wpt lat="50.8356647" lon="4.3632582"><name>V2Qx2h7JjiTlb9Pc</name><type>Pickup</type><desc>Part of shipment Shipment-32</desc></wpt><wpt lat="50.877676" lon="4.3316964"><name>xJAq0XW7ONuPGs11</name><type>Visit</type><desc>Part of shipment Shipment-42,Arrival time: 2024-01-19T13:12:00</desc></wpt><wpt lat="50.8788789" lon="4.3264239"><name>mn1KRI38Bpi4dif0</name><type>Unvisited</type><desc>Route engine has not provided an explanation</desc></wpt><wpt lat="50.8788789" lon="4.3264239"><name>GiEfUg10spkkrc3C</name><type>Unvisited</type><desc>Route engine has not provided an explanation</desc></wpt><wpt lat="50.8377259" lon="4.2922891"><name>AQXvpufEZjOI9EEF</name><type>Delivery</type><desc>Part of shipment Shipment-31</desc></wpt><wpt lat="50.856062" lon="4.3669345"><name>End location for vehicle-0</name><type>Vehicle Start</type></wpt><wpt lat="50.8766191" lon="4.3474117"><name>n1PsaVUo4UYhsQiI</name><type>Pickup</type><desc>Part of shipment Shipment-10</desc></wpt><wpt lat="50.8436883" lon="4.312569"><name>9GJ2wtsQEP2jicGR</name><type>Unvisited</type><desc>Route engine has not provided an explanation</desc></wpt><wpt lat="50.8631094" lon="4.3772466"><name>SKFsSIR64V0PAaWV</name><type>Pickup</type><desc>Part of shipment Shipment-40</desc></wpt><wpt lat="50.8308909" lon="4.4605199"><name>Cnf9xIY2cywXjtc0</name><type>Unvisited</type><desc>Route engine has not provided an explanation</desc></wpt><wpt lat="50.8157209" lon="4.4254691"><name>fSX8p7RGVG3rgmAA</name><type>Delivery</type><desc>Part of shipment Shipment-5</desc></wpt><wpt lat="50.8559947" lon="4.4002953"><name>iavYxN18AMS6wGk5</name><type>Unvisited</type><desc>Route engine has not provided an explanation</desc></wpt><wpt lat="50.8559947" lon="4.4002953"><name>AR6owim37jp4kj05</name><type>Unvisited</type><desc>Route engine has not provided an explanation</desc></wpt><wpt lat="50.8238644" lon="4.3303472"><name>8VrD4I1UfoglVTYu</name><type>Delivery</type><desc>Part of shipment Shipment-47</desc></wpt><wpt lat="50.853491" lon="4.3678576"><name>Pk8yd68Ptfz3FBjW</name><type>Unvisited</type><desc>Route engine has not provided an explanation</desc></wpt><wpt lat="50.8157209" lon="4.4254691"><name>fSX8p7RGVG3rgmAA</name><type>Visit</type><desc>Part of shipment Shipment-5,Arrival time: 2024-01-19T14:56:00</desc></wpt><wpt lat="50.877676" lon="4.3316964"><name>9FU0uW2dyjHnQTrH</name><type>Pickup</type><desc>Part of shipment Shipment-24</desc></wpt><wpt lat="50.8746516" lon="4.3555536"><name>3bXeWaZiY0pBXwD7</name><type>Delivery</type><desc>Part of shipment Shipment-36</desc></wpt><wpt lat="50.8170084" lon="4.4213413"><name>jPAEhUkYk297pTrN</name><type>Pickup</type><desc>Part of shipment Shipment-28</desc></wpt><wpt lat="50.8238644" lon="4.3303472"><name>a8uXuLvCUBufc2xp</name><type>Pickup</type><desc>Part of shipment Shipment-4</desc></wpt><wpt lat="50.8660196" lon="4.39364"><name>jpHs3hHJBAyC6fGZ</name><type>Pickup</type><desc>Part of shipment Shipment-42</desc></wpt><wpt lat="50.8157439" lon="4.3682693"><name>UjLqD5mmfXdBNVf9</name><type>Pickup</type><desc>Part of shipment Shipment-21</desc></wpt><wpt lat="50.877676" lon="4.3316964"><name>9FU0uW2dyjHnQTrH</name><type>Unvisited</type><desc>Route engine has not provided an explanation</desc></wpt><wpt lat="50.8179283" lon="4.3640405"><name>T7h6ZrOSJwJSDVvZ</name><type>Delivery</type><desc>Part of shipment Shipment-17</desc></wpt><wpt lat="50.835557" lon="4.3032944"><name>DYZivzOjBFxs7zk8</name><type>Unvisited</type><desc>Route engine has not provided an explanation</desc></wpt><wpt lat="50.872287" lon="4.3012406"><name>i4xnsPOLF60QHgAL</name><type>Pickup</type><desc>Part of shipment Shipment-23</desc></wpt><wpt lat="50.8570042" lon="4.3878973"><name>CsST21qZ0QpnEEDY</name><type>Pickup</type><desc>Part of shipment Shipment-36</desc></wpt><wpt lat="50.8157439" lon="4.3682693"><name>q2Ff9I4PqtWH7Qug</name><type>Pickup</type><desc>Part of shipment Shipment-34</desc></wpt><wpt lat="50.8708605" lon="4.326914"><name>irmpbPHePHIhQhnv</name><type>Visit</type><desc>Arrival time: 2024-01-19T17:09:00,Part of shipment Shipment-12</desc></wpt><wpt lat="50.8238644" lon="4.3303472"><name>8VrD4I1UfoglVTYu</name><type>Visit</type><desc>Arrival time: 2024-01-19T14:03:00,Part of shipment Shipment-47</desc></wpt><wpt lat="50.8303606" lon="4.3779216"><name>FhrsWjwgshXUNDJT</name><type>Unvisited</type><desc>Route engine has not provided an explanation</desc></wpt><wpt lat="50.8559947" lon="4.4002953"><name>SYmL8NQKjaG3NBia</name><type>Unvisited</type><desc>Route engine has not provided an explanation</desc></wpt><wpt lat="50.8788789" lon="4.3264239"><name>9NZ0a7EjClMokV8b</name><type>Delivery</type><desc>Part of shipment Shipment-12</desc></wpt><wpt lat="50.8162833" lon="4.3653036"><name>GJ7W1WrldPe0tQdN</name><type>Pickup</type><desc>Part of shipment Shipment-37</desc></wpt><wpt lat="50.8763626" lon="4.3286142"><name>BEl2ieu2L03fmWgc</name><type>Unvisited</type><desc>Route engine has not provided an explanation</desc></wpt><wpt lat="50.8303606" lon="4.3779216"><name>FhrsWjwgshXUNDJT</name><type>Pickup</type><desc>Part of shipment Shipment-13</desc></wpt><wpt lat="50.8393808" lon="4.4045573"><name>oo73L15qIvnCTUWd</name><type>Delivery</type><desc>Part of shipment Shipment-46</desc></wpt><wpt lat="50.8335231" lon="4.3454859"><name>v5s7JGzo2VTpi0cV</name><type>Unvisited</type><desc>Route engine has not provided an explanation</desc></wpt><wpt lat="50.8238644" lon="4.3303472"><name>1jpsZ5veCuLAyWUB</name><type>Delivery</type><desc>Part of shipment Shipment-48</desc></wpt><wpt lat="50.8446807" lon="4.4155512"><name>m4CAPVDtSIaMwejG</name><type>Delivery</type><desc>Part of shipment Shipment-32</desc></wpt><wpt lat="50.8763626" lon="4.3286142"><name>eUlPxF09js1yx0ce</name><type>Visit</type><desc>Arrival time: 2024-01-19T16:01:00,Part of shipment Shipment-45</desc></wpt><wpt lat="50.8044921" lon="4.3310153"><name>L5eAkmAipoRciD00</name><type>Unvisited</type><desc>Route engine has not provided an explanation</desc></wpt><wpt lat="50.8116981" lon="4.3572021"><name>eQdW5oG82CtigXMS</name><type>Delivery</type><desc>Part of shipment Shipment-21</desc></wpt><wpt lat="50.872287" lon="4.3012406"><name>0vAh8aC7oCRdQTAM</name><type>Delivery</type><desc>Part of shipment Shipment-16</desc></wpt><wpt lat="50.8766191" lon="4.3474117"><name>uHpMA1tDOPON9Ts3</name><type>Pickup</type><desc>Part of shipment Shipment-19</desc></wpt><wpt lat="50.873057" lon="4.3371698"><name>mUVyEkHKw7Wch32d</name><type>Delivery</type><desc>Part of shipment Shipment-27</desc></wpt><wpt lat="50.8170084" lon="4.4213413"><name>MCPyqA6PYq4kTNIu</name><type>Unvisited</type><desc>Route engine has not provided an explanation</desc></wpt><wpt lat="50.8788789" lon="4.3264239"><name>9NZ0a7EjClMokV8b</name><type>Visit</type><desc>Part of shipment Shipment-12,Arrival time: 2024-01-19T17:24:00</desc></wpt><wpt lat="50.8157439" lon="4.3682693"><name>q2Ff9I4PqtWH7Qug</name><type>Unvisited</type><desc>Route engine has not provided an explanation</desc></wpt><wpt lat="50.8308909" lon="4.4605199"><name>NxAaZsZVLdOydxFL</name><type>Unvisited</type><desc>Route engine has not provided an explanation</desc></wpt><wpt lat="50.8238644" lon="4.3303472"><name>1jpsZ5veCuLAyWUB</name><type>Unvisited</type><desc>Route engine has not provided an explanation</desc></wpt><wpt lat="50.8393808" lon="4.4045573"><name>oo73L15qIvnCTUWd</name><type>Unvisited</type><desc>Route engine has not provided an explanation</desc></wpt><wpt lat="50.853491" lon="4.3678576"><name>ujR2T1lpYSJLvN9T</name><type>Delivery</type><desc>Part of shipment Shipment-43</desc></wpt><wpt lat="50.8354504" lon="4.2779832"><name>qd1yM7IVUMhcdx9R</name><type>Unvisited</type><desc>Route engine has not provided an explanation</desc></wpt><wpt lat="50.8162833" lon="4.3653036"><name>tKS2sL2NmMSUi3bO</name><type>Pickup</type><desc>Part of shipment Shipment-26</desc></wpt><wpt lat="50.8335231" lon="4.3454859"><name>12iG8bh2qRhfhRof</name><type>Unvisited</type><desc>Route engine has not provided an explanation</desc></wpt><wpt lat="50.8631094" lon="4.3772466"><name>SKFsSIR64V0PAaWV</name><type>Visit</type><desc>Arrival time: 2024-01-19T11:22:00,Part of shipment Shipment-40</desc></wpt><wpt lat="50.8553591" lon="4.4361122"><name>5bLkmtjC90B4afTm</name><type>Delivery</type><desc>Part of shipment Shipment-40</desc></wpt><wpt lat="50.8179283" lon="4.3640405"><name>939ukpAIQ96k1sjv</name><type>Delivery</type><desc>Part of shipment Shipment-3</desc></wpt><wpt lat="50.8162833" lon="4.3653036"><name>GJ7W1WrldPe0tQdN</name><type>Unvisited</type><desc>Route engine has not provided an explanation</desc></wpt><wpt lat="50.8576761" lon="4.3988478"><name>PLUijI2tfglMZaJw</name><type>Pickup</type><desc>Part of shipment Shipment-29</desc></wpt><wpt lat="50.8157209" lon="4.4254691"><name>JDXFsrVpMnO4kRiO</name><type>Delivery</type><desc>Part of shipment Shipment-19</desc></wpt><wpt lat="50.8044921" lon="4.3310153"><name>ub5AryXM9BUAIXAd</name><type>Pickup</type><desc>Part of shipment Shipment-45</desc></wpt><wpt lat="50.8631094" lon="4.3772466"><name>qGUfkKP7yXTr65F6</name><type>Pickup</type><desc>Part of shipment Shipment-3</desc></wpt><wpt lat="50.8660196" lon="4.39364"><name>rPAwthUEQjs0klfy</name><type>Pickup</type><desc>Part of shipment Shipment-1</desc></wpt><wpt lat="50.8304393" lon="4.3432304"><name>03WBq0J9DepNn8mE</name><type>Delivery</type><desc>Part of shipment Shipment-8</desc></wpt><wpt lat="50.8763626" lon="4.3286142"><name>crJZ7MSF4bZ2QTRL</name><type>Unvisited</type><desc>Route engine has not provided an explanation</desc></wpt><wpt lat="50.8157209" lon="4.4254691"><name>DnFPI9Zjd0fDT14n</name><type>Unvisited</type><desc>Route engine has not provided an explanation</desc></wpt><wpt lat="50.8427288" lon="4.3473982"><name>42es3i3amVMEIwyF</name><type>Delivery</type><desc>Part of shipment Shipment-33</desc></wpt><wpt lat="50.8559947" lon="4.4002953"><name>AvnPfVvXW1xBfYue</name><type>Delivery</type><desc>Part of shipment Shipment-49</desc></wpt></gpx>