<?xml version='1.0' encoding='UTF-8'?><gpx name="Route-1" version="1.1" creator="org.metavrp.gpx"><desc/><rte><name>vehicle-3 2024-01-19</name><rtept lat="50.8393571" lon="4.3440775"/><rtept lat="50.813944" lon="4.346304"/><rtept lat="50.8489106" lon="4.4543499"/><rtept lat="50.8393571" lon="4.3440775"/></rte><rte><name>vehicle-2 2024-01-19</name><rtept lat="50.7994098" lon="4.3651485"/><rtept lat="50.8047676" lon="4.3671911"/><rtept lat="50.7931678" lon="4.4214987"/><rtept lat="50.7994098" lon="4.3651485"/></rte><rte><name>vehicle-1 2024-01-19</name><rtept lat="50.8675234" lon="4.321533"/><rtept lat="50.8148899" lon="4.3681416"/><rtept lat="50.889908" lon="4.3238985"/><rtept lat="50.8675234" lon="4.321533"/></rte><rte><name>vehicle-0 2024-01-19</name><rtept lat="50.8759359" lon="4.3889709"/><rtept lat="50.889908" lon="4.3238985"/><rtept lat="50.8580853" lon="4.4124259"/><rtept lat="50.8759359" lon="4.3889709"/></rte><wpt lat="50.8284949" lon="4.3330261"><name>htyHic583qveC0IG</name><type>Unvisited</type><desc>Route engine has not provided an explanation</desc></wpt><wpt lat="50.8148899" lon="4.3681416"><name>GAm01yu27LT2xp2Q</name><type>Visit</type><desc>Arrival time: 2024-01-19T08:18:00,Part of shipment Shipment-16</desc></wpt><wpt lat="50.8284949" lon="4.3330261"><name>QEKePiuanrTa2Ilo</name><type>Pickup</type><desc>Part of shipment Shipment-13</desc></wpt><wpt lat="50.8759359" lon="4.3889709"><name>Start location for vehicle-0</name><type>Vehicle Start</type><desc>Cargo Capacity: [1200, 5500]</desc></wpt><wpt lat="50.8489106" lon="4.4543499"><name>bP2BkKC2GfRIia9G</name><type>Delivery</type><desc>Part of shipment Shipment-17</desc></wpt><wpt lat="50.8284949" lon="4.3330261"><name>hMj1OfnsZljzKOpj</name><type>Unvisited</type><desc>Route engine has not provided an explanation</desc></wpt><wpt lat="50.8148899" lon="4.3681416"><name>RSomUNQozod9aQUT</name><type>Unvisited</type><desc>Route engine has not provided an explanation</desc></wpt><wpt lat="50.7838591" lon="4.3258415"><name>osqL8S3blwzLZ2PX</name><type>Unvisited</type><desc>Route engine has not provided an explanation</desc></wpt><wpt lat="50.8257609" lon="4.4067892"><name>bXf2MxowPVtb6qsJ</name><type>Unvisited</type><desc>Route engine has not provided an explanation</desc></wpt><wpt lat="50.8508559" lon="4.3845576"><name>6RLRW3Hz7viWStER</name><type>Pickup</type><desc>Part of shipment Shipment-6</desc></wpt><wpt lat="50.8067965" lon="4.3936645"><name>oPTAwtCNaM4xZc2A</name><type>Delivery</type><desc>Part of shipment Shipment-6</desc></wpt><wpt lat="50.7838591" lon="4.3258415"><name>V24qA00A8UaktqzT</name><type>Delivery</type><desc>Part of shipment Shipment-11</desc></wpt><wpt lat="50.8474377" lon="4.3141123"><name>kMZIpSaD9A9koG2R</name><type>Pickup</type><desc>Part of shipment Shipment-4</desc></wpt><wpt lat="50.8474377" lon="4.3141123"><name>aMT5Zxc5g1Suszbd</name><type>Pickup</type><desc>Part of shipment Shipment-11</desc></wpt><wpt lat="50.8148899" lon="4.3681416"><name>OM2b0pRI0SrZVIZ8</name><type>Unvisited</type><desc>Route engine has not provided an explanation</desc></wpt><wpt lat="50.8474377" lon="4.3141123"><name>kMZIpSaD9A9koG2R</name><type>Unvisited</type><desc>Route engine has not provided an explanation</desc></wpt><wpt lat="50.7838591" lon="4.3258415"><name>V24qA00A8UaktqzT</name><type>Unvisited</type><desc>Route engine has not provided an explanation</desc></wpt><wpt lat="50.813944" lon="4.346304"><name>xgWIi0e6GXGCGo65</name><type>Pickup</type><desc>Part of shipment Shipment-2</desc></wpt><wpt lat="50.8213915" lon="4.3280075"><name>ChkYpwSdZMxovMdv</name><type>Delivery</type><desc>Part of shipment Shipment-7</desc></wpt><wpt lat="50.8580853" lon="4.4124259"><name>4gSphvgj9540Kukx</name><type>Pickup</type><desc>Part of shipment Shipment-0</desc></wpt><wpt lat="50.8148899" lon="4.3681416"><name>GAm01yu27LT2xp2Q</name><type>Pickup</type><desc>Part of shipment Shipment-16</desc></wpt><wpt lat="50.8580853" lon="4.4124259"><name>f6ErOnXbUjHqFMxQ</name><type>Delivery</type><desc>Part of shipment Shipment-5</desc></wpt><wpt lat="50.8284949" lon="4.3330261"><name>ZQu1fVVQKNbIpyEd</name><type>Unvisited</type><desc>Route engine has not provided an explanation</desc></wpt><wpt lat="50.8489106" lon="4.4543499"><name>B0mb5kDlUBbccoe2</name><type>Delivery</type><desc>Part of shipment Shipment-2</desc></wpt><wpt lat="50.7687722" lon="4.3821189"><name>2rDHughmWvT1bGFn</name><type>Unvisited</type><desc>Route engine has not provided an explanation</desc></wpt><wpt lat="50.8148899" lon="4.3681416"><name>RSomUNQozod9aQUT</name><type>Delivery</type><desc>Part of shipment Shipment-3</desc></wpt><wpt lat="50.8213915" lon="4.3280075"><name>oIH5T5wE3Pmpov5I</name><type>Pickup</type><desc>Part of shipment Shipment-3</desc></wpt><wpt lat="50.8596255" lon="4.332662"><name>bxWQbcKFPjPTS0A5</name><type>Delivery</type><desc>Part of shipment Shipment-13</desc></wpt><wpt lat="50.8489106" lon="4.4543499"><name>bP2BkKC2GfRIia9G</name><type>Unvisited</type><desc>Route engine has not provided an explanation</desc></wpt><wpt lat="50.8232617" lon="4.2923124"><name>ue2ORQeEter8XOne</name><type>Pickup</type><desc>Part of shipment Shipment-9</desc></wpt><wpt lat="50.8232617" lon="4.2923124"><name>ue2ORQeEter8XOne</name><type>Unvisited</type><desc>Route engine has not provided an explanation</desc></wpt><wpt lat="50.8596255" lon="4.332662"><name>u8ZWqfAMQtyA27IM</name><type>Delivery</type><desc>Part of shipment Shipment-10</desc></wpt><wpt lat="50.8393571" lon="4.3440775"><name>End location for vehicle-3</name><type>Vehicle Start</type></wpt><wpt lat="50.889908" lon="4.3238985"><name>7JJ6k0FpHjAJuefI</name><type>Pickup</type><desc>Part of shipment Shipment-5</desc></wpt><wpt lat="50.8474377" lon="4.3141123"><name>aMT5Zxc5g1Suszbd</name><type>Unvisited</type><desc>Route engine has not provided an explanation</desc></wpt><wpt lat="50.8047676" lon="4.3671911"><name>VBLI53M9aCCZwxan</name><type>Visit</type><desc>Part of shipment Shipment-1,Arrival time: 2024-01-19T08:03:00</desc></wpt><wpt lat="50.8284949" lon="4.3330261"><name>ZQu1fVVQKNbIpyEd</name><type>Pickup</type><desc>Part of shipment Shipment-14</desc></wpt><wpt lat="50.813944" lon="4.346304"><name>Sdhl2nuLOU6LRxaU</name><type>Pickup</type><desc>Part of shipment Shipment-8</desc></wpt><wpt lat="50.8067965" lon="4.3936645"><name>oPTAwtCNaM4xZc2A</name><type>Unvisited</type><desc>Route engine has not provided an explanation</desc></wpt><wpt lat="50.8508559" lon="4.3845576"><name>H0FepaoG3rIUaZO4</name><type>Unvisited</type><desc>Route engine has not provided an explanation</desc></wpt><wpt lat="50.889908" lon="4.3238985"><name>y5IdnxiGyn5vnBWI</name><type>Visit</type><desc>Arrival time: 2024-01-19T08:52:00,Part of shipment Shipment-16</desc></wpt><wpt lat="50.8580853" lon="4.4124259"><name>4gSphvgj9540Kukx</name><type>Unvisited</type><desc>Route engine has not provided an explanation</desc></wpt><wpt lat="50.889908" lon="4.3238985"><name>Vv1Klso91wfLSute</name><type>Pickup</type><desc>Part of shipment Shipment-19</desc></wpt><wpt lat="50.7931678" lon="4.4214987"><name>iJhDgHDJGBUP1qda</name><type>Pickup</type><desc>Part of shipment Shipment-17</desc></wpt><wpt lat="50.8508559" lon="4.3845576"><name>3gm1c2Vqob6Pzvoq</name><type>Unvisited</type><desc>Route engine has not provided an explanation</desc></wpt><wpt lat="50.7927727" lon="4.3427964"><name>1kR1zuxIPgBqwauW</name><type>Delivery</type><desc>Part of shipment Shipment-9</desc></wpt><wpt lat="50.889908" lon="4.3238985"><name>7JJ6k0FpHjAJuefI</name><type>Visit</type><desc>Part of shipment Shipment-5,Arrival time: 2024-01-19T08:17:00</desc></wpt><wpt lat="50.8596255" lon="4.332662"><name>u8ZWqfAMQtyA27IM</name><type>Unvisited</type><desc>Route engine has not provided an explanation</desc></wpt><wpt lat="50.889908" lon="4.3238985"><name>Vv1Klso91wfLSute</name><type>Unvisited</type><desc>Route engine has not provided an explanation</desc></wpt><wpt lat="50.8508559" lon="4.3845576"><name>3gm1c2Vqob6Pzvoq</name><type>Pickup</type><desc>Part of shipment Shipment-18</desc></wpt><wpt lat="50.8067965" lon="4.3936645"><name>gJjJpAkf3f6Ae83o</name><type>Unvisited</type><desc>Route engine has not provided an explanation</desc></wpt><wpt lat="50.8489106" lon="4.4543499"><name>B0mb5kDlUBbccoe2</name><type>Visit</type><desc>Arrival time: 2024-01-19T08:46:00,Part of shipment Shipment-2</desc></wpt><wpt lat="50.7838591" lon="4.3258415"><name>Upn3Fsg1Klt03Os9</name><type>Unvisited</type><desc>Route engine has not provided an explanation</desc></wpt><wpt lat="50.8148899" lon="4.3681416"><name>Vf0agEd3humFx5lh</name><type>Delivery</type><desc>Part of shipment Shipment-0</desc></wpt><wpt lat="50.8148899" lon="4.3681416"><name>OM2b0pRI0SrZVIZ8</name><type>Delivery</type><desc>Part of shipment Shipment-15</desc></wpt><wpt lat="50.8580853" lon="4.4124259"><name>f6ErOnXbUjHqFMxQ</name><type>Visit</type><desc>Part of shipment Shipment-5,Arrival time: 2024-01-19T08:47:00</desc></wpt><wpt lat="50.8759359" lon="4.3889709"><name>End location for vehicle-0</name><type>Vehicle Start</type></wpt><wpt lat="50.7838591" lon="4.3258415"><name>Upn3Fsg1Klt03Os9</name><type>Pickup</type><desc>Part of shipment Shipment-10</desc></wpt><wpt lat="50.813944" lon="4.346304"><name>xgWIi0e6GXGCGo65</name><type>Visit</type><desc>Part of shipment Shipment-2,Arrival time: 2024-01-19T08:13:00</desc></wpt><wpt lat="50.8213915" lon="4.3280075"><name>oIH5T5wE3Pmpov5I</name><type>Unvisited</type><desc>Route engine has not provided an explanation</desc></wpt><wpt lat="50.8284949" lon="4.3330261"><name>htyHic583qveC0IG</name><type>Delivery</type><desc>Part of shipment Shipment-8</desc></wpt><wpt lat="50.7931678" lon="4.4214987"><name>6rXBlaLLFmiT99eu</name><type>Delivery</type><desc>Part of shipment Shipment-1</desc></wpt><wpt lat="50.813944" lon="4.346304"><name>Sdhl2nuLOU6LRxaU</name><type>Unvisited</type><desc>Route engine has not provided an explanation</desc></wpt><wpt lat="50.8284949" lon="4.3330261"><name>QEKePiuanrTa2Ilo</name><type>Unvisited</type><desc>Route engine has not provided an explanation</desc></wpt><wpt lat="50.7927727" lon="4.3427964"><name>1kR1zuxIPgBqwauW</name><type>Unvisited</type><desc>Route engine has not provided an explanation</desc></wpt><wpt lat="50.7931678" lon="4.4214987"><name>iJhDgHDJGBUP1qda</name><type>Unvisited</type><desc>Route engine has not provided an explanation</desc></wpt><wpt lat="50.8047676" lon="4.3671911"><name>VBLI53M9aCCZwxan</name><type>Pickup</type><desc>Part of shipment Shipment-1</desc></wpt><wpt lat="50.8213915" lon="4.3280075"><name>MnZRbZk8lRKc7bqh</name><type>Unvisited</type><desc>Route engine has not provided an explanation</desc></wpt><wpt lat="50.7994098" lon="4.3651485"><name>End location for vehicle-2</name><type>Vehicle Start</type></wpt><wpt lat="50.8213915" lon="4.3280075"><name>ChkYpwSdZMxovMdv</name><type>Unvisited</type><desc>Route engine has not provided an explanation</desc></wpt><wpt lat="50.8067965" lon="4.3936645"><name>gJjJpAkf3f6Ae83o</name><type>Delivery</type><desc>Part of shipment Shipment-19</desc></wpt><wpt lat="50.7838591" lon="4.3258415"><name>osqL8S3blwzLZ2PX</name><type>Pickup</type><desc>Part of shipment Shipment-12</desc></wpt><wpt lat="50.8284949" lon="4.3330261"><name>hMj1OfnsZljzKOpj</name><type>Pickup</type><desc>Part of shipment Shipment-7</desc></wpt><wpt lat="50.8675234" lon="4.321533"><name>Start location for vehicle-1</name><type>Vehicle Start</type><desc>Cargo Capacity: [1200, 5500]</desc></wpt><wpt lat="50.8508559" lon="4.3845576"><name>6RLRW3Hz7viWStER</name><type>Unvisited</type><desc>Route engine has not provided an explanation</desc></wpt><wpt lat="50.8257609" lon="4.4067892"><name>bXf2MxowPVtb6qsJ</name><type>Delivery</type><desc>Part of shipment Shipment-14</desc></wpt><wpt lat="50.8213915" lon="4.3280075"><name>MnZRbZk8lRKc7bqh</name><type>Delivery</type><desc>Part of shipment Shipment-18</desc></wpt><wpt lat="50.8393571" lon="4.3440775"><name>Start location for vehicle-3</name><type>Vehicle Start</type><desc>Cargo Capacity: [1200, 5500]</desc></wpt><wpt lat="50.8596255" lon="4.332662"><name>bxWQbcKFPjPTS0A5</name><type>Unvisited</type><desc>Route engine has not provided an explanation</desc></wpt><wpt lat="50.8508559" lon="4.3845576"><name>H0FepaoG3rIUaZO4</name><type>Pickup</type><desc>Part of shipment Shipment-15</desc></wpt><wpt lat="50.8474377" lon="4.3141123"><name>kui1mlACyAWPJxM3</name><type>Delivery</type><desc>Part of shipment Shipment-12</desc></wpt><wpt lat="50.7994098" lon="4.3651485"><name>Start location for vehicle-2</name><type>Vehicle Start</type><desc>Cargo Capacity: [1200, 5500]</desc></wpt><wpt lat="50.8474377" lon="4.3141123"><name>kui1mlACyAWPJxM3</name><type>Unvisited</type><desc>Route engine has not provided an explanation</desc></wpt><wpt lat="50.889908" lon="4.3238985"><name>y5IdnxiGyn5vnBWI</name><type>Delivery</type><desc>Part of shipment Shipment-16</desc></wpt><wpt lat="50.7931678" lon="4.4214987"><name>6rXBlaLLFmiT99eu</name><type>Visit</type><desc>Arrival time: 2024-01-19T08:24:00,Part of shipment Shipment-1</desc></wpt><wpt lat="50.7687722" lon="4.3821189"><name>2rDHughmWvT1bGFn</name><type>Delivery</type><desc>Part of shipment Shipment-4</desc></wpt><wpt lat="50.8148899" lon="4.3681416"><name>Vf0agEd3humFx5lh</name><type>Unvisited</type><desc>Route engine has not provided an explanation</desc></wpt><wpt lat="50.8675234" lon="4.321533"><name>End location for vehicle-1</name><type>Vehicle Start</type></wpt></gpx>