<?xml version='1.0' encoding='UTF-8'?><gpx name="Route-1" version="1.1" creator="org.metavrp.gpx"><desc/><rte><name>vehicle-3 2024-01-19</name><rtept lat="50.8470574" lon="3.4497364"/><rtept lat="51.0305278" lon="3.5590171"/><rtept lat="50.8866867" lon="3.2581115"/><rtept lat="50.8708635" lon="3.6177021"/><rtept lat="50.8248756" lon="3.2728112"/><rtept lat="51.0547718" lon="3.7472387"/><rtept lat="51.2321691" lon="4.4610511"/><rtept lat="51.2295807" lon="4.4777089"/><rtept lat="50.8708635" lon="3.6177021"/><rtept lat="50.8470574" lon="3.4497364"/></rte><rte><name>vehicle-2 2024-01-19</name><rtept lat="51.3245628" lon="4.5733317"/><rtept lat="51.1370042" lon="3.4175238"/><rtept lat="51.2084531" lon="3.3204318"/><rtept lat="51.1074301" lon="3.3828821"/><rtept lat="51.0547718" lon="3.7472387"/><rtept lat="51.2514504" lon="4.4593122"/><rtept lat="51.2295807" lon="4.4777089"/><rtept lat="51.2295807" lon="4.4777089"/><rtept lat="50.8863131" lon="4.7436251"/><rtept lat="51.3245628" lon="4.5733317"/></rte><rte><name>vehicle-0 2024-01-19</name><rtept lat="51.3175195" lon="5.0964645"/><rtept lat="51.1269985" lon="4.8823252"/><rtept lat="51.1652844" lon="4.1705918"/><rtept lat="50.9449668" lon="3.9502611"/><rtept lat="50.925892" lon="4.6882541"/><rtept lat="50.8749344" lon="4.7220994"/><rtept lat="51.1370042" lon="3.4175238"/><rtept lat="50.9565625" lon="3.3003783"/><rtept lat="51.0794915" lon="4.6737598"/><rtept lat="51.3175195" lon="5.0964645"/></rte><rte><name>vehicle-1 2024-01-19</name><rtept lat="51.3245628" lon="4.5733317"/><rtept lat="50.8896839" lon="4.0579897"/><rtept lat="51.0313655" lon="3.0403231"/><rtept lat="51.0877982" lon="3.4554834"/><rtept lat="51.0184594" lon="3.7559804"/><rtept lat="51.0184594" lon="3.7559804"/><rtept lat="51.1370042" lon="3.4175238"/><rtept lat="51.2084531" lon="3.3204318"/><rtept lat="51.0313655" lon="3.0403231"/><rtept lat="51.3245628" lon="4.5733317"/></rte><wpt lat="51.2662608" lon="4.3388302"><name>0TRtQYqGSfJ8NDvm</name><type>Delivery</type><desc>Part of shipment Shipment-10</desc></wpt><wpt lat="51.0952691" lon="4.3738357"><name>U08giGHCyxNZRGZW</name><type>Unvisited</type><desc>Route engine has not provided an explanation</desc></wpt><wpt lat="51.0767702" lon="5.2541075"><name>a7KZDEdcFLJLjXnc</name><type>Unvisited</type><desc>Route engine has not provided an explanation</desc></wpt><wpt lat="51.2166419" lon="3.2176761"><name>SVzxpqm6PALqba7N</name><type>Pickup</type><desc>Part of shipment Shipment-4</desc></wpt><wpt lat="50.8106156" lon="5.1842026"><name>5RIGICsL9vm7OIs7</name><type>Pickup</type><desc>Part of shipment Shipment-15</desc></wpt><wpt lat="50.8708635" lon="3.6177021"><name>Ft9sIzDgi3pteDgH</name><type>Visit</type><desc>Arrival time: 2024-01-19T14:15:00,Part of shipment Shipment-17</desc></wpt><wpt lat="51.3245628" lon="4.5733317"><name>End location for vehicle-2</name><type>Vehicle Start</type></wpt><wpt lat="51.0452483" lon="3.7264315"><name>6wrDUI3T7uZ54s9Q</name><type>Pickup</type><desc>Part of shipment Shipment-28</desc></wpt><wpt lat="51.0952691" lon="4.3738357"><name>U08giGHCyxNZRGZW</name><type>Delivery</type><desc>Part of shipment Shipment-13</desc></wpt><wpt lat="51.2166419" lon="3.2176761"><name>dYsWx7WrQTnYgD8z</name><type>Delivery</type><desc>Part of shipment Shipment-8</desc></wpt><wpt lat="51.2255144" lon="3.7497961"><name>iTWGf4GhqV2Rn05x</name><type>Unvisited</type><desc>Route engine has not provided an explanation</desc></wpt><wpt lat="51.2662608" lon="4.3388302"><name>WEb5cjNLgYJyHL9F</name><type>Unvisited</type><desc>Route engine has not provided an explanation</desc></wpt><wpt lat="51.0547718" lon="3.7472387"><name>mH4GIvXnbgVodlFd</name><type>Delivery</type><desc>Part of shipment Shipment-39</desc></wpt><wpt lat="50.8358232" lon="5.4246849"><name>s25XcwfrbTzf632i</name><type>Unvisited</type><desc>Route engine has not provided an explanation</desc></wpt><wpt lat="50.8749344" lon="4.7220994"><name>LqrB0b9TGfDv2jGB</name><type>Unvisited</type><desc>Route engine has not provided an explanation</desc></wpt><wpt lat="51.0547718" lon="3.7472387"><name>BHlXfQalDQaMkGbM</name><type>Visit</type><desc>Arrival time: 2024-01-19T11:41:00,Part of shipment Shipment-49</desc></wpt><wpt lat="51.0305278" lon="3.5590171"><name>HxGXBud6i3R5lzrS</name><type>Delivery</type><desc>Part of shipment Shipment-33</desc></wpt><wpt lat="51.0313655" lon="3.0403231"><name>KMvxmax2aKQAAnp7</name><type>Pickup</type><desc>Part of shipment Shipment-19</desc></wpt><wpt lat="51.1651744" lon="4.4717129"><name>1U0DJ3VhHjgjUGkF</name><type>Pickup</type><desc>Part of shipment Shipment-2</desc></wpt><wpt lat="50.9607251" lon="4.2303973"><name>4qYhz6OOoL41FKnb</name><type>Unvisited</type><desc>Route engine has not provided an explanation</desc></wpt><wpt lat="50.7468171" lon="5.0683484"><name>eM4L8DIzzl5w7nDc</name><type>Delivery</type><desc>Part of shipment Shipment-47</desc></wpt><wpt lat="50.925892" lon="4.6882541"><name>prPeWm1E6Ieyw6bI</name><type>Unvisited</type><desc>Route engine has not provided an explanation</desc></wpt><wpt lat="51.0313655" lon="3.0403231"><name>burbhOyn06trTkHG</name><type>Visit</type><desc>Part of shipment Shipment-46,Arrival time: 2024-01-19T14:05:00</desc></wpt><wpt lat="51.2662608" lon="4.3388302"><name>2acRSOkgFqSCFZeJ</name><type>Pickup</type><desc>Part of shipment Shipment-42</desc></wpt><wpt lat="50.9449668" lon="3.9502611"><name>QNL971hOOKeeIbyL</name><type>Pickup</type><desc>Part of shipment Shipment-32</desc></wpt><wpt lat="51.1074301" lon="3.3828821"><name>TtXug4UsBPRYNrlg</name><type>Pickup</type><desc>Part of shipment Shipment-39</desc></wpt><wpt lat="51.2084531" lon="3.3204318"><name>1L5x4vZeeNmafQbt</name><type>Visit</type><desc>Arrival time: 2024-01-19T13:13:00,Part of shipment Shipment-46</desc></wpt><wpt lat="51.1201654" lon="5.5924551"><name>SMnYEl3Ivc43By5y</name><type>Pickup</type><desc>Part of shipment Shipment-23</desc></wpt><wpt lat="51.2662608" lon="4.3388302"><name>2acRSOkgFqSCFZeJ</name><type>Unvisited</type><desc>Route engine has not provided an explanation</desc></wpt><wpt lat="50.8708635" lon="3.6177021"><name>M0VaslNU5H3UyXwy</name><type>Pickup</type><desc>Part of shipment Shipment-14</desc></wpt><wpt lat="51.2255144" lon="3.7497961"><name>iTWGf4GhqV2Rn05x</name><type>Pickup</type><desc>Part of shipment Shipment-48</desc></wpt><wpt lat="50.925892" lon="4.6882541"><name>QNCZjX3sl5cODa8c</name><type>Pickup</type><desc>Part of shipment Shipment-45</desc></wpt><wpt lat="50.8749344" lon="4.7220994"><name>iCjtRd4Kpais5TVJ</name><type>Pickup</type><desc>Part of shipment Shipment-38</desc></wpt><wpt lat="50.8708635" lon="3.6177021"><name>M0VaslNU5H3UyXwy</name><type>Visit</type><desc>Part of shipment Shipment-14,Arrival time: 2024-01-19T10:08:00</desc></wpt><wpt lat="50.7933298" lon="3.1920325"><name>MSyJgx3n94ZjTC77</name><type>Pickup</type><desc>Part of shipment Shipment-44</desc></wpt><wpt lat="51.2295807" lon="4.4777089"><name>jg7kpObH912RrlSg</name><type>Visit</type><desc>Arrival time: 2024-01-19T12:44:00,Part of shipment Shipment-9</desc></wpt><wpt lat="51.2662608" lon="4.3388302"><name>WEb5cjNLgYJyHL9F</name><type>Delivery</type><desc>Part of shipment Shipment-3</desc></wpt><wpt lat="51.0305278" lon="3.5590171"><name>HxGXBud6i3R5lzrS</name><type>Unvisited</type><desc>Route engine has not provided an explanation</desc></wpt><wpt lat="50.8248756" lon="3.2728112"><name>zD92tz8ujwS5UXLZ</name><type>Visit</type><desc>Arrival time: 2024-01-19T10:52:00,Part of shipment Shipment-14</desc></wpt><wpt lat="50.8106156" lon="5.1842026"><name>0Xq97V0CjAbWG9Ju</name><type>Unvisited</type><desc>Route engine has not provided an explanation</desc></wpt><wpt lat="50.9565625" lon="3.3003783"><name>Ktd6CQlDlmL7BaBv</name><type>Visit</type><desc>Arrival time: 2024-01-19T14:22:00,Part of shipment Shipment-20</desc></wpt><wpt lat="50.925892" lon="4.6882541"><name>hinZCuSPzPi7QGFz</name><type>Delivery</type><desc>Part of shipment Shipment-32</desc></wpt><wpt lat="50.8708635" lon="3.6177021"><name>Ft9sIzDgi3pteDgH</name><type>Delivery</type><desc>Part of shipment Shipment-17</desc></wpt><wpt lat="50.8749344" lon="4.7220994"><name>eScj51hfxeTxDOiA</name><type>Unvisited</type><desc>Route engine has not provided an explanation</desc></wpt><wpt lat="50.9451138" lon="4.0228112"><name>i4D3rCELlYYymGdD</name><type>Unvisited</type><desc>Route engine has not provided an explanation</desc></wpt><wpt lat="51.0547718" lon="3.7472387"><name>nEqSVB66PZ5FcwsE</name><type>Delivery</type><desc>Part of shipment Shipment-12</desc></wpt><wpt lat="51.1641831" lon="4.92643"><name>PRYfMqg1FRUDPiaN</name><type>Unvisited</type><desc>Route engine has not provided an explanation</desc></wpt><wpt lat="50.8896839" lon="4.0579897"><name>vUp5WCGpF9ggnwss</name><type>Visit</type><desc>Part of shipment Shipment-41,Arrival time: 2024-01-19T09:06:00</desc></wpt><wpt lat="50.8326407" lon="3.4043744"><name>YxtI5csgxqrYOjHi</name><type>Pickup</type><desc>Part of shipment Shipment-40</desc></wpt><wpt lat="51.0313655" lon="3.0403231"><name>84F9oMPwKalqiTE6</name><type>Visit</type><desc>Part of shipment Shipment-41,Arrival time: 2024-01-19T10:28:00</desc></wpt><wpt lat="51.2295807" lon="4.4777089"><name>43CSnF29g8FtWgQM</name><type>Visit</type><desc>Part of shipment Shipment-30,Arrival time: 2024-01-19T12:34:00</desc></wpt><wpt lat="50.8106156" lon="5.1842026"><name>c4c1FXao8Jy4keAc</name><type>Unvisited</type><desc>Route engine has not provided an explanation</desc></wpt><wpt lat="50.8326407" lon="3.4043744"><name>ebrAHhldch5FQ2Sb</name><type>Delivery</type><desc>Part of shipment Shipment-27</desc></wpt><wpt lat="51.2166419" lon="3.2176761"><name>SVzxpqm6PALqba7N</name><type>Unvisited</type><desc>Route engine has not provided an explanation</desc></wpt><wpt lat="50.8749344" lon="4.7220994"><name>X7Cy2iqFeYAL5DWU</name><type>Unvisited</type><desc>Route engine has not provided an explanation</desc></wpt><wpt lat="50.9607251" lon="4.2303973"><name>4qYhz6OOoL41FKnb</name><type>Delivery</type><desc>Part of shipment Shipment-16</desc></wpt><wpt lat="50.8708635" lon="3.6177021"><name>MoNlMVU14xlpZjUn</name><type>Delivery</type><desc>Part of shipment Shipment-0</desc></wpt><wpt lat="50.8749344" lon="4.7220994"><name>eScj51hfxeTxDOiA</name><type>Pickup</type><desc>Part of shipment Shipment-25</desc></wpt><wpt lat="50.8708635" lon="3.6177021"><name>MoNlMVU14xlpZjUn</name><type>Unvisited</type><desc>Route engine has not provided an explanation</desc></wpt><wpt lat="50.9607251" lon="4.2303973"><name>dVN263mMcFBcAmWv</name><type>Delivery</type><desc>Part of shipment Shipment-37</desc></wpt><wpt lat="51.1651744" lon="4.4717129"><name>w4m8qpRmNamNjdEQ</name><type>Unvisited</type><desc>Route engine has not provided an explanation</desc></wpt><wpt lat="51.2084531" lon="3.3204318"><name>bsEKcVHwvmY2NTas</name><type>Unvisited</type><desc>Route engine has not provided an explanation</desc></wpt><wpt lat="51.0452483" lon="3.7264315"><name>swtZdtRXrkpd3lfQ</name><type>Delivery</type><desc>Part of shipment Shipment-4</desc></wpt><wpt lat="51.2514504" lon="4.4593122"><name>kUYyKfSul4hG5WVL</name><type>Pickup</type><desc>Part of shipment Shipment-30</desc></wpt><wpt lat="51.1370042" lon="3.4175238"><name>3O6P0k2Z2uZ6m1qg</name><type>Pickup</type><desc>Part of shipment Shipment-11</desc></wpt><wpt lat="51.2514504" lon="4.4593122"><name>kUYyKfSul4hG5WVL</name><type>Visit</type><desc>Part of shipment Shipment-30,Arrival time: 2024-01-19T12:14:00</desc></wpt><wpt lat="51.0305278" lon="3.5590171"><name>mdYLH9X2XrsD4RXX</name><type>Pickup</type><desc>Part of shipment Shipment-18</desc></wpt><wpt lat="50.8106156" lon="5.1842026"><name>0Xq97V0CjAbWG9Ju</name><type>Pickup</type><desc>Part of shipment Shipment-7</desc></wpt><wpt lat="51.1269985" lon="4.8823252"><name>qyBYBuENRcMTxslz</name><type>Visit</type><desc>Arrival time: 2024-01-19T08:42:00,Part of shipment Shipment-24</desc></wpt><wpt lat="51.0794915" lon="4.6737598"><name>n4qBfJN2uA7Tki9H</name><type>Visit</type><desc>Part of shipment Shipment-20,Arrival time: 2024-01-19T16:18:00</desc></wpt><wpt lat="51.0547718" lon="3.7472387"><name>nEqSVB66PZ5FcwsE</name><type>Unvisited</type><desc>Route engine has not provided an explanation</desc></wpt><wpt lat="50.8106156" lon="5.1842026"><name>Ldj1jMnfyjppdeXE</name><type>Delivery</type><desc>Part of shipment Shipment-45</desc></wpt><wpt lat="50.8749344" lon="4.7220994"><name>X7Cy2iqFeYAL5DWU</name><type>Pickup</type><desc>Part of shipment Shipment-47</desc></wpt><wpt lat="51.2076389" lon="3.1320272"><name>9SV8Lc69gEFVuaiY</name><type>Pickup</type><desc>Part of shipment Shipment-3</desc></wpt><wpt lat="51.0547718" lon="3.7472387"><name>UIqsW3QWR1yq1g6n</name><type>Delivery</type><desc>Part of shipment Shipment-7</desc></wpt><wpt lat="51.0877982" lon="3.4554834"><name>7S514MgM9G7URTlT</name><type>Visit</type><desc>Part of shipment Shipment-6,Arrival time: 2024-01-19T11:18:00</desc></wpt><wpt lat="51.2295807" lon="4.4777089"><name>jg7kpObH912RrlSg</name><type>Pickup</type><desc>Part of shipment Shipment-9</desc></wpt><wpt lat="51.2295807" lon="4.4777089"><name>4vUzko4zPhrWUpgU</name><type>Delivery</type><desc>Part of shipment Shipment-35</desc></wpt><wpt lat="51.1238644" lon="4.336706"><name>NtZE9VA5cUwAFrj4</name><type>Unvisited</type><desc>Route engine has not provided an explanation</desc></wpt><wpt lat="51.3175195" lon="5.0964645"><name>End location for vehicle-0</name><type>Vehicle Start</type></wpt><wpt lat="51.2295807" lon="4.4777089"><name>4vUzko4zPhrWUpgU</name><type>Unvisited</type><desc>Route engine has not provided an explanation</desc></wpt><wpt lat="51.0794915" lon="4.6737598"><name>O2RGypjNLWLfukU8</name><type>Unvisited</type><desc>Route engine has not provided an explanation</desc></wpt><wpt lat="51.1074301" lon="3.3828821"><name>TtXug4UsBPRYNrlg</name><type>Visit</type><desc>Part of shipment Shipment-39,Arrival time: 2024-01-19T10:23:00</desc></wpt><wpt lat="51.0452483" lon="3.7264315"><name>6wrDUI3T7uZ54s9Q</name><type>Unvisited</type><desc>Route engine has not provided an explanation</desc></wpt><wpt lat="51.0305278" lon="3.5590171"><name>cRkygPdrhpeAoG9r</name><type>Pickup</type><desc>Part of shipment Shipment-29</desc></wpt><wpt lat="50.8866867" lon="3.2581115"><name>gzSjqVsUaX10XewQ</name><type>Delivery</type><desc>Part of shipment Shipment-42</desc></wpt><wpt lat="50.8866867" lon="3.2581115"><name>2JtrtxeeJPbygv1q</name><type>Visit</type><desc>Part of shipment Shipment-18,Arrival time: 2024-01-19T09:21:00</desc></wpt><wpt lat="50.8106156" lon="5.1842026"><name>c4c1FXao8Jy4keAc</name><type>Pickup</type><desc>Part of shipment Shipment-12</desc></wpt><wpt lat="50.9607251" lon="4.2303973"><name>EPXodlHchROqJhLk</name><type>Delivery</type><desc>Part of shipment Shipment-48</desc></wpt><wpt lat="50.8358232" lon="5.4246849"><name>r3E5xjONpfyXY5tR</name><type>Delivery</type><desc>Part of shipment Shipment-26</desc></wpt><wpt lat="50.8248756" lon="3.2728112"><name>J6MStouAd5LH2o8A</name><type>Unvisited</type><desc>Route engine has not provided an explanation</desc></wpt><wpt lat="50.8326407" lon="3.4043744"><name>ebrAHhldch5FQ2Sb</name><type>Unvisited</type><desc>Route engine has not provided an explanation</desc></wpt><wpt lat="50.7933298" lon="3.1920325"><name>y1wwOU8gVL45mOth</name><type>Unvisited</type><desc>Route engine has not provided an explanation</desc></wpt><wpt lat="51.2295807" lon="4.4777089"><name>fpaMErTKvfPcxhEG</name><type>Unvisited</type><desc>Route engine has not provided an explanation</desc></wpt><wpt lat="51.0547718" lon="3.7472387"><name>mH4GIvXnbgVodlFd</name><type>Visit</type><desc>Arrival time: 2024-01-19T11:08:00,Part of shipment Shipment-39</desc></wpt><wpt lat="51.2538952" lon="5.4805067"><name>9s4Lc2IRe6csl2RO</name><type>Pickup</type><desc>Part of shipment Shipment-37</desc></wpt><wpt lat="51.2084531" lon="3.3204318"><name>1tztaDFoo9UZtwx5</name><type>Delivery</type><desc>Part of shipment Shipment-11</desc></wpt><wpt lat="51.2538952" lon="5.4805067"><name>9s4Lc2IRe6csl2RO</name><type>Unvisited</type><desc>Route engine has not provided an explanation</desc></wpt><wpt lat="51.0305278" lon="3.5590171"><name>mdYLH9X2XrsD4RXX</name><type>Visit</type><desc>Part of shipment Shipment-18,Arrival time: 2024-01-19T08:31:00</desc></wpt><wpt lat="50.9565625" lon="3.3003783"><name>Ktd6CQlDlmL7BaBv</name><type>Pickup</type><desc>Part of shipment Shipment-20</desc></wpt><wpt lat="50.8749344" lon="4.7220994"><name>LqrB0b9TGfDv2jGB</name><type>Delivery</type><desc>Part of shipment Shipment-21</desc></wpt><wpt lat="50.8863131" lon="4.7436251"><name>PYKamWfSkZOHNSzc</name><type>Delivery</type><desc>Part of shipment Shipment-9</desc></wpt><wpt lat="51.1931245" lon="4.4467843"><name>FhTAsrpVEQYDSk76</name><type>Unvisited</type><desc>Route engine has not provided an explanation</desc></wpt><wpt lat="50.8106156" lon="5.1842026"><name>ULRSsxx7VUYsFKI2</name><type>Unvisited</type><desc>Route engine has not provided an explanation</desc></wpt><wpt lat="51.0305278" lon="3.5590171"><name>cRkygPdrhpeAoG9r</name><type>Unvisited</type><desc>Route engine has not provided an explanation</desc></wpt><wpt lat="51.0547718" lon="3.7472387"><name>UIqsW3QWR1yq1g6n</name><type>Unvisited</type><desc>Route engine has not provided an explanation</desc></wpt><wpt lat="50.8873114" lon="5.6749646"><name>LoOj3qXvDD6NtauC</name><type>Unvisited</type><desc>Route engine has not provided an explanation</desc></wpt><wpt lat="50.8358232" lon="5.4246849"><name>r3E5xjONpfyXY5tR</name><type>Unvisited</type><desc>Route engine has not provided an explanation</desc></wpt><wpt lat="51.2662608" lon="4.3388302"><name>ALtFXDwHNFYK3bWV</name><type>Delivery</type><desc>Part of shipment Shipment-1</desc></wpt><wpt lat="50.9458763" lon="3.8890285"><name>iYjBQCO0kOhhRDp4</name><type>Delivery</type><desc>Part of shipment Shipment-5</desc></wpt><wpt lat="51.2166419" lon="3.2176761"><name>dYsWx7WrQTnYgD8z</name><type>Unvisited</type><desc>Route engine has not provided an explanation</desc></wpt><wpt lat="51.2662608" lon="4.3388302"><name>ALtFXDwHNFYK3bWV</name><type>Unvisited</type><desc>Route engine has not provided an explanation</desc></wpt><wpt lat="51.0313655" lon="3.0403231"><name>burbhOyn06trTkHG</name><type>Delivery</type><desc>Part of shipment Shipment-46</desc></wpt><wpt lat="51.2295807" lon="4.4777089"><name>xw8XRBLYGHaJ0iu9</name><type>Visit</type><desc>Arrival time: 2024-01-19T12:58:00,Part of shipment Shipment-17</desc></wpt><wpt lat="50.925892" lon="4.6882541"><name>prPeWm1E6Ieyw6bI</name><type>Delivery</type><desc>Part of shipment Shipment-15</desc></wpt><wpt lat="51.1651744" lon="4.4717129"><name>w4m8qpRmNamNjdEQ</name><type>Delivery</type><desc>Part of shipment Shipment-29</desc></wpt><wpt lat="51.0452483" lon="3.7264315"><name>swtZdtRXrkpd3lfQ</name><type>Unvisited</type><desc>Route engine has not provided an explanation</desc></wpt><wpt lat="51.1931245" lon="4.4467843"><name>gb0Mj8gkIXtg5NQb</name><type>Unvisited</type><desc>Route engine has not provided an explanation</desc></wpt><wpt lat="50.9607251" lon="4.2303973"><name>dVN263mMcFBcAmWv</name><type>Unvisited</type><desc>Route engine has not provided an explanation</desc></wpt><wpt lat="51.1370042" lon="3.4175238"><name>rwIFSpMrOQD0aEEL</name><type>Visit</type><desc>Arrival time: 2024-01-19T12:43:00,Part of shipment Shipment-43</desc></wpt><wpt lat="50.7933298" lon="3.1920325"><name>XhSsP4I1p6VtoiN8</name><type>Pickup</type><desc>Part of shipment Shipment-34</desc></wpt><wpt lat="51.2295807" lon="4.4777089"><name>43CSnF29g8FtWgQM</name><type>Delivery</type><desc>Part of shipment Shipment-30</desc></wpt><wpt lat="50.925892" lon="4.6882541"><name>hinZCuSPzPi7QGFz</name><type>Visit</type><desc>Arrival time: 2024-01-19T11:47:00,Part of shipment Shipment-32</desc></wpt><wpt lat="51.2321691" lon="4.4610511"><name>JXnbp99KpvxoGYFQ</name><type>Delivery</type><desc>Part of shipment Shipment-49</desc></wpt><wpt lat="51.2076389" lon="3.1320272"><name>9SV8Lc69gEFVuaiY</name><type>Unvisited</type><desc>Route engine has not provided an explanation</desc></wpt><wpt lat="51.2084531" lon="3.3204318"><name>1tztaDFoo9UZtwx5</name><type>Visit</type><desc>Part of shipment Shipment-11,Arrival time: 2024-01-19T09:46:00</desc></wpt><wpt lat="51.0547718" lon="3.7472387"><name>v9VrDLJhlXWFuzLS</name><type>Pickup</type><desc>Part of shipment Shipment-26</desc></wpt><wpt lat="51.1652844" lon="4.1705918"><name>ROrIdCkahxlLX1Zm</name><type>Visit</type><desc>Part of shipment Shipment-24,Arrival time: 2024-01-19T09:44:00</desc></wpt><wpt lat="51.3476065" lon="3.2739424"><name>vmvIVM5YRfR9Sdwz</name><type>Unvisited</type><desc>Route engine has not provided an explanation</desc></wpt><wpt lat="51.0430222" lon="3.1586183"><name>CYzU30nMyuXW4XGk</name><type>Unvisited</type><desc>Route engine has not provided an explanation</desc></wpt><wpt lat="51.2084531" lon="3.3204318"><name>dvWEkfNyHB04LbSA</name><type>Unvisited</type><desc>Route engine has not provided an explanation</desc></wpt><wpt lat="51.2321691" lon="4.4610511"><name>JXnbp99KpvxoGYFQ</name><type>Visit</type><desc>Arrival time: 2024-01-19T12:42:00,Part of shipment Shipment-49</desc></wpt><wpt lat="51.1931245" lon="4.4467843"><name>FhTAsrpVEQYDSk76</name><type>Pickup</type><desc>Part of shipment Shipment-21</desc></wpt><wpt lat="50.9451138" lon="4.0228112"><name>i4D3rCELlYYymGdD</name><type>Pickup</type><desc>Part of shipment Shipment-13</desc></wpt><wpt lat="51.0313655" lon="3.0403231"><name>84F9oMPwKalqiTE6</name><type>Delivery</type><desc>Part of shipment Shipment-41</desc></wpt><wpt lat="50.8866867" lon="3.2581115"><name>gzSjqVsUaX10XewQ</name><type>Unvisited</type><desc>Route engine has not provided an explanation</desc></wpt><wpt lat="51.2084531" lon="3.3204318"><name>1L5x4vZeeNmafQbt</name><type>Pickup</type><desc>Part of shipment Shipment-46</desc></wpt><wpt lat="50.925892" lon="4.6882541"><name>jVn1CmRvr9cjMhO0</name><type>Unvisited</type><desc>Route engine has not provided an explanation</desc></wpt><wpt lat="51.2084531" lon="3.3204318"><name>bsEKcVHwvmY2NTas</name><type>Pickup</type><desc>Part of shipment Shipment-0</desc></wpt><wpt lat="51.1074301" lon="3.3828821"><name>OL3PPG1apQJQDXSF</name><type>Delivery</type><desc>Part of shipment Shipment-31</desc></wpt><wpt lat="51.0184594" lon="3.7559804"><name>v5Iu3NIrdbYxTE5x</name><type>Pickup</type><desc>Part of shipment Shipment-43</desc></wpt><wpt lat="50.9565625" lon="3.3003783"><name>MinVnfEoWERh29Nk</name><type>Delivery</type><desc>Part of shipment Shipment-23</desc></wpt><wpt lat="51.2662608" lon="4.3388302"><name>gCq303hLaF92rPQr</name><type>Delivery</type><desc>Part of shipment Shipment-36</desc></wpt><wpt lat="51.2295807" lon="4.4777089"><name>fpaMErTKvfPcxhEG</name><type>Pickup</type><desc>Part of shipment Shipment-5</desc></wpt><wpt lat="51.3245628" lon="4.5733317"><name>End location for vehicle-1</name><type>Vehicle Start</type></wpt><wpt lat="50.925892" lon="4.6882541"><name>QNCZjX3sl5cODa8c</name><type>Unvisited</type><desc>Route engine has not provided an explanation</desc></wpt><wpt lat="50.9607251" lon="4.2303973"><name>EPXodlHchROqJhLk</name><type>Unvisited</type><desc>Route engine has not provided an explanation</desc></wpt><wpt lat="51.2662608" lon="4.3388302"><name>0TRtQYqGSfJ8NDvm</name><type>Unvisited</type><desc>Route engine has not provided an explanation</desc></wpt><wpt lat="51.1651744" lon="4.4717129"><name>1U0DJ3VhHjgjUGkF</name><type>Unvisited</type><desc>Route engine has not provided an explanation</desc></wpt><wpt lat="51.1370042" lon="3.4175238"><name>3O6P0k2Z2uZ6m1qg</name><type>Visit</type><desc>Part of shipment Shipment-11,Arrival time: 2024-01-19T09:16:00</desc></wpt><wpt lat="51.1370042" lon="3.4175238"><name>oO9G5OFfNxcRcarp</name><type>Visit</type><desc>Arrival time: 2024-01-19T13:43:00,Part of shipment Shipment-38</desc></wpt><wpt lat="51.1370042" lon="3.4175238"><name>LzGyOjE5vIhg0Wuy</name><type>Pickup</type><desc>Part of shipment Shipment-10</desc></wpt><wpt lat="51.0184594" lon="3.7559804"><name>N6Q1uFQEXmRvzE40</name><type>Delivery</type><desc>Part of shipment Shipment-6</desc></wpt><wpt lat="50.7933298" lon="3.1920325"><name>XhSsP4I1p6VtoiN8</name><type>Unvisited</type><desc>Route engine has not provided an explanation</desc></wpt><wpt lat="50.9449668" lon="3.9502611"><name>EP2Zv4Ac6sfUts42</name><type>Unvisited</type><desc>Route engine has not provided an explanation</desc></wpt><wpt lat="50.8470574" lon="3.4497364"><name>End location for vehicle-3</name><type>Vehicle Start</type></wpt><wpt lat="50.7933298" lon="3.1920325"><name>y1wwOU8gVL45mOth</name><type>Pickup</type><desc>Part of shipment Shipment-36</desc></wpt><wpt lat="51.0547718" lon="3.7472387"><name>BHlXfQalDQaMkGbM</name><type>Pickup</type><desc>Part of shipment Shipment-49</desc></wpt><wpt lat="51.1370042" lon="3.4175238"><name>rwIFSpMrOQD0aEEL</name><type>Delivery</type><desc>Part of shipment Shipment-43</desc></wpt><wpt lat="50.8106156" lon="5.1842026"><name>ULRSsxx7VUYsFKI2</name><type>Pickup</type><desc>Part of shipment Shipment-31</desc></wpt><wpt lat="51.2255144" lon="3.7497961"><name>jZ72M4yY7lanGoLj</name><type>Unvisited</type><desc>Route engine has not provided an explanation</desc></wpt><wpt lat="51.2295807" lon="4.4777089"><name>xw8XRBLYGHaJ0iu9</name><type>Pickup</type><desc>Part of shipment Shipment-17</desc></wpt><wpt lat="51.0313655" lon="3.0403231"><name>KMvxmax2aKQAAnp7</name><type>Unvisited</type><desc>Route engine has not provided an explanation</desc></wpt><wpt lat="51.2255144" lon="3.7497961"><name>jZ72M4yY7lanGoLj</name><type>Pickup</type><desc>Part of shipment Shipment-27</desc></wpt><wpt lat="50.7468171" lon="5.0683484"><name>eM4L8DIzzl5w7nDc</name><type>Unvisited</type><desc>Route engine has not provided an explanation</desc></wpt><wpt lat="51.0184594" lon="3.7559804"><name>v5Iu3NIrdbYxTE5x</name><type>Visit</type><desc>Part of shipment Shipment-43,Arrival time: 2024-01-19T12:04:00</desc></wpt><wpt lat="51.2084531" lon="3.3204318"><name>dvWEkfNyHB04LbSA</name><type>Delivery</type><desc>Part of shipment Shipment-34</desc></wpt><wpt lat="50.8866867" lon="3.2581115"><name>2JtrtxeeJPbygv1q</name><type>Delivery</type><desc>Part of shipment Shipment-18</desc></wpt><wpt lat="51.0547718" lon="3.7472387"><name>v9VrDLJhlXWFuzLS</name><type>Unvisited</type><desc>Route engine has not provided an explanation</desc></wpt><wpt lat="51.3175195" lon="5.0964645"><name>Start location for vehicle-0</name><type>Vehicle Start</type><desc>Cargo Capacity: [1200, 5500]</desc></wpt><wpt lat="50.7933298" lon="3.1920325"><name>MSyJgx3n94ZjTC77</name><type>Unvisited</type><desc>Route engine has not provided an explanation</desc></wpt><wpt lat="50.8749344" lon="4.7220994"><name>iCjtRd4Kpais5TVJ</name><type>Visit</type><desc>Arrival time: 2024-01-19T12:12:00,Part of shipment Shipment-38</desc></wpt><wpt lat="50.9458763" lon="3.8890285"><name>iYjBQCO0kOhhRDp4</name><type>Unvisited</type><desc>Route engine has not provided an explanation</desc></wpt><wpt lat="51.1074301" lon="3.3828821"><name>OL3PPG1apQJQDXSF</name><type>Unvisited</type><desc>Route engine has not provided an explanation</desc></wpt><wpt lat="51.0877982" lon="3.4554834"><name>7S514MgM9G7URTlT</name><type>Pickup</type><desc>Part of shipment Shipment-6</desc></wpt><wpt lat="51.2662608" lon="4.3388302"><name>gCq303hLaF92rPQr</name><type>Unvisited</type><desc>Route engine has not provided an explanation</desc></wpt><wpt lat="50.8248756" lon="3.2728112"><name>zD92tz8ujwS5UXLZ</name><type>Delivery</type><desc>Part of shipment Shipment-14</desc></wpt><wpt lat="51.3245628" lon="4.5733317"><name>Start location for vehicle-1</name><type>Vehicle Start</type><desc>Cargo Capacity: [1200, 5500]</desc></wpt><wpt lat="50.8470574" lon="3.4497364"><name>Start location for vehicle-3</name><type>Vehicle Start</type><desc>Cargo Capacity: [1200, 5500]</desc></wpt><wpt lat="51.0184594" lon="3.7559804"><name>N6Q1uFQEXmRvzE40</name><type>Visit</type><desc>Part of shipment Shipment-6,Arrival time: 2024-01-19T11:54:00</desc></wpt><wpt lat="50.9449668" lon="3.9502611"><name>QNL971hOOKeeIbyL</name><type>Visit</type><desc>Part of shipment Shipment-32,Arrival time: 2024-01-19T10:41:00</desc></wpt><wpt lat="51.1238644" lon="4.336706"><name>NtZE9VA5cUwAFrj4</name><type>Pickup</type><desc>Part of shipment Shipment-22</desc></wpt><wpt lat="51.3245628" lon="4.5733317"><name>Start location for vehicle-2</name><type>Vehicle Start</type><desc>Cargo Capacity: [1200, 5500]</desc></wpt><wpt lat="51.1652844" lon="4.1705918"><name>ROrIdCkahxlLX1Zm</name><type>Delivery</type><desc>Part of shipment Shipment-24</desc></wpt><wpt lat="50.9565625" lon="3.3003783"><name>MinVnfEoWERh29Nk</name><type>Unvisited</type><desc>Route engine has not provided an explanation</desc></wpt><wpt lat="50.8326407" lon="3.4043744"><name>YxtI5csgxqrYOjHi</name><type>Unvisited</type><desc>Route engine has not provided an explanation</desc></wpt><wpt lat="50.8863131" lon="4.7436251"><name>PYKamWfSkZOHNSzc</name><type>Visit</type><desc>Arrival time: 2024-01-19T13:52:00,Part of shipment Shipment-9</desc></wpt><wpt lat="51.0430222" lon="3.1586183"><name>CYzU30nMyuXW4XGk</name><type>Pickup</type><desc>Part of shipment Shipment-8</desc></wpt><wpt lat="51.0794915" lon="4.6737598"><name>n4qBfJN2uA7Tki9H</name><type>Delivery</type><desc>Part of shipment Shipment-20</desc></wpt><wpt lat="51.1931245" lon="4.4467843"><name>FqC5nw1PJqOtEJXX</name><type>Delivery</type><desc>Part of shipment Shipment-22</desc></wpt><wpt lat="50.8873114" lon="5.6749646"><name>LoOj3qXvDD6NtauC</name><type>Pickup</type><desc>Part of shipment Shipment-33</desc></wpt><wpt lat="51.0794915" lon="4.6737598"><name>O2RGypjNLWLfukU8</name><type>Delivery</type><desc>Part of shipment Shipment-19</desc></wpt><wpt lat="51.1269985" lon="4.8823252"><name>qyBYBuENRcMTxslz</name><type>Pickup</type><desc>Part of shipment Shipment-24</desc></wpt><wpt lat="51.1641831" lon="4.92643"><name>PRYfMqg1FRUDPiaN</name><type>Delivery</type><desc>Part of shipment Shipment-25</desc></wpt><wpt lat="51.1370042" lon="3.4175238"><name>LzGyOjE5vIhg0Wuy</name><type>Unvisited</type><desc>Route engine has not provided an explanation</desc></wpt><wpt lat="50.8248756" lon="3.2728112"><name>J6MStouAd5LH2o8A</name><type>Pickup</type><desc>Part of shipment Shipment-16</desc></wpt><wpt lat="51.0767702" lon="5.2541075"><name>a7KZDEdcFLJLjXnc</name><type>Pickup</type><desc>Part of shipment Shipment-1</desc></wpt><wpt lat="50.925892" lon="4.6882541"><name>jVn1CmRvr9cjMhO0</name><type>Delivery</type><desc>Part of shipment Shipment-28</desc></wpt><wpt lat="51.1201654" lon="5.5924551"><name>SMnYEl3Ivc43By5y</name><type>Unvisited</type><desc>Route engine has not provided an explanation</desc></wpt><wpt lat="50.8106156" lon="5.1842026"><name>5RIGICsL9vm7OIs7</name><type>Unvisited</type><desc>Route engine has not provided an explanation</desc></wpt><wpt lat="50.9449668" lon="3.9502611"><name>EP2Zv4Ac6sfUts42</name><type>Delivery</type><desc>Part of shipment Shipment-44</desc></wpt><wpt lat="51.1931245" lon="4.4467843"><name>gb0Mj8gkIXtg5NQb</name><type>Pickup</type><desc>Part of shipment Shipment-35</desc></wpt><wpt lat="51.1370042" lon="3.4175238"><name>oO9G5OFfNxcRcarp</name><type>Delivery</type><desc>Part of shipment Shipment-38</desc></wpt><wpt lat="50.8358232" lon="5.4246849"><name>s25XcwfrbTzf632i</name><type>Delivery</type><desc>Part of shipment Shipment-2</desc></wpt><wpt lat="50.8106156" lon="5.1842026"><name>Ldj1jMnfyjppdeXE</name><type>Unvisited</type><desc>Route engine has not provided an explanation</desc></wpt><wpt lat="51.3476065" lon="3.2739424"><name>vmvIVM5YRfR9Sdwz</name><type>Delivery</type><desc>Part of shipment Shipment-40</desc></wpt><wpt lat="50.8896839" lon="4.0579897"><name>vUp5WCGpF9ggnwss</name><type>Pickup</type><desc>Part of shipment Shipment-41</desc></wpt><wpt lat="51.1931245" lon="4.4467843"><name>FqC5nw1PJqOtEJXX</name><type>Unvisited</type><desc>Route engine has not provided an explanation</desc></wpt></gpx>